{"code":"AE","states":[{"name":"Abu Dhabi Emirate","state_code":"AZ","latitude":"24.45388400","longitude":"54.37734380","cities":[{"name":"Abu Dhabi Island and Internal Islands City","latitude":"24.45110000","longitude":"54.39690000","translations":{"ru":"Абу-Даби (остров и внутренние острова)","hy":"Աբու Դաբի կղզի և ներքին կղզիների քաղաք"}},{"name":"Abu Dhabi Municipality","latitude":"24.41361000","longitude":"54.43295000","translations":{"ru":"Муниципальность Абу-Даби","hy":"Աբու Դաբի市政厅"}},{"name":"Al Ain City","latitude":"24.19167000","longitude":"55.76056000","native":"مدينة العين","translations":{"br":"Kêr Al Ain","ko":"알아인 시티","pt-BR":"Cidade de Al Ain","pt":"Cidade de Al Ain","nl":"Al Ain-stad","hr":"Grad Al Ain","fa":"شهر العین","de":"Al Ain Stadt","es":"Ciudad de Al Ain","fr":"Ville d'Al Aïn","ja":"アルアイン市","it":"Città di Al Ain","zh-CN":"艾因市","tr":"Al Ain Şehri","ru":"Город Аль-Айн","uk":"Місто Аль-Айн","pl":"Miasto Al Ain","hi":"अल ऐन शहर","ar":"مدينة العين","hy":"Ալ Այն քաղաք"}},{"name":"Al Ain Municipality","latitude":"24.15223000","longitude":"55.82040000","translations":{"ru":"Муниципальность Аль-Айна","hy":"Ալ Այն համայնքային խորհուրդ"}},{"name":"Al Dhafra","latitude":"23.65745000","longitude":"53.72225000","native":"الظفرة","translations":{"br":"Al Dhafra","ko":"알 다프라","pt-BR":"Al Dhafra","pt":"Al Dhafra","nl":"Al Dhafra","hr":"Al Dhafra","fa":"الظفره","de":"Al Dhafra","es":"Al Dhafra","fr":"Al-Dhafra","ja":"アル・ダフラ","it":"Al Dhafra","zh-CN":"阿尔达夫拉","tr":"El Zafra","ru":"Аль-Дафра","uk":"Аль-Дафра","pl":"Al-Dhafra","hi":"अल धाफरा","ar":"الظفرة","hy":"Ալ Դաֆրա"}},{"name":"Al Shamkhah City","latitude":"24.39268000","longitude":"54.70779000","translations":{"ru":"Город Аль-Шамхах","hy":"Ալ Շամխա քաղաք"}},{"name":"Ar Ruways","latitude":"24.11028000","longitude":"52.73056000","translations":{"ru":"Ар-Рувайс","hy":"Ար Ուայս"}},{"name":"Bani Yas City","latitude":"24.30978000","longitude":"54.62944000","native":"مدينة بني ياس","translations":{"br":"Kêr Bani Yas","ko":"바니 야스 시티","pt-BR":"Cidade de Bani Yas","pt":"Cidade de Bani Yas","nl":"Bani Yas City","hr":"Grad Bani Yas","fa":"شهر بنی یاس","de":"Bani Yas Stadt","es":"Ciudad de Bani Yas","fr":"Ville de Bani Yas","ja":"バニヤス市","it":"Città di Bani Yas","zh-CN":"巴尼亚斯市","tr":"Bani Yas Şehri","ru":"Город Бани Яс","uk":"Місто Бані-Яс","pl":"Miasto Bani Yas","hi":"बानी यस शहर","ar":"مدينة بني ياس","hy":"Բանի Յաս քաղաք"}},{"name":"Khalifah A City","latitude":"24.42588000","longitude":"54.60500000","translations":{"ru":"Город Халифа А","hy":"Խալիֆա Ա քաղաք"}},{"name":"Musaffah","latitude":"24.35893000","longitude":"54.48267000","translations":{"ru":"Мусаффах","hy":"Մուսաֆֆա"}},{"name":"Muzayri‘","latitude":"23.14355000","longitude":"53.78810000","native":"مزيرعي","translations":{"br":"Muzayri‘","ko":"무자이리‘","pt-BR":"Muzayri‘","pt":"Muzayri‘","nl":"Muzayri‘","hr":"Muzayri'","fa":"مزیری","de":"Muzayri‘","es":"Muzayri‘","fr":"Muzayri‘","ja":"ムザイリ","it":"Muzayri‘","zh-CN":"穆扎伊里","tr":"Muzayri'","ru":"Музайри‘","uk":"Музайрі","pl":"Muzayri‘","hi":"मुज़ैरी‘","ar":"مزيرعي"}},{"name":"Zayed City","latitude":"23.65416000","longitude":"53.70522000","native":"مدينة زايد","translations":{"br":"Kêr Zayed","ko":"자이드 시티","pt-BR":"Cidade de Zayed","pt":"Cidade de Zayed","nl":"Zayed City","hr":"Zayed City","fa":"شهر زاید","de":"Zayed-Stadt","es":"Ciudad Zayed","fr":"Ville de Zayed","ja":"ザイードシティ","it":"Città di Zayed","zh-CN":"扎耶德城","tr":"Zayed Şehri","ru":"Город Зайед","uk":"Місто Заїд","pl":"Miasto Zayed","hi":"जायद शहर","ar":"مدينة زايد","hy":"Զայեդ քաղաք"}}]},{"name":"Ajman Emirate","state_code":"AJ","latitude":"25.40521650","longitude":"55.51364330","cities":[{"name":"Ajman","latitude":"25.40328000","longitude":"55.52341000","native":"عجمان","translations":{"br":"Ajman","ko":"아지만","pt-BR":"Ajman","pt":"Ajman","nl":"Ajman","hr":"Ajman","fa":"عجمان","de":"Adschman","es":"Ajmán","fr":"Ajman","ja":"アジュマーン","it":"Ajman","zh-CN":"阿治曼","tr":"Acman","ru":"Аджман","uk":"Аджман","pl":"Adżman","hi":"अजमान","ar":"عجمان","hy":"Աջման"}},{"name":"Ajman City","latitude":"25.40177000","longitude":"55.47878000","translations":{"ru":"Город Аджман","hy":"Աջման քաղաք"}},{"name":"Manama","latitude":"25.32568000","longitude":"56.00259000","native":"المنامة","translations":{"br":"Manama","ko":"마나마","pt-BR":"Manama","pt":"Manama","nl":"Manama","hr":"Manama","fa":"منامه","de":"Manama","es":"Manama","fr":"Manama","ja":"マナマ","it":"Manama","zh-CN":"麦纳麦","tr":"Manama","ru":"Манама","uk":"Манама","pl":"Manama","hi":"मनामा","ar":"المنامة","hy":"Մանամա"}},{"name":"Masfout","latitude":"24.83982000","longitude":"56.05158000","translations":{"ru":"Масфут","hy":"Մասֆուտ"}}]},{"name":"Dubai","state_code":"DU","latitude":"25.20484930","longitude":"55.27078280","cities":[{"name":"Dubai","latitude":"25.06570000","longitude":"55.17128000","native":"دبي","translations":{"br":"Dubai","ko":"두바이","pt-BR":"Dubai","pt":"Dubai","nl":"Dubai","hr":"Dubai","fa":"دبی","de":"Dubai","es":"Dubái","fr":"Dubaï","ja":"ドバイ","it":"Dubai","zh-CN":"迪拜","tr":"Dubai","ru":"Дубай","uk":"Дубай","pl":"Dubai","hi":"दुबई","ar":"دبي","hy":"Դուբայ"}}]},{"name":"Fujairah","state_code":"FU","latitude":"25.12880990","longitude":"56.32648490","cities":[{"name":"Al Fujairah City","latitude":"25.11641000","longitude":"56.34141000","translations":{"ru":"Город Фуджайра","hy":"Ալ Ֆուջայրա քաղաք"}},{"name":"Al Fujairah Municipality","latitude":"25.13557000","longitude":"56.33279000","translations":{"ru":"Муниципальность Фуджайра","hy":"Ալ Ֆուջայրա համայնքային խորհուրդ"}},{"name":"Dibba Al Fujairah Municipality","latitude":"25.58580000","longitude":"56.24792000","translations":{"ru":"Муниципальность Dibba Al Fujairah","hy":"Դիբբա Ալ Ֆուջայրա համայնքային խորհուրդ"}},{"name":"Dibba Al-Fujairah","latitude":"25.59246000","longitude":"56.26176000","native":"دبا الفجيرة","translations":{"br":"Dibba Al-Fujairah","ko":"디바 알-푸자이라","pt-BR":"Dibba Al-Fujairah","pt":"Dibba Al-Fujairah","nl":"Dibba Al-Fujairah","hr":"Dibba Al-Fujairah","fa":"دبا الفجیره","de":"Dibba Al-Fujairah","es":"Dibba Al-Fujairah","fr":"Dibba Al-Fujairah","ja":"ディバ・アル・フジャイラ","it":"Dibba Al-Fujairah","zh-CN":"迪巴·富查伊拉","tr":"Dibba Al-Fujairah","ru":"Дибба Аль-Фуджейра","uk":"Дібба Аль-Фуджайра","pl":"Dibba Al-Fujairah","hi":"डिब्बा अल-फ़ुजैरा","ar":"دبا الفجيرة","hy":"Դիբբա Ալ-Ֆուջայրա"}},{"name":"Dibba Al-Hisn","latitude":"25.61955000","longitude":"56.27291000","native":"دبا الحصن","translations":{"br":"Dibba Al-Hisn","ko":"디바 알-히스","pt-BR":"Dibba Al-Hisn","pt":"Dibba Al-Hisn","nl":"Dibba Al-Hisn","hr":"Dibba Al-Hisn","fa":"دبا الحصن","de":"Dibba Al-Hisn","es":"Dibba Al-Hisn","fr":"Dibba Al-Hisn","ja":"ディバ・アル・ヒスン","it":"Dibba Al-Hisn","zh-CN":"迪巴·阿尔希森","tr":"Dibba Al-Hisn","ru":"Дибба Аль-Хисн","uk":"Дібба Аль-Хісн","pl":"Dibba Al-Hisn","hi":"डिब्बा अल-हिसन","ar":"دبا الحصن","hy":"Դիբբա Ալ-Հիսն"}},{"name":"Reef Al Fujairah City","latitude":"25.14479000","longitude":"56.24764000","translations":{"ru":"Город Риф Фуджайра","hy":"Ռիֆ Ալ Ֆուջայրա քաղաք"}}]},{"name":"Ras al-Khaimah","state_code":"RK","latitude":"25.67413430","longitude":"55.98041730","cities":[{"name":"Ras Al Khaimah","latitude":"25.46116000","longitude":"56.04058000","native":"رأس الخيمة","translations":{"br":"Ras Al Khaimah","ko":"라스 알 카이마","pt-BR":"Ras Al Khaimah","pt":"Ras Al Khaimah","nl":"Ras Al Khaimah","hr":"Ras Al Khaimah","fa":"راس الخیمه","de":"Ras Al Khaimah","es":"Ras Al Khaimah","fr":"Ras el Khaïmah","ja":"ラス・アル・ハイマ","it":"Ras Al Khaimah","zh-CN":"拉斯海玛","tr":"Ras Al Khaimah","ru":"Рас-эль-Хайма","uk":"Рас-ель-Хайма","pl":"Ras Al Khaimah","hi":"रस अल खैमाह","ar":"رأس الخيمة","hy":"Ռաս Ալ Խայմա"}},{"name":"Ras Al Khaimah City","latitude":"25.78953000","longitude":"55.94320000","translations":{"ru":"Город Рас-эль-Хайма","hy":"Ռաս Ալ Խայմա քաղաք"}}]},{"name":"Sharjah Emirate","state_code":"SH","latitude":"25.07539740","longitude":"55.75784030","cities":[{"name":"Adh Dhayd","latitude":"25.28812000","longitude":"55.88157000","translations":{"ru":"Аль-Хайд","hy":"Աղ Դայդ"}},{"name":"Al Batayih","latitude":"25.22317000","longitude":"55.74272000","native":"البطائح","translations":{"br":"Al Batayih","ko":"알 바타이흐","pt-BR":"Al Batayih","pt":"Al Batayih","nl":"Al Batayih","hr":"Al-Batayih","fa":"البطایح","de":"Al Batayih","es":"Al Batayih","fr":"Al Batayih","ja":"アル・バタイフ","it":"Al Batayih","zh-CN":"阿尔巴塔伊赫","tr":"El Batayih","ru":"Аль-Батайих","uk":"Аль-Батаїх","pl":"Al Batayih","hi":"अल बतैह","ar":"البطائح","hy":"Ալ Բատայիհ"}},{"name":"Al Hamriyah","latitude":"25.46121000","longitude":"55.54813000","native":"الحمرية","translations":{"br":"Al Hamriyah","ko":"알 함리야","pt-BR":"Al Hamriyah","pt":"Al Hamriyah","nl":"Al Hamriyah","hr":"Al Hamrija","fa":"الحمریه","de":"Al Hamriyah","es":"Al Hamriyah","fr":"Al Hamriyah","ja":"アル・ハムリヤ","it":"Al Hamriyah","zh-CN":"哈姆里亚报","tr":"El Hamriyah","ru":"Аль-Хамрия","uk":"Аль-Хамрія","pl":"Al Hamriyah","hi":"अल हमरियाह","ar":"الحمرية","hy":"Ալ Համրիյա"}},{"name":"Al Madam","latitude":"24.95536000","longitude":"55.76820000","native":"السيدة","translations":{"br":"Al Madam","ko":"알 마담","pt-BR":"Al Madam","pt":"Al Madam","nl":"Al Mevrouw","hr":"Al Madam","fa":"آل مادام","de":"Al Madam","es":"Al Madam","fr":"Al Madame","ja":"アル・マダム","it":"Al Madam","zh-CN":"阿尔·玛丹","tr":"El Hanım","ru":"Аль Мадам","uk":"Аль Мадам","pl":"Al Madam","hi":"अल मदाम","ar":"السيدة","hy":"Ալ Մադամ"}},{"name":"Dhaid","latitude":"25.26951000","longitude":"55.92024000","translations":{"ru":"Дхайд","hy":"Դայիդ"}},{"name":"Dibba Al Hesn","latitude":"25.61593000","longitude":"56.26899000","translations":{"ru":"Дибба Аль-Хесн","hy":"Դիբբա Ալ Հեսն"}},{"name":"Kalba","latitude":"24.99816000","longitude":"56.27207000","native":"كلباء","translations":{"br":"Kalba","ko":"칼바","pt-BR":"Kalba","pt":"Kalba","nl":"Kalba","hr":"Kalba","fa":"کالبا","de":"Kalba","es":"Kalba","fr":"Kalba","ja":"カルバ","it":"Kalba","zh-CN":"卡尔巴","tr":"Kalba","ru":"Калба","uk":"Калба","pl":"Kalba","hi":"कल्बा","ar":"كلباء","hy":"Կալբա"}},{"name":"Khawr Fakkān","latitude":"25.33132000","longitude":"56.34199000","translations":{"ru":"Хаур Факкан","hy":"Խաուր Ֆաքքան"}},{"name":"Khor Fakkan","latitude":"25.33966000","longitude":"56.30280000","native":"خورفكان","translations":{"br":"Khor Fakkan","ko":"코르 파칸","pt-BR":"Khor Fakkan","pt":"Khor Fakkan","nl":"Khor Fakkan","hr":"Khor Fakkan","fa":"خور فکان","de":"Khor Fakkan","es":"Khor Fakkan","fr":"Khor Fakkan","ja":"コール・ファカン","it":"Khor Fakkan","zh-CN":"豪尔费坎","tr":"Khor Fakkan","ru":"Хор Факкан","uk":"Хор-Факкан","pl":"Khor Fakkan","hi":"खोर फक्कन","ar":"خورفكان","hy":"Խոր Ֆաքքան"}},{"name":"Milehah","latitude":"25.10097000","longitude":"55.91282000","native":"ميلها","translations":{"br":"Milehah","ko":"밀레하","pt-BR":"Milehah","pt":"Milehah","nl":"Milehah","hr":"Milehah","fa":"مایلها","de":"Milehah","es":"Milehah","fr":"Milehah","ja":"ミレハ","it":"Milehah","zh-CN":"米利哈","tr":"Milehah","ru":"Милеха","uk":"Мілеха","pl":"Milehah","hi":"मिलेहा","ar":"ميلها","hy":"Միլեհա"}},{"name":"Murbaḩ","latitude":"25.27623000","longitude":"56.36256000","native":"مربح","translations":{"br":"Murbaḩ","ko":"무르바흐","pt-BR":"Murbaḩ","pt":"Murbaḩ","nl":"Murbaḩ","hr":"Murbah","fa":"مربا","de":"Murbaḩ","es":"Murbaḩ","fr":"Murbaḩ","ja":"ムルバフ","it":"Murbaḩ","zh-CN":"穆尔巴","tr":"Murbah","ru":"Мурбах","uk":"Мурбах","pl":"Murbaḩ","hi":"मुरबाह","ar":"مربح","hy":"Մուրբա"}},{"name":"Sharjah","latitude":"25.33737000","longitude":"55.41206000","native":"الشارقة","translations":{"br":"Sharjah","ko":"샤르자","pt-BR":"Sharjah","pt":"Sharjah","nl":"Sharjah","hr":"Šardža","fa":"شارجه","de":"Schardscha","es":"Sharjah","fr":"Charjah","ja":"シャルジャ","it":"Sharjah","zh-CN":"沙迦","tr":"Şarika","ru":"Шарджа","uk":"Шарджа","pl":"Szardża","hi":"शारजाह","ar":"الشارقة","hy":"Շարջա"}}]},{"name":"Umm al-Quwain","state_code":"UQ","latitude":"25.54263240","longitude":"55.54753480","cities":[{"name":"Umm AL Quwain","latitude":"25.49326000","longitude":"55.73520000","native":"أم القيوين","translations":{"br":"Umm AL Quwain","ko":"음 알 콰인","pt-BR":"Umm AL Quwain","pt":"Umm AL Quwain","nl":"Umm AL Quwain","hr":"Umm al-Quwain","fa":"ام القوین","de":"Umm AL Quwain","es":"Umm Al Quwain","fr":"Umm Al Quwain","ja":"ウム・アル・カイワイン","it":"Umm al-Quwain","zh-CN":"乌姆盖万","tr":"Umm Al Quwain","ru":"Умм-эль-Кувейн","uk":"Умм-аль-Кайвайн","pl":"Umm AL Quwain","hi":"उम्म अल क्वैन","ar":"أم القيوين","hy":"Ումմ Ալ Քուվայն"}},{"name":"Umm Al Quwain City","latitude":"25.56473000","longitude":"55.55517000","translations":{"ru":"Город Умм-аль-Кувейн","hy":"Ումմ Ալ Քուվայն քաղաք"}}]}]}