{"code":"BD","states":[{"name":"Bagerhat District","state_code":"05","latitude":"22.66024360","longitude":"89.78954780","cities":[]},{"name":"Bahadia","state_code":"33","latitude":"23.78987120","longitude":"90.16714830","cities":[]},{"name":"Bandarban District","state_code":"01","latitude":"21.83110020","longitude":"92.36863210","cities":[]},{"name":"Barguna District","state_code":"02","latitude":"22.09529150","longitude":"90.11206960","cities":[]},{"name":"Barisal District","state_code":"06","latitude":"22.70220980","longitude":"90.36963160","cities":[{"name":"Barguna","latitude":"22.13333000","longitude":"90.13333000","native":"বরগুনা","translations":{"br":"Barguna","ko":"바르구나","pt-BR":"Barguna","pt":"Barguna","nl":"Barguna","hr":"Barguna","fa":"بارگونا","de":"Barguna","es":"Barguna","fr":"Barguna","ja":"バルグナ","it":"Barguna","zh-CN":"巴尔古纳","tr":"Barguna","ru":"Баргуна","uk":"Баргуна","pl":"Barguna","hi":"बरगुना","ar":"بارغونا","hy":"Բարգունա"}},{"name":"Barisal","latitude":"22.80000000","longitude":"90.50000000","native":"বরিশাল","translations":{"br":"Barisal","ko":"바리살","pt-BR":"Barisal","pt":"Barisal","nl":"Barisal","hr":"Barisal","fa":"باریسال","de":"Barisal","es":"Barisal","fr":"Barisal","ja":"バリサル","it":"Barisal","zh-CN":"巴里萨尔","tr":"Barisal","ru":"Барисал","uk":"Барісал","pl":"Barisal","hi":"बारीसाल","ar":"باريسال","hy":"Բարիսալ"}},{"name":"Bhāndāria","latitude":"22.48898000","longitude":"90.06273000","translations":{"ru":"Бхандария","hy":"Բհանդարիա"}},{"name":"Bhola","latitude":"22.36667000","longitude":"90.81667000","native":"ভোলা","translations":{"br":"Bhola","ko":"볼라","pt-BR":"Bhola","pt":"Bhola","nl":"Bhola","hr":"Bhola","fa":"بولا","de":"Bhola","es":"Bhola","fr":"Bhola","ja":"ボラ","it":"Bhola","zh-CN":"波拉","tr":"Bhola","ru":"Бхола","uk":"Бхола","pl":"Bhola","hi":"भोला","ar":"بهولا","hy":"Բհոլա"}},{"name":"Burhānuddin","latitude":"22.49518000","longitude":"90.72391000","translations":{"ru":"Бурханаддин","hy":"Բուրհանուդդին"}},{"name":"Gaurnadi","latitude":"22.97372000","longitude":"90.22376000","translations":{"ru":"Гаурнади","hy":"Գաուրնադի"}},{"name":"Jhalokati","latitude":"22.60000000","longitude":"90.20000000","native":"ঝালকাঠি","translations":{"br":"Jhalokati","ko":"잘로카티","pt-BR":"Jhalokati","pt":"Jhalokati","nl":"Jhalokati","hr":"Džhalokati","fa":"جلوکاتی","de":"Jhalokati","es":"Jhalokati","fr":"Jhalokati","ja":"ジャロカティ","it":"Jhalokati","zh-CN":"贾洛卡蒂","tr":"Jhalokati","ru":"Джхалокати","uk":"Джалокаті","pl":"Dżhalokati","hi":"झालोकाटी","ar":"جالوكاتي","hy":"Ջհալոկաթի"}},{"name":"Lālmohan","latitude":"22.33774000","longitude":"90.73708000","translations":{"ru":"Лалмохан","hy":"Լալմոհան"}},{"name":"Mathba","latitude":"22.28616000","longitude":"89.95883000","translations":{"ru":"Матхба","hy":"Մաթբա"}},{"name":"Mehendiganj","latitude":"22.82257000","longitude":"90.52859000","translations":{"ru":"Мехендиганж","hy":"Մեհենդիգանջ"}},{"name":"Nālchiti","latitude":"22.63696000","longitude":"90.27195000","translations":{"ru":"Налчити","hy":"Նալչիթի"}},{"name":"Patuakhali","latitude":"22.33333000","longitude":"90.33333000","native":"পটুয়াখালী","translations":{"br":"Patuakhali","ko":"파투아칼리","pt-BR":"Patuakhali","pt":"Patuakhali","nl":"Patuakhali","hr":"Patuakhali","fa":"پاتوخالی","de":"Patuakhali","es":"Patuakhali","fr":"Patuakhali","ja":"パトゥアカリ","it":"Patuakhali","zh-CN":"博杜阿卡利","tr":"Patuakhali","ru":"Патуакхали","uk":"Патуахалі","pl":"Patuakhali","hi":"पटुआखली","ar":"باتواخالي","hy":"Պաթուախալի"}},{"name":"Pirojpur","latitude":"22.53671000","longitude":"90.00033000","native":"পিরোজপুর","translations":{"br":"Pirojpur","ko":"피로즈푸르","pt-BR":"Pirojpur","pt":"Pirojpur","nl":"Pirojpur","hr":"Pirojpur","fa":"پیروجپور","de":"Pirojpur","es":"Pirojpur","fr":"Pirojpur","ja":"ピロジプル","it":"Pirojpur","zh-CN":"皮罗杰普尔","tr":"Pirojpur","ru":"Пироджпур","uk":"Піроджпур","pl":"Pirojpur","hi":"पिरोजपुर","ar":"بيروجبور","hy":"Պիրոջպուր"}}]},{"name":"Barisal Division","state_code":"A","latitude":"22.38111310","longitude":"90.33718890","cities":[]},{"name":"Bhola District","state_code":"07","latitude":"22.17853150","longitude":"90.71010230","cities":[]},{"name":"Bogra District","state_code":"03","latitude":"24.85104020","longitude":"89.36972250","cities":[]},{"name":"Brahmanbaria District","state_code":"04","latitude":"23.96081810","longitude":"91.11150140","cities":[]},{"name":"Chandpur District","state_code":"09","latitude":"23.25131480","longitude":"90.85178460","cities":[]},{"name":"Chapai Nawabganj District","state_code":"45","latitude":"24.74131110","longitude":"88.29120690","cities":[]},{"name":"Chittagong District","state_code":"10","latitude":"22.51501050","longitude":"91.75388170","cities":[]},{"name":"Chittagong Division","state_code":"B","latitude":"23.17931570","longitude":"91.98815270","cities":[{"name":"Bandarban","latitude":"22.00000000","longitude":"92.33333000","native":"বান্দরবান","translations":{"br":"Bandarban","ko":"반다르반","pt-BR":"Bandarban","pt":"Bandarban","nl":"Bandarban","hr":"Bandarban","fa":"بندربان","de":"Bandarban","es":"Bandarban","fr":"Bandarban","ja":"バンダルバン","it":"Bandarban","zh-CN":"班达尔班","tr":"Bandarban","ru":"Бандарбан","uk":"Бандарбан","pl":"Bandarban","hi":"बंदरबन","ar":"باندربان","hy":"Բանդարբան"}},{"name":"Bibir Hat","latitude":"22.68347000","longitude":"91.79058000","translations":{"ru":"Бибир Хат","hy":"Բիբիր Հատ"}},{"name":"Brahmanbaria","latitude":"23.98333000","longitude":"91.16667000","native":"ব্রাহ্মণবাড়িয়া","translations":{"br":"Brahmanbaria","ko":"브라만바리아","pt-BR":"Brahmanbaria","pt":"Brahmanbaria","nl":"Brahmanbaria","hr":"Brahmanbarija","fa":"برهمنباریا","de":"Brahmanbaria","es":"Brahmanbaria","fr":"Brahmanbaria","ja":"ブラフマンバリア","it":"Brahmanbaria","zh-CN":"婆罗门教","tr":"Brahmanbaria","ru":"Брахманбария","uk":"Брахманбарія","pl":"Brahmanbaria","hi":"ब्राह्मणबरिया","ar":"براهمانباريا","hy":"Բրահմանբարիա"}},{"name":"Chandpur","latitude":"23.25000000","longitude":"90.83333000","native":"চাঁদপুর","translations":{"br":"Chandpur","ko":"찬드푸르","pt-BR":"Chandpur","pt":"Chandpur","nl":"Chandpur","hr":"Čandpur","fa":"چاندپور","de":"Chandpur","es":"Chandpur","fr":"Chandpur","ja":"チャンドプル","it":"Chandpur","zh-CN":"钱德普尔","tr":"Çandpur","ru":"Чандпур","uk":"Чандпур","pl":"Chandpur","hi":"चांदपुर","ar":"تشاندبور","hy":"Չանդպուր"}},{"name":"Chhāgalnāiya","latitude":"23.02475000","longitude":"91.51091000","translations":{"ru":"Чхагалнаия","hy":"Չհաղալնաիյա"}},{"name":"Chittagong","latitude":"22.48750000","longitude":"91.96333000","native":"চট্টগ্রাম","translations":{"br":"Chittagong","ko":"치타공","pt-BR":"Chittagong","pt":"Chittagong","nl":"Chittagong","hr":"Čitagong","fa":"چیتاگونگ","de":"Chittagong","es":"Chittagong","fr":"Chittagong","ja":"チッタゴン","it":"Chittagong","zh-CN":"吉大港","tr":"Çittagong","ru":"Читтагонг","uk":"Чіттагонг","pl":"Ćottogram","hi":"चटगांव","ar":"شيتاغونغ","hy":"Չիտաղոնգ"}},{"name":"Comilla","latitude":"23.44170000","longitude":"91.00987000","native":"কুমিল্লা","translations":{"br":"Comilla","ko":"코밀라","pt-BR":"Comilla","pt":"Comilla","nl":"Comilla","hr":"Comilla","fa":"کومیلا","de":"Kumilla","es":"Comilla","fr":"Comilla","ja":"コミラ","it":"Comilla","zh-CN":"科米拉","tr":"Comilla","ru":"Комилла","uk":"Комілла","pl":"Comilla","hi":"कॉमिला","ar":"كوميلا","hy":"Կոմիլլա"}},{"name":"Cox's Bazar","latitude":"21.58389000","longitude":"92.01528000","native":"কক্সবাজার","translations":{"br":"Marc'had Cox","ko":"콕스 바자르","pt-BR":"Cox's Bazar","pt":"Cox's Bazar","nl":"Cox's Bazar","hr":"Coxov bazar","fa":"بازار کاکس","de":"Cox's Bazar","es":"Bazar de Cox","fr":"Cox's Bazar","ja":"コックスバザール","it":"Cox's Bazar","zh-CN":"科克斯巴扎尔","tr":"Cox's Bazar","ru":"Кокс-Базар","uk":"Базар Кокса","pl":"Cox's Bazar","hi":"कॉक्स बाज़ार","ar":"كوكس بازار","hy":"Կոքսի Բազար"}},{"name":"Cox’s Bāzār","latitude":"21.43973000","longitude":"92.00955000","translations":{}},{"name":"Feni","latitude":"22.96667000","longitude":"91.31667000","native":"ফেনী","translations":{"br":"Feni","ko":"페니","pt-BR":"Feni","pt":"Feni","nl":"Feni","hr":"Feni","fa":"فنی","de":"Feni","es":"Feni","fr":"Feni","ja":"フェニ","it":"Feni","zh-CN":"费尼","tr":"Feni","ru":"Фени","uk":"Фені","pl":"Feni","hi":"फेनी","ar":"فيني","hy":"Ֆենի"}},{"name":"Hājīganj","latitude":"23.25191000","longitude":"90.85508000","translations":{"ru":"Хаджиганж","hy":"Հաջիգանջ"}},{"name":"Khagrachhari","latitude":"23.16667000","longitude":"91.90000000","native":"খাগড়াছড়ি","translations":{"br":"Khagrachhari","ko":"카그라차리","pt-BR":"Khagrachhari","pt":"Khagrachhari","nl":"Khagrachhari","hr":"Khagrachhari","fa":"خاگراچاری","de":"Khagrachhari","es":"Khagrachhari","fr":"Khagrachhari","ja":"カグラチャリ","it":"Khagrachhari","zh-CN":"卡格拉查里","tr":"Khagrachhari","ru":"Кхаграчхари","uk":"Хаграчхарі","pl":"Khagrachhari","hi":"खगराछारी","ar":"خاجراتشاري","hy":"Խաղրաչհարի"}},{"name":"Lākshām","latitude":"23.24018000","longitude":"91.12143000","translations":{"ru":"Лакшам","hy":"Լակշամ"}},{"name":"Lakshmipur","latitude":"22.91667000","longitude":"90.83333000","native":"লক্ষ্মীপুর","translations":{"br":"Lakshmipur","ko":"락슈미푸르","pt-BR":"Lakshmipur","pt":"Lakshmipur","nl":"Lakshmipur","hr":"Lakshmipur","fa":"لاکشمی پور","de":"Lakshmipur","es":"Lakshmipur","fr":"Lakshmipur","ja":"ラクシュミプル","it":"Lakshmipur","zh-CN":"拉克希米普尔","tr":"Lakshmipur","ru":"Лакшмипур","uk":"Лакшміпур","pl":"Lakshmipur","hi":"लक्ष्मीपुर","ar":"لاكشميبور","hy":"Լակշմիպուր"}},{"name":"Manikchari","latitude":"22.83957000","longitude":"91.84128000","translations":{"ru":"Маникчари","hy":"Մանիկչարի"}},{"name":"Nabīnagar","latitude":"23.88791000","longitude":"90.96792000","translations":{"ru":"Набинагар","hy":"Նաբինաղար"}},{"name":"Noakhali","latitude":"22.75000000","longitude":"91.16667000","native":"নোয়াখালী","translations":{"br":"Noakhali","ko":"노아칼리","pt-BR":"Noakhali","pt":"Noakhali","nl":"Noakhali","hr":"Noakhali","fa":"نواخالی","de":"Noakhali","es":"Noakhali","fr":"Noakhali","ja":"ノアカリ","it":"Noakhali","zh-CN":"诺阿卡利","tr":"Noakhali","ru":"Ноакхали","uk":"Ноахалі","pl":"Noakhali","hi":"नोआखली","ar":"نواخالي","hy":"Նոախալի"}},{"name":"Patiya","latitude":"22.29543000","longitude":"91.97900000","translations":{"ru":"Патия","hy":"Պաթիյա"}},{"name":"Rāipur","latitude":"23.03910000","longitude":"90.76808000","translations":{"ru":"Раипур","hy":"Րայիպուր"}},{"name":"Rāmganj","latitude":"23.10060000","longitude":"90.84989000","translations":{"ru":"Рамганж","hy":"Րամգանջ"}},{"name":"Rangamati","latitude":"22.63333000","longitude":"92.20000000","native":"রাঙ্গামাটি","translations":{"br":"Rangamati","ko":"랑가마티","pt-BR":"Rangamati","pt":"Rangamati","nl":"Rangamati","hr":"Rangamati","fa":"رنگاماتی","de":"Rangamati","es":"Rangamati","fr":"Rangamati","ja":"ランガマティ","it":"Rangamati","zh-CN":"兰格马蒂","tr":"Rangamati","ru":"Рангамати","uk":"Рангаматі","pl":"Rangamati","hi":"रंगमती","ar":"رانجاماتي","hy":"Րանգամաթի"}},{"name":"Raojān","latitude":"22.53511000","longitude":"91.91919000","translations":{"ru":"Раожан","hy":"Րաոջան"}},{"name":"Sandwīp","latitude":"22.51409000","longitude":"91.45491000","translations":{"ru":"Сандвип","hy":"Սանդվիպ"}},{"name":"Sātkania","latitude":"22.07639000","longitude":"92.04955000","translations":{"ru":"Саткания","hy":"Սաթկանիա"}},{"name":"Teknāf","latitude":"20.85829000","longitude":"92.29773000","translations":{"ru":"Технаф","hy":"Տեքնաֆ"}}]},{"name":"Chuadanga District","state_code":"12","latitude":"23.61605120","longitude":"88.82630060","cities":[]},{"name":"Comilla District","state_code":"08","latitude":"23.45756670","longitude":"91.18089960","cities":[]},{"name":"Cox's Bazar District","state_code":"11","latitude":"21.56406260","longitude":"92.02821290","cities":[]},{"name":"Dhaka District","state_code":"13","latitude":"23.81051400","longitude":"90.33718890","cities":[{"name":"Azimpur","latitude":"23.72980000","longitude":"90.38540000","translations":{"ru":"Азимпур","hy":"Ազիմպուր"}},{"name":"Bājitpur","latitude":"24.21623000","longitude":"90.95002000","translations":{"ru":"Баджитпур","hy":"Բաջիտպուր"}},{"name":"Bhairab Bāzār","latitude":"24.05240000","longitude":"90.97640000","translations":{"ru":"Бхайраб-Базар","hy":"Բհայրաբ Բազար"}},{"name":"Char Bhadrāsan","latitude":"23.30916000","longitude":"90.22698000","translations":{"ru":"Чар Бхадрасан","hy":"Չար Բհադրասան"}},{"name":"Char Golora","latitude":"23.82037000","longitude":"90.12175000","translations":{"ru":"Чар Голора","hy":"Չար Գոլորա"}},{"name":"Dhaka","latitude":"23.81093000","longitude":"90.36542000","native":"ঢাকা","translations":{"br":"Dhaka","ko":"다카","pt-BR":"Daca","pt":"Daca","nl":"Dhaka","hr":"Dhaka","fa":"داکا","de":"Dhaka","es":"Daca","fr":"Dhaka","ja":"ダッカ","it":"Dacca","zh-CN":"达卡","tr":"Dakka","ru":"Дакка","uk":"Дакка","pl":"Dhaka","hi":"ढाका","ar":"دكا","hy":"Դհակա"}},{"name":"Dohār","latitude":"23.59311000","longitude":"90.14251000","translations":{"ru":"Дохар","hy":"Դոհար"}},{"name":"Faridpur","latitude":"23.59419000","longitude":"89.82147000","native":"ফরিদপুর","translations":{"br":"Faridpur","ko":"파리드푸르","pt-BR":"Faridpur","pt":"Faridpur","nl":"Faridpur","hr":"Faridpur","fa":"فریدپور","de":"Faridpur","es":"Faridpur","fr":"Faridpur","ja":"ファリドプル","it":"Faridpur","zh-CN":"法里德普尔","tr":"Faridpur","ru":"Фаридпур","uk":"Фарідпур","pl":"Faridpur","hi":"फरीदपुर","ar":"فريدبور","hy":"Ֆարիդպուր"}},{"name":"Gazipur","latitude":"24.20689000","longitude":"90.47241000","native":"গাজীপুর","translations":{"br":"Gazipur","ko":"가지푸르","pt-BR":"Gazipur","pt":"Gazipur","nl":"Gazipur","hr":"Gazipur","fa":"قاضی‌پور","de":"Gazipur","es":"Gazipur","fr":"Gazipur","ja":"ガジプル","it":"Gazipur","zh-CN":"加济布尔","tr":"Gazipur","ru":"Газипур","uk":"Газіпур","pl":"Gazipur","hi":"गाजीपुर","ar":"غازيبور","hy":"Գազիպուր"}},{"name":"Gopalganj","latitude":"23.16667000","longitude":"89.91667000","native":"গোপালগঞ্জ","translations":{"br":"Gopalganj","ko":"고팔간지","pt-BR":"Gopalganj","pt":"Gopalganj","nl":"Gopalganj","hr":"Gopalganj","fa":"گوپالگنج","de":"Gopalganj","es":"Gopalganj","fr":"Gopalganj","ja":"ゴパルガンジ","it":"Gopalganj","zh-CN":"戈帕尔甘杰","tr":"Gopalganj","ru":"Гопалгандж","uk":"Гопалгандж","pl":"Gopalganj","hi":"गोपालगंज","ar":"جوبالجانج","hy":"Գոպալգանջ"}},{"name":"Joymontop","latitude":"23.78789000","longitude":"90.16472000","translations":{"ru":"Джоймонтоп","hy":"Ջոյմոնտոպ"}},{"name":"Khanbaniara","latitude":"23.78225000","longitude":"90.18382000","translations":{"ru":"Ханбаниара","hy":"Խանբանիարա"}},{"name":"Kishoregonj","latitude":"24.41667000","longitude":"90.95000000","translations":{"ru":"Кишоргонж","hy":"Կիշորեղոնջ"}},{"name":"Kishorganj","latitude":"24.43944000","longitude":"90.78291000","translations":{"ru":"Кишоргонж","hy":"Կիշորգանջ"}},{"name":"Madaripur","latitude":"23.25000000","longitude":"90.20000000","native":"মাদারীপুর","translations":{"br":"Madaripur","ko":"마다리푸르","pt-BR":"Madaripur","pt":"Madaripur","nl":"Madaripur","hr":"Madaripur","fa":"مداریپور","de":"Madaripur","es":"Madaripur","fr":"Madaripur","ja":"マダリプル","it":"Madaripur","zh-CN":"马达里普尔","tr":"Madaripur","ru":"Мадарипур","uk":"Мадаріпур","pl":"Madaripur","hi":"मदारीपुर","ar":"ماداريبور","hy":"Մադարիպուր"}},{"name":"Manikganj","latitude":"23.86667000","longitude":"89.95000000","native":"মানিকগঞ্জ","translations":{"br":"Manikganj","ko":"마니크간지","pt-BR":"Manikganj","pt":"Manikganj","nl":"Manikganj","hr":"Manikganj","fa":"مانیک‌گانج","de":"Manikganj","es":"Manikganj","fr":"Manikganj","ja":"マニクガンジ","it":"Manikganj","zh-CN":"马尼克甘杰","tr":"Manikganj","ru":"Маникгандж","uk":"Манікгандж","pl":"Manikganj","hi":"मानिकगंज","ar":"مانيكجانج","hy":"Մանիկգանջ"}},{"name":"Mirzāpur","latitude":"24.10287000","longitude":"90.09841000","translations":{"ru":"Мирзапур","hy":"Միրզապուր"}},{"name":"Munshiganj","latitude":"23.55000000","longitude":"90.36667000","native":"মুন্সীগঞ্জ","translations":{"br":"Munshiganj","ko":"문시간지","pt-BR":"Munshiganj","pt":"Munshiganj","nl":"Munshiganj","hr":"Munšiganj","fa":"مونشیگانج","de":"Munshiganj","es":"Munshiganj","fr":"Munshiganj","ja":"ムンシガンジ","it":"Munshiganj","zh-CN":"蒙希甘杰","tr":"Munshiganj","ru":"Муншигандж","uk":"Муншігандж","pl":"Munshiganj","hi":"मुंशीगंज","ar":"مونشيغانج","hy":"Մունշիգանջ"}},{"name":"Nāgarpur","latitude":"24.05783000","longitude":"89.87696000","translations":{"ru":"Нагарпур","hy":"Նաղարպուր"}},{"name":"Narayanganj","latitude":"23.75000000","longitude":"90.58333000","native":"নারায়ণগঞ্জ","translations":{"br":"Narayanganj","ko":"나라얀간지","pt-BR":"Narayanganj","pt":"Narayanganj","nl":"Narayanganj","hr":"Narayanganj","fa":"نارایانگنج","de":"Narayanganj","es":"Narayanganj","fr":"Narayanganj","ja":"ナラヤンガンジ","it":"Narayanganj","zh-CN":"纳拉扬甘杰","tr":"Narayanganj","ru":"Нараянгандж","uk":"Нараянгандж","pl":"Narayanganj","hi":"नारायणगंज","ar":"نارايانجانج","hy":"Նարայանգանջ"}},{"name":"Narsingdi","latitude":"23.92298000","longitude":"90.71768000","native":"নরসিংদী","translations":{"br":"Narsingdi","ko":"나르싱디","pt-BR":"Narsingdi","pt":"Narsingdi","nl":"Narsingdi","hr":"Narsingdi","fa":"نرسینگدی","de":"Narsingdi","es":"Narsingdi","fr":"Narsingdi","ja":"ナルシンディ","it":"Narsingdi","zh-CN":"纳辛迪","tr":"Narsingdi","ru":"Нарсингди","uk":"Нарсінгді","pl":"Narsingdi","hi":"नरसिंगडी","ar":"نارسينجدي","hy":"Նարսինղդի"}},{"name":"Pālang","latitude":"23.21824000","longitude":"90.35076000","translations":{"ru":"Палang","hy":"Պալանգ"}},{"name":"Paltan","latitude":"23.73625000","longitude":"90.41426000","translations":{"ru":"Палтан","hy":"Պալտան"}},{"name":"Parvez Ali","latitude":"23.81741000","longitude":"90.11921000","translations":{"ru":"Парвез Али","hy":"Պարվեզ Ալի"}},{"name":"Parvez Ali Hossain","latitude":"23.78758000","longitude":"90.16487000","translations":{"ru":"Парвез Али Хоссейн","hy":"Պարվեզ Ալի Հոսեյն"}},{"name":"Rajbari","latitude":"23.66667000","longitude":"89.55000000","native":"রাজবাড়ী","translations":{"br":"Rajbari","ko":"라즈바리","pt-BR":"Rajbari","pt":"Rajbari","nl":"Rajbari","hr":"Rajbari","fa":"رجباری","de":"Rajbari","es":"Rajbari","fr":"Rajbari","ja":"ラジバリ","it":"Rajbari","zh-CN":"拉杰巴里","tr":"Rajbari","ru":"Раджбари","uk":"Раджбарі","pl":"Rajbari","hi":"राजबाड़ी","ar":"راجباري","hy":"Րաջբարի"}},{"name":"Ramnagar","latitude":"23.77720000","longitude":"90.17604000","translations":{"ru":"Рамнагар","hy":"Րամնաղար"}},{"name":"Sakhipur","latitude":"24.31988000","longitude":"90.16943000","translations":{"ru":"Сахипур","hy":"Սախիպուր"}},{"name":"Sayani","latitude":"23.79119000","longitude":"90.16972000","translations":{"ru":"Саяни","hy":"Սայանի"}},{"name":"Shariatpur","latitude":"23.25000000","longitude":"90.36667000","native":"শরীয়তপুর","translations":{"br":"Shariatpur","ko":"샤리아트푸르","pt-BR":"Shariatpur","pt":"Shariatpur","nl":"Shariatpur","hr":"Šarijatpur","fa":"شریعت‌پور","de":"Schariatpur","es":"Shariatpur","fr":"Shariatpur","ja":"シャリアトプル","it":"Shariatpur","zh-CN":"沙里亚特普尔","tr":"Şeriatpur","ru":"Шариатпур","uk":"Шаріатпур","pl":"Szariatpur","hi":"शरीयतपुर","ar":"شريعتبور","hy":"Շարիաթպուր"}},{"name":"Sonārgaon","latitude":"23.65000000","longitude":"90.61667000","translations":{"ru":"Сонаргаон","hy":"Սոնարգաոն"}},{"name":"Tangail","latitude":"24.33853000","longitude":"89.98667000","native":"টাঙ্গাইল","translations":{"br":"Tangail","ko":"탕가일","pt-BR":"Tangail","pt":"Tangail","nl":"Tangail","hr":"Tangail","fa":"تنگیل","de":"Tangail","es":"Tangail","fr":"Tangail","ja":"タンガイル","it":"Tangail","zh-CN":"坦盖尔","tr":"Tangail","ru":"Тангайл","uk":"Тангайл","pl":"Tangail","hi":"तंगेल","ar":"تانجيل","hy":"Տանգայլ"}},{"name":"Tungi","latitude":"23.89154000","longitude":"90.40232000","translations":{"ru":"Тунги","hy":"Տունգի"}},{"name":"Tungipāra","latitude":"22.89983000","longitude":"89.90326000","translations":{"ru":"Тунгипара","hy":"Տունգիպարա"}}]},{"name":"Dhaka Division","state_code":"C","latitude":"23.95357420","longitude":"90.14949880","cities":[]},{"name":"Dinajpur District","state_code":"14","latitude":"25.62791230","longitude":"88.63317580","cities":[]},{"name":"Faridpur District","state_code":"15","latitude":"23.54239190","longitude":"89.63089210","cities":[]},{"name":"Feni District","state_code":"16","latitude":"22.94087840","longitude":"91.40666460","cities":[]},{"name":"Gaibandha District","state_code":"19","latitude":"25.32969280","longitude":"89.54296520","cities":[]},{"name":"Gazipur District","state_code":"18","latitude":"24.09581710","longitude":"90.41251810","cities":[]},{"name":"Gopalganj District","state_code":"17","latitude":"26.48315840","longitude":"84.43655000","cities":[]},{"name":"Habiganj District","state_code":"20","latitude":"24.47712360","longitude":"91.45065650","cities":[]},{"name":"Jamalpur District","state_code":"21","latitude":"25.08309260","longitude":"89.78532180","cities":[]},{"name":"Jessore District","state_code":"22","latitude":"23.16340140","longitude":"89.21816640","cities":[]},{"name":"Jhalokati District","state_code":"25","latitude":"22.57208000","longitude":"90.18696440","cities":[]},{"name":"Jhenaidah District","state_code":"23","latitude":"23.54498730","longitude":"89.17260310","cities":[]},{"name":"Joypurhat District","state_code":"24","latitude":"25.09473490","longitude":"89.09449370","cities":[]},{"name":"Khagrachari District","state_code":"29","latitude":"23.13217510","longitude":"91.94902100","cities":[]},{"name":"Khulna District","state_code":"27","latitude":"22.67377350","longitude":"89.39665810","cities":[{"name":"Bagerhat","latitude":"22.40000000","longitude":"89.75000000","native":"বাগেরহাট","translations":{"br":"Chapell-bager","ko":"바게르하트","pt-BR":"Chapéu de Bager","pt":"Chapéu de Bager","nl":"Bagerhat","hr":"Bagerhat","fa":"باگرهات","de":"Bagerhat","es":"Sombrero de bager","fr":"Bagerhat","ja":"バゲルハット","it":"Bagerhat","zh-CN":"巴格哈特","tr":"Bagerhat","ru":"Багерхат","uk":"Багерхат","pl":"Bagerhat","hi":"बागेरहाट","ar":"باجيرهات","hy":"Բաղերհատ"}},{"name":"Bhātpāra Abhaynagar","latitude":"23.01472000","longitude":"89.43936000","translations":{"ru":"Бхатпара Абхайнагар","hy":"Բհաթպարա Աբհայնաղար"}},{"name":"Bherāmāra","latitude":"24.02452000","longitude":"88.99234000","translations":{"ru":"Бхерамара","hy":"Բհերամարա"}},{"name":"Chuadanga","latitude":"23.63333000","longitude":"88.85000000","native":"চুয়াডাঙ্গা","translations":{"br":"Chuadanga","ko":"추아당가","pt-BR":"Chuadanga","pt":"Chuadanga","nl":"Chuadanga","hr":"Čuadanga","fa":"چوادانگا","de":"Chuadanga","es":"Chuadanga","fr":"Chuadanga","ja":"チュアダンガ","it":"Chuadanga","zh-CN":"丘阿丹加","tr":"Chuadanga","ru":"Чуаданга","uk":"Чуаданга","pl":"Chuadanga","hi":"चुआडांगा","ar":"تشوادانجا","hy":"Չուադանգա"}},{"name":"Jessore","latitude":"23.08333000","longitude":"89.16667000","native":"যশোর","translations":{"br":"Jessore","ko":"제소르","pt-BR":"Jessore","pt":"Jessore","nl":"Jessore","hr":"Jessore","fa":"جسور","de":"Jessore","es":"Jessore","fr":"Jessore","ja":"ジェソール","it":"Jessore","zh-CN":"杰索尔","tr":"Jessore","ru":"Джессор","uk":"Джессор","pl":"Dźoszor","hi":"जेस्सोर","ar":"جيسور","hy":"Ջեսսոր"}},{"name":"Jhenaidah","latitude":"23.50000000","longitude":"89.16667000","native":"ঝিনাইদহ","translations":{"br":"Jhenaidah","ko":"제나이다","pt-BR":"Jhenaidah","pt":"Jhenaidah","nl":"Jhenaidah","hr":"Jhenaidah","fa":"جنایده","de":"Jhenaidah","es":"Jhenaidah","fr":"Jhenaidah","ja":"ジェナイダ","it":"Jhenaidah","zh-CN":"杰奈达","tr":"Jhenaidah","ru":"Дженейда","uk":"Дженайда","pl":"Dżhenaida","hi":"जेनैदाह","ar":"جينيدا","hy":"Ջհենայդա"}},{"name":"Jhingergācha","latitude":"23.11134000","longitude":"89.09061000","translations":{"ru":"Джингергача","hy":"Ջհինգերղաչա"}},{"name":"Kālia","latitude":"23.04300000","longitude":"89.63094000","translations":{"ru":"Калия","hy":"Կալիա"}},{"name":"Kālīganj","latitude":"23.40964000","longitude":"89.13801000","translations":{"ru":"Каликанж","hy":"Կալիգանջ"}},{"name":"Kesabpur","latitude":"22.90725000","longitude":"89.21954000","translations":{"ru":"Кесабпур","hy":"Կեսաբպուր"}},{"name":"Khulna","latitude":"22.50000000","longitude":"89.33333000","native":"খুলনা","translations":{"br":"Khulna","ko":"쿨나","pt-BR":"Khulna","pt":"Khulna","nl":"Khulna","hr":"Khulna","fa":"خولنا","de":"Khulna","es":"Khulna","fr":"Khulna","ja":"クルナ","it":"Khulna","zh-CN":"库尔纳","tr":"Khulna","ru":"Кхулна","uk":"Кхулна","pl":"Khulna","hi":"खुलना","ar":"خولنا","hy":"Խուլնա"}},{"name":"Kushtia","latitude":"23.83333000","longitude":"88.91667000","native":"কুষ্টিয়া","translations":{"br":"Kushtia","ko":"쿠슈티아","pt-BR":"Kushtia","pt":"Kushtia","nl":"Kushtia","hr":"Kuštija","fa":"کوشتیا","de":"Kushtia","es":"Kushtia","fr":"Kushtia","ja":"クシュティア","it":"Kushtia","zh-CN":"库什蒂亚","tr":"Kuştia","ru":"Куштия","uk":"Куштія","pl":"Kushtia","hi":"कुश्तिया","ar":"كوشتيا","hy":"Կուշտիա"}},{"name":"Magura","latitude":"23.43333000","longitude":"89.43333000","native":"মাগুরা","translations":{"br":"Magura","ko":"마구라","pt-BR":"Magura","pt":"Magura","nl":"Magura","hr":"Magura","fa":"ماگورا","de":"Magura","es":"Magura","fr":"Magura","ja":"マグラ","it":"Magura","zh-CN":"马古拉","tr":"Magura","ru":"Магура","uk":"Магура","pl":"Magura","hi":"मगुरा","ar":"ماغورا","hy":"Մաղուրա"}},{"name":"Meherpur","latitude":"23.75000000","longitude":"88.70000000","native":"মেহেরপুর","translations":{"br":"Meherpur","ko":"메헤르푸르","pt-BR":"Meherpur","pt":"Meherpur","nl":"Meherpur","hr":"Meherpur","fa":"مهرپور","de":"Meherpur","es":"Meherpur","fr":"Meherpur","ja":"メヘルプル","it":"Meherpur","zh-CN":"梅赫普尔","tr":"Meherpur","ru":"Мехерпур","uk":"Мехерпур","pl":"Meherpur","hi":"मेहरपुर","ar":"مهيربور","hy":"Մեհերպուր"}},{"name":"Morrelgonj","latitude":"22.45566000","longitude":"89.85584000","translations":{"ru":"Моррелгонж","hy":"Մորրելգոնջ"}},{"name":"Narail","latitude":"23.13333000","longitude":"89.60000000","native":"নড়াইল","translations":{"br":"Narail","ko":"나라일","pt-BR":"Narail","pt":"Narail","nl":"Narail","hr":"Narail","fa":"نارایل","de":"Narail","es":"Narail","fr":"Narail","ja":"ナレール","it":"Narail","zh-CN":"纳拉伊尔","tr":"Narail","ru":"Нараил","uk":"Нараїл","pl":"Narail","hi":"नरैल","ar":"نارايل","hy":"Նարայլ"}},{"name":"Nowlamary","latitude":"23.67346000","longitude":"88.98885000","translations":{"ru":"Наулмари","hy":"Նոլամարի"}},{"name":"Phultala","latitude":"22.71673000","longitude":"89.51194000","translations":{"ru":"Фултала","hy":"Ֆուլտալա"}},{"name":"Sarankhola","latitude":"22.31006000","longitude":"89.79113000","translations":{"ru":"Саранхола","hy":"Սարանխոլա"}},{"name":"Satkhira","latitude":"22.35000000","longitude":"89.15000000","native":"সাতক্ষীরা","translations":{"br":"Satkhira","ko":"사트키라","pt-BR":"Satkhira","pt":"Satkhira","nl":"Satkhira","hr":"Satkhira","fa":"ساتخیرا","de":"Satkhira","es":"Satkhira","fr":"Satkhira","ja":"サトキラ","it":"Satkhira","zh-CN":"萨特基拉","tr":"Satkhira","ru":"Сатхира","uk":"Сатхіра","pl":"Satkhira","hi":"सतखीरा","ar":"ساتخيرا","hy":"Սաթխիրա"}},{"name":"Ujalpur","latitude":"23.80562000","longitude":"88.62444000","translations":{"ru":"Уджалпур","hy":"Ուջալպուր"}},{"name":"Uttar Char Fasson","latitude":"22.22647000","longitude":"90.71275000","translations":{"ru":"Уттар Чар Фассон","hy":"Ութար Չար Ֆասսոն"}}]},{"name":"Khulna Division","state_code":"D","latitude":"22.80878160","longitude":"89.24671910","cities":[]},{"name":"Kishoreganj District","state_code":"26","latitude":"24.42604570","longitude":"90.98206680","cities":[]},{"name":"Kurigram District","state_code":"28","latitude":"25.80724140","longitude":"89.62947460","cities":[]},{"name":"Kushtia District","state_code":"30","latitude":"23.89069950","longitude":"89.10993680","cities":[]},{"name":"Lakshmipur District","state_code":"31","latitude":"22.94467440","longitude":"90.82819070","cities":[]},{"name":"Lalmonirhat District","state_code":"32","latitude":"25.99233980","longitude":"89.28472510","cities":[]},{"name":"Madaripur District","state_code":"36","latitude":"23.23933460","longitude":"90.18696440","cities":[]},{"name":"Meherpur District","state_code":"39","latitude":"23.80519910","longitude":"88.67235780","cities":[]},{"name":"Moulvibazar District","state_code":"38","latitude":"24.30953440","longitude":"91.73149030","cities":[]},{"name":"Munshiganj District","state_code":"35","latitude":"23.49809310","longitude":"90.41266210","cities":[]},{"name":"Mymensingh District","state_code":"34","latitude":"24.75385750","longitude":"90.40729190","cities":[{"name":"Gafargaon","latitude":"24.43200000","longitude":"90.55850000","translations":{"ru":"Гафаргаон","hy":"Գաֆարգաոն"}},{"name":"Jamalpur","latitude":"25.00000000","longitude":"89.83333000","native":"জামালপুর","translations":{"br":"Jamalpur","ko":"자말푸르","pt-BR":"Jamalpur","pt":"Jamalpur","nl":"Jamalpur","hr":"Džamalpur","fa":"جمالپور","de":"Jamalpur","es":"Jamalpur","fr":"Jamalpur","ja":"ジャマルプル","it":"Jamalpur","zh-CN":"贾马尔普尔","tr":"Jamalpur","ru":"Джамалпур","uk":"Джамалпур","pl":"Dżamalpur","hi":"जमालपुर","ar":"جمالبور","hy":"Ջամալպուր"}},{"name":"Muktāgācha","latitude":"24.76484000","longitude":"90.25698000","translations":{"ru":"Муктагача","hy":"Մուքտաղաչա"}},{"name":"Mymensingh","latitude":"24.75000000","longitude":"90.40000000","native":"ময়মনসিংহ","translations":{"br":"Mymensingh","ko":"미멘싱","pt-BR":"Mymensingh","pt":"Mymensingh","nl":"Mymensingh","hr":"Mymensingh","fa":"میمنسینگ","de":"Mymensingh","es":"Mymensingh","fr":"Mymensingh","ja":"マイメンシン","it":"Mymensingh","zh-CN":"迈门辛","tr":"Mymensingh","ru":"Майменсингх","uk":"Міменсінгх","pl":"Mymensingh","hi":"मयमनसिंह","ar":"ميمينسينغ","hy":"Միմենսինգ"}},{"name":"Netrakona","latitude":"24.86667000","longitude":"90.86667000","translations":{"ru":"Нетракона","hy":"Նետրակոնա"}},{"name":"Sarishābāri","latitude":"24.75127000","longitude":"89.83126000","translations":{"ru":"Саришабари","hy":"Սարիշաբարի"}},{"name":"Sherpur","latitude":"25.08333000","longitude":"90.08333000","native":"শেরপুর","translations":{"br":"Sherpur","ko":"셰르푸르","pt-BR":"Sherpur","pt":"Sherpur","nl":"Sherpur","hr":"Šerpur","fa":"شیرپور","de":"Sherpur","es":"Sherpur","fr":"Sherpur","ja":"シェルプール","it":"Sherpur","zh-CN":"谢尔普尔","tr":"Şerpur","ru":"Шерпур","uk":"Шерпур","pl":"Sherpur","hi":"शेरपुर","ar":"شيربور","hy":"Շերպուր"}}]},{"name":"Mymensingh Division","state_code":"H","latitude":"24.71362000","longitude":"90.45023680","cities":[]},{"name":"Naogaon District","state_code":"48","latitude":"24.91315970","longitude":"88.75309520","cities":[]},{"name":"Narail District","state_code":"43","latitude":"23.11629290","longitude":"89.58404040","cities":[]},{"name":"Narayanganj District","state_code":"40","latitude":"23.71466010","longitude":"90.56360900","cities":[]},{"name":"Natore District","state_code":"44","latitude":"24.41024300","longitude":"89.00761770","cities":[]},{"name":"Netrokona District","state_code":"41","latitude":"24.81032840","longitude":"90.86564150","cities":[]},{"name":"Nilphamari District","state_code":"46","latitude":"25.84827980","longitude":"88.94141340","cities":[]},{"name":"Noakhali District","state_code":"47","latitude":"22.87237890","longitude":"91.09731840","cities":[]},{"name":"Pabna District","state_code":"49","latitude":"24.15850500","longitude":"89.44807180","cities":[]},{"name":"Panchagarh District","state_code":"52","latitude":"26.27087050","longitude":"88.59517510","cities":[]},{"name":"Patuakhali District","state_code":"51","latitude":"22.22486320","longitude":"90.45475030","cities":[]},{"name":"Pirojpur District","state_code":"50","latitude":"22.57907440","longitude":"89.97592640","cities":[]},{"name":"Rajbari District","state_code":"53","latitude":"23.71513400","longitude":"89.58748190","cities":[]},{"name":"Rajshahi District","state_code":"54","latitude":"24.37330870","longitude":"88.60487160","cities":[{"name":"Bera","latitude":"24.07821000","longitude":"89.63262000","translations":{"ru":"Бера","hy":"Բերա"}},{"name":"Bogra","latitude":"24.78333000","longitude":"89.35000000","native":"বগুড়া","translations":{"br":"Bogra","ko":"보그라","pt-BR":"Bogra","pt":"Bogra","nl":"Bogra","hr":"Bogra","fa":"بوگرا","de":"Bogra","es":"Bogra","fr":"Bogra","ja":"ボグラ","it":"Bogra","zh-CN":"博格拉","tr":"Bogra","ru":"Богра","uk":"Богра","pl":"Bogra","hi":"बोगरा","ar":"بوغرا","hy":"Բողրա"}},{"name":"Chapai Nababganj","latitude":"24.68333000","longitude":"88.25000000","translations":{"ru":"Чапай Набабганж","hy":"Չապայ Նաբաբգանջ"}},{"name":"Ishurdi","latitude":"24.12858000","longitude":"89.06573000","translations":{"ru":"Ишурди","hy":"Իշուրդի"}},{"name":"Joypur Hāt","latitude":"25.10147000","longitude":"89.02734000","translations":{"ru":"Джойпур Хат","hy":"Ջոյպուր Հատ"}},{"name":"Joypurhat","latitude":"25.08333000","longitude":"89.10000000","native":"জয়পুরহাট","translations":{"br":"Joypurhat","ko":"조이푸르핫","pt-BR":"Joypurhat","pt":"Joypurhat","nl":"Joypurhat","hr":"Joypurhat","fa":"جوی‌پورهات","de":"Joypurhat","es":"Joypurhat","fr":"Joypurhat","ja":"ジョイプールハット","it":"Joypurhat","zh-CN":"乔伊普尔哈特","tr":"Joypurhat","ru":"Джойпурхат","uk":"Джойпурхат","pl":"Joypurhat","hi":"जॉयपुरहाट","ar":"جويبورهات","hy":"Ջոյպուրհատ"}},{"name":"Mahasthangarh","latitude":"24.96111000","longitude":"89.34278000","translations":{"ru":"Махастхангарх","hy":"Մահաստհանղարգ"}},{"name":"Naogaon","latitude":"24.81180000","longitude":"88.94657000","native":"নওগাঁ","translations":{"br":"Naogaon","ko":"나오가온","pt-BR":"Naogaon","pt":"Naogaon","nl":"Naogaon","hr":"Naogaon","fa":"نائوگاون","de":"Naogaon","es":"Naogaon","fr":"Naogaon","ja":"ナオガオン","it":"Naogaon","zh-CN":"瑙冈","tr":"Naogaon","ru":"Наогаон","uk":"Наогаон","pl":"Naogaon","hi":"नौगांव","ar":"ناوجاون","hy":"Նաոգաոն"}},{"name":"Natore","latitude":"24.35000000","longitude":"89.08333000","native":"নাটোর","translations":{"br":"Natore","ko":"나토레","pt-BR":"Natore","pt":"Natore","nl":"Natore","hr":"Natore","fa":"طبیعت","de":"Natore","es":"Natore","fr":"Natore","ja":"ナトーレ","it":"Natore","zh-CN":"纳托尔","tr":"Doğa","ru":"Наторе","uk":"Наторе","pl":"Natore","hi":"नटोरे","ar":"ناتوري","hy":"Նաթոր"}},{"name":"Nawābganj","latitude":"24.59025000","longitude":"88.27444000","translations":{"ru":"Наваб-Ганж","hy":"Նաուաբգանջ"}},{"name":"Pabna","latitude":"24.00633000","longitude":"89.33533000","native":"পাবনা","translations":{"br":"Pabna","ko":"파브나","pt-BR":"Pabna","pt":"Pabna","nl":"Pabna","hr":"Pabna","fa":"پابنا","de":"Pabna","es":"Pabna","fr":"Pabna","ja":"パブナ","it":"Pabna","zh-CN":"帕布纳","tr":"Pabna","ru":"Пабна","uk":"Пабна","pl":"Pabna","hi":"पबना","ar":"بابنا","hy":"Պաբնա"}},{"name":"Pār Naogaon","latitude":"24.80418000","longitude":"88.94875000","translations":{"ru":"Пар Наогаон","hy":"Պար Նաոգաոն"}},{"name":"Puthia","latitude":"24.36537000","longitude":"88.83431000","translations":{"ru":"Путия","hy":"Պուտհիա"}},{"name":"Rajshahi","latitude":"24.36962000","longitude":"88.60748000","native":"রাজশাহী","translations":{"br":"Rajshahi","ko":"라지샤히","pt-BR":"Rajshahi","pt":"Rajshahi","nl":"Rajshahi","hr":"Rajshahi","fa":"راجشاهی","de":"Rajshahi","es":"Rajshahi","fr":"Rajshahi","ja":"ラジシャヒ","it":"Rajshahi","zh-CN":"拉杰沙希","tr":"Rajshahi","ru":"Раджшахи","uk":"Раджшахі","pl":"Radźszahi","hi":"राजशाही","ar":"راجشاهي","hy":"Րաջշահի"}},{"name":"Saidpur","latitude":"25.77769000","longitude":"88.89169000","translations":{"ru":"Саидпур","hy":"Սայդպուր"}},{"name":"Shāhzādpur","latitude":"24.17687000","longitude":"89.59880000","translations":{"ru":"Шахзадпур","hy":"Շահզադպուր"}},{"name":"Shibganj","latitude":"25.00146000","longitude":"89.32266000","translations":{"ru":"Шибганж","hy":"Շիբգանջ"}},{"name":"Sirajganj","latitude":"24.33333000","longitude":"89.61667000","native":"সিরাজগঞ্জ","translations":{"br":"Sirajganj","ko":"시라즈간지","pt-BR":"Sirajganj","pt":"Sirajganj","nl":"Sirajganj","hr":"Sirajganj","fa":"سراجگنج","de":"Sirajganj","es":"Sirajganj","fr":"Sirajganj","ja":"シラジガンジ","it":"Sirajganj","zh-CN":"西拉杰甘杰","tr":"Sirajganj","ru":"Сираджгандж","uk":"Сіраджгандж","pl":"Sirajganj","hi":"सिराजगंज","ar":"سيراججانج","hy":"Սիրաջգանջ"}}]},{"name":"Rajshahi Division","state_code":"E","latitude":"24.71057760","longitude":"88.94138650","cities":[]},{"name":"Rangamati Hill District","state_code":"56","latitude":"22.73241730","longitude":"92.29851340","cities":[]},{"name":"Rangpur District","state_code":"55","latitude":"25.74679250","longitude":"89.25083350","cities":[{"name":"Badarganj","latitude":"25.67419000","longitude":"89.05377000","translations":{"ru":"Бадарганж","hy":"Բադարգանջ"}},{"name":"Chilmāri","latitude":"25.55613000","longitude":"89.67097000","translations":{"ru":"Чилмари","hy":"Չիլմարի"}},{"name":"Dinajpur","latitude":"25.61667000","longitude":"88.75000000","native":"দিনাজপুর","translations":{"br":"Dinajpur","ko":"디나지푸르","pt-BR":"Dinajpur","pt":"Dinajpur","nl":"Dinajpur","hr":"Dinajpur","fa":"دیناجپور","de":"Dinajpur","es":"Dinajpur","fr":"Dinajpur","ja":"ディナジプル","it":"Dinajpur","zh-CN":"迪纳杰布尔","tr":"Dinajpur","ru":"Динаджпур","uk":"Дінаджпур","pl":"Dinajpur","hi":"दिनाजपुर","ar":"ديناجبور","hy":"Դինաջպուր"}},{"name":"Gaibandha","latitude":"25.25000000","longitude":"89.50000000","native":"গাইবান্ধা","translations":{"br":"Gaibandha","ko":"가이반다","pt-BR":"Gaibandha","pt":"Gaibandha","nl":"Gaibandha","hr":"Gaibandha","fa":"گایباندا","de":"Gaibandha","es":"Gaibandha","fr":"Gaibandha","ja":"ガイバンダ","it":"Gaibandha","zh-CN":"盖班达","tr":"Gaibandha","ru":"Гаибандха","uk":"Гайбандха","pl":"Gaibandha","hi":"गैबांधा","ar":"غايباندا","hy":"Գայբանդա"}},{"name":"Kurigram","latitude":"25.75000000","longitude":"89.66667000","native":"কুড়িগ্রাম","translations":{"br":"Kurigram","ko":"쿠리그램","pt-BR":"Kurigram","pt":"Kurigram","nl":"Kurigram","hr":"Kurigram","fa":"کوریگرام","de":"Kurigram","es":"Kurigrama","fr":"Kurigram","ja":"クリグラム","it":"Curigramma","zh-CN":"库里格拉姆","tr":"Kurigram","ru":"Куриграм","uk":"Куріграм","pl":"Kurigram","hi":"कुरीग्राम","ar":"كوريجرام","hy":"Կուրիգրամ"}},{"name":"Lalmonirhat","latitude":"25.91719000","longitude":"89.44595000","native":"লালমনিরহাট","translations":{"br":"Lalmonirhat","ko":"랄모니르핫","pt-BR":"Lalmonirhat","pt":"Lalmonirhat","nl":"Lalmonirhat","hr":"Lalmonirhat","fa":"لال‌منیرهات","de":"Lalmonirhat","es":"Lalmonirhat","fr":"Lalmonirhat","ja":"ラルモニルハット","it":"Lalmonirhat","zh-CN":"拉尔莫尼哈特","tr":"Lalmonirhat","ru":"Лалмонирхат","uk":"Лалмонірхат","pl":"Lalmonirhat","hi":"लालमोनिरहाट","ar":"لالمونيرات","hy":"Լալմոնիրհատ"}},{"name":"Lalmonirhat District","latitude":"26.00000000","longitude":"89.25000000","translations":{"ru":"Лалмонирхат","hy":"Լալմոնիրհատ Շրջան"}},{"name":"Nageswari","latitude":"25.96817000","longitude":"89.69153000","translations":{"ru":"Нагесвари","hy":"Նաղեսվարի"}},{"name":"Nilphamari Zila","latitude":"25.96667000","longitude":"88.95000000","translations":{"ru":"Нилфамари","hy":"Նիլֆամարի Զիլա"}},{"name":"Panchagarh","latitude":"26.33333000","longitude":"88.56667000","native":"পঞ্চগড়","translations":{"br":"Panchagarh","ko":"판차가르","pt-BR":"Panchagarh","pt":"Panchagarh","nl":"Panchagarh","hr":"Pančagarh","fa":"پنچاگار","de":"Panchagarh","es":"Panchagarh","fr":"Panchagarh","ja":"パンチャガル","it":"Panchagarh","zh-CN":"班查加尔","tr":"Panchagarh","ru":"Панчагарх","uk":"Панчагарх","pl":"Panchagarh","hi":"पंचगढ़","ar":"بانشاجاره","hy":"Պանչաղարգ"}},{"name":"Parbatipur","latitude":"25.66369000","longitude":"88.93093000","translations":{"ru":"Парбатипур","hy":"Պարբաթիպուր"}},{"name":"Pīrgaaj","latitude":"25.85587000","longitude":"88.35943000","translations":{"ru":"Пиргаж","hy":"Պիրղաջ"}},{"name":"Rangpur","latitude":"25.73333000","longitude":"89.25000000","native":"রংপুর","translations":{"br":"Rangpur","ko":"랑푸르","pt-BR":"Cravo","pt":"Cravo","nl":"Rangpur","hr":"Rangpur","fa":"رنگپور","de":"Rangpur","es":"Rangpur","fr":"Rangpur","ja":"ランプル","it":"Rangpur","zh-CN":"朗布尔","tr":"Rangpur","ru":"Рангпур","uk":"Рангпур","pl":"Rangpur","hi":"रंगपुर","ar":"رانجبور","hy":"Րանգպուր"}},{"name":"Thakurgaon","latitude":"25.96667000","longitude":"88.33333000","native":"ঠাকুরগাঁও","translations":{"br":"Thakurgaon","ko":"타쿠르가온","pt-BR":"Thakurgaon","pt":"Thakurgaon","nl":"Thakurgaon","hr":"Thakurgaon","fa":"تاکورگان","de":"Thakurgaon","es":"Thakurgaon","fr":"Thakurgaon","ja":"タクルガオン","it":"Thakurgaon","zh-CN":"塔库尔冈","tr":"Thakurgaon","ru":"Такургаон","uk":"Такургаон","pl":"Thakurgaon","hi":"ठाकुरगांव","ar":"ثاكورجاون","hy":"Թաքուրգաոն"}}]},{"name":"Rangpur Division","state_code":"F","latitude":"25.84833880","longitude":"88.94138650","cities":[]},{"name":"Satkhira District","state_code":"58","latitude":"22.31548120","longitude":"89.11145250","cities":[]},{"name":"Shariatpur District","state_code":"62","latitude":"23.24232140","longitude":"90.43477110","cities":[]},{"name":"Sherpur District","state_code":"57","latitude":"25.07462350","longitude":"90.14949040","cities":[]},{"name":"Sirajganj District","state_code":"59","latitude":"24.31411150","longitude":"89.56996150","cities":[]},{"name":"Sunamganj District","state_code":"61","latitude":"25.07145350","longitude":"91.39916270","cities":[]},{"name":"Sylhet District","state_code":"60","latitude":"24.89933570","longitude":"91.87004730","cities":[{"name":"Baniachang","latitude":"24.51863000","longitude":"91.35787000","translations":{"ru":"Баниачанг","hy":"Բանիաչանգ"}},{"name":"Chhātak","latitude":"25.03852000","longitude":"91.66958000","translations":{"ru":"Чхатак","hy":"Չհաաṭակ"}},{"name":"Habiganj","latitude":"24.43333000","longitude":"91.41667000","native":"হবিগঞ্জ","translations":{"br":"Habiganj","ko":"하비간지","pt-BR":"Habiganj","pt":"Habiganj","nl":"Habiganj","hr":"Habiganj","fa":"هابیگانج","de":"Habiganj","es":"Habiganj","fr":"Habiganj","ja":"ハビガンジ","it":"Habiganj","zh-CN":"哈比甘杰","tr":"Habiganj","ru":"Хабигандж","uk":"Хабігандж","pl":"Habiganj","hi":"हबीगंज","ar":"هابيجانج","hy":"Հաբիգանջ"}},{"name":"Jahedpur","latitude":"24.83333000","longitude":"91.65000000","translations":{"ru":"Джахедпур","hy":"Ջահեդպուր"}},{"name":"Maulavi Bāzār","latitude":"24.48888000","longitude":"91.77075000","translations":{"ru":"Маулави-Базар","hy":"Մաուլավի Բազար"}},{"name":"Maulvibazar","latitude":"24.50000000","longitude":"91.83333000","translations":{"ru":"Маулвибазар","hy":"Մաուլվիբազար"}},{"name":"Sunamganj","latitude":"24.86667000","longitude":"91.41667000","native":"সুনামগঞ্জ","translations":{"br":"Sunamganj","ko":"수남간지","pt-BR":"Sunamganj","pt":"Sunamganj","nl":"Sunamganj","hr":"Sunamganj","fa":"سونامگانج","de":"Sunamganj","es":"Sunamganj","fr":"Sunamganj","ja":"スナムガンジ","it":"Sunamganj","zh-CN":"苏纳姆甘杰","tr":"Sunamganj","ru":"Сунамгандж","uk":"Сунамгандж","pl":"Sunamganj","hi":"सुनामगंज","ar":"سونامغانج","hy":"Սունամգանջ"}},{"name":"Sylhet","latitude":"24.91667000","longitude":"91.76667000","native":"সিলেট","translations":{"br":"Sylhet","ko":"실렛","pt-BR":"Sylhet","pt":"Sylhet","nl":"Sylhet","hr":"Sylhet","fa":"سیلهت","de":"Sylhet","es":"Sylhet","fr":"Sylhet","ja":"シレット ","it":"Sylhet","zh-CN":"锡尔赫特","tr":"Sylhet","ru":"Силхет","uk":"Сілхет","pl":"Sylhet","hi":"सिलहट","ar":"سيلهيت","hy":"Սիլհետ"}}]},{"name":"Sylhet Division","state_code":"G","latitude":"24.70498110","longitude":"91.67606910","cities":[]},{"name":"Tangail District","state_code":"63","latitude":"24.39174270","longitude":"89.99482570","cities":[]},{"name":"Thakurgaon District","state_code":"64","latitude":"26.04183920","longitude":"88.42826160","cities":[]}]}