{"code":"BN","states":[{"name":"Belait District","state_code":"BE","latitude":"4.37507490","longitude":"114.61928990","cities":[{"name":"Kuala Belait","latitude":"4.58361000","longitude":"114.23120000","native":"Kuala Belait","translations":{"br":"Kuala Belait","ko":"쿠알라 벨라이트","pt-BR":"Kuala Belait","pt":"Kuala Belait","nl":"Kuala Belait","hr":"Kuala Belait","fa":"کوالا بیلایت","de":"Kuala Belait","es":"Kuala Belait","fr":"Kuala Belait","ja":"クアラ・ベライト","it":"Kuala Belait","zh-CN":"瓜拉马来奕","tr":"Kuala Belait","ru":"Куала Белайт","uk":"Куала-Белаїт","pl":"Kuala Belait","hi":"कुआला बेलाइट","ar":"كوالا بيليت","hy":"Կուալա Բելայտ"}},{"name":"Seria","latitude":"4.60637000","longitude":"114.32476000","native":"Dia akan menjadi","translations":{"br":"Seria","ko":"세리아","pt-BR":"Seria","pt":"Seria","nl":"Serie","hr":"Serija","fa":"سریا","de":"Serie","es":"Seria","fr":"Série","ja":"セリア","it":"Seria","zh-CN":"赛里亚","tr":"Seria","ru":"Серия","uk":"Серія","pl":"Seria","hi":"सीरिया","ar":"سيريا","hy":"Սերիա"}}]},{"name":"Brunei-Muara District","state_code":"BM","latitude":"4.93112060","longitude":"114.95168690","cities":[{"name":"Bandar Seri Begawan","latitude":"4.89035000","longitude":"114.94006000","native":"Bandar Seri Begawan","translations":{"br":"Bandar Seri Begawan","ko":"반다르스리브가완","pt-BR":"Bandar Seri Begawan","pt":"Bandar Seri Begawan","nl":"Bandar Seri Begawan","hr":"Bandar Seri Begawan","fa":"بندر سری بگاوان","de":"Bandar Seri Begawan","es":"Bandar Seri Begawan","fr":"Bandar Seri Begawan","ja":"バンダルスリブガワン","it":"Bandar Seri Begawan","zh-CN":"斯里巴加湾市","tr":"Bandar Seri Begawan","ru":"Бандар-Сери-Бегаван","uk":"Бандар-Сері-Бегаван","pl":"Bandar Seri Begawan","hi":"बंदर सेरी बेगावान","ar":"بندر سري بيغاوان","hy":"Բանդար Սերի Բեգավան"}},{"name":"Berakas A","latitude":"4.97032000","longitude":"114.92989000","native":"Berakas A","translations":{"br":"Berakas A","ko":"베라카스 A","pt-BR":"Berakas A","pt":"Berakas A","nl":"Berakas A","hr":"Berakas A","fa":"برکا آ","de":"Berakas A","es":"Berakas A","fr":"Berakas A","ja":"ベラカスA","it":"Berakas A","zh-CN":"贝拉卡斯","tr":"Berakas A","ru":"Беракас А","uk":"Беракас А","pl":"Berakas A","hi":"बेराकास ए","ar":"بيركاس أ","hy":"Բերակաս Ա"}},{"name":"Kapok","latitude":"5.02447000","longitude":"115.04664000","native":"Saya akan mendapat","translations":{"br":"Kapok","ko":"카폭","pt-BR":"Sumaúma","pt":"Sumaúma","nl":"Kapok","hr":"Kapok","fa":"کاپوک","de":"Kapok","es":"Capoc","fr":"Kapok","ja":"カポック","it":"Capoc","zh-CN":"木棉","tr":"Kapok","ru":"Капок","uk":"Капок","pl":"Kapok","hi":"रूई","ar":"الكابوك","hy":"Կապոկ"}},{"name":"Mentiri","latitude":"4.97058000","longitude":"115.02078000","native":"Berbohong","translations":{"br":"Mentiri","ko":"멘티리","pt-BR":"Mentiri","pt":"Mentiri","nl":"Mentiri","hr":"Mentiri","fa":"منتیری","de":"Mentiri","es":"Mentir","fr":"Mentiri","ja":"メンティリ","it":"Mentiri","zh-CN":"门蒂里","tr":"Mentiri","ru":"Ментири","uk":"Ментірі","pl":"Mentiri","hi":"मेंटिरी","ar":"مينتيري","hy":"Մենտիրի"}},{"name":"Serasa","latitude":"5.01718000","longitude":"115.05841000","native":"Terasa","translations":{"br":"Serasa","ko":"세라사","pt-BR":"Serasa","pt":"Serasa","nl":"Serasa","hr":"Serasa","fa":"سرسا","de":"Serasa","es":"Serasa","fr":"Serasa","ja":"セラサ","it":"Serasa","zh-CN":"塞拉萨","tr":"Serasa","ru":"Сераса","uk":"Сераса","pl":"Serasa","hi":"सेरासा","ar":"سيراسا","hy":"Սերասա"}}]},{"name":"Temburong District","state_code":"TE","latitude":"4.62041280","longitude":"115.14148400","cities":[{"name":"Bangar","latitude":"4.70861000","longitude":"115.07167000","native":"Bahagian","translations":{"br":"Bangar","ko":"방가르","pt-BR":"Bangar","pt":"Bangar","nl":"Bangar","hr":"Bangar","fa":"بنگر","de":"Bangar","es":"Bangar","fr":"Bangar","ja":"バンガル","it":"Bangar","zh-CN":"班加尔","tr":"Bangar","ru":"Бангар","uk":"Бангар","pl":"Bangar","hi":"बांगड़","ar":"بانجار","hy":"Բանգար"}}]},{"name":"Tutong District","state_code":"TU","latitude":"4.71403730","longitude":"114.66679390","cities":[{"name":"Tutong","latitude":"4.80278000","longitude":"114.64917000","native":"Tutong","translations":{"br":"Tutong","ko":"투통","pt-BR":"Tutong","pt":"Tutong","nl":"Tutong","hr":"Tutong","fa":"توتونگ","de":"Tutong","es":"Tutong","fr":"Tutong","ja":"ツトン語","it":"Tutong","zh-CN":"都东","tr":"Tutong","ru":"Тутонг","uk":"Тутонг","pl":"Tutong","hi":"ट्युटौंग","ar":"توتونغ","hy":"Տուտոնգ"}}]}]}