{"code":"BZ","states":[{"name":"Belize District","state_code":"BZ","latitude":"17.56776790","longitude":"-88.40160410","cities":[{"name":"Belize City","latitude":"17.49952000","longitude":"-88.19756000","native":"Belize City","translations":{"br":"Kêr Belize","ko":"벨리즈 시티","pt-BR":"Cidade de Belize","pt":"Cidade de Belize","nl":"Belize-Stad","hr":"Belize City","fa":"شهر بلیز","de":"Belize City","es":"Ciudad de Belice","fr":"Belize City","ja":"ベリーズシティ","it":"Città del Belize","zh-CN":"伯利兹城","tr":"Belize Şehri","ru":"Белиз-Сити","uk":"Беліз-Сіті","pl":"Miasto Belize","hi":"बेलीज़ सिटी","ar":"مدينة بليز"}},{"name":"San Pedro","latitude":"17.91598000","longitude":"-87.96590000","native":"San Pedro","translations":{"br":"San Pedro","ko":"산 페드로","pt-BR":"São Pedro","pt":"São Pedro","nl":"San Pedro","hr":"San Pedro","fa":"سن پدرو","de":"San Pedro","es":"San Pedro","fr":"San Pedro","ja":"サンペドロ","it":"San Pedro","zh-CN":"圣佩德罗","tr":"San Pedro","ru":"Сан-Педро","uk":"Сан-Педро","pl":"Święty Pedro","hi":"सैन पेड्रो","ar":"سان بيدرو"}}]},{"name":"Cayo District","state_code":"CY","latitude":"17.09844450","longitude":"-88.94138650","cities":[{"name":"Belmopan","latitude":"17.25000000","longitude":"-88.76667000","native":"Belmopan","translations":{"br":"Belmopan","ko":"벨모판","pt-BR":"Belmopan","pt":"Belmopan","nl":"Belmopan","hr":"Belmopan","fa":"بلموپان","de":"Belmopan","es":"Belmopán","fr":"Belmopan","ja":"ベルモパン","it":"Belmopan","zh-CN":"贝尔莫潘","tr":"Belmopan","ru":"Бельмопан","uk":"Бельмопан","pl":"Belmopan","hi":"बेल्मोपान","ar":"بلموبان"}},{"name":"Benque Viejo el Carmen","latitude":"17.07500000","longitude":"-89.13917000","native":"Benque Viejo El Carmen","translations":{"br":"Benque Viejo el Carmen","ko":"벤케 비에호 엘 카르멘","pt-BR":"Benque Viejo el Carmen","pt":"Benque Viejo el Carmen","nl":"Benque Viejo el Carmen","hr":"Benque Viejo el Carmen","fa":"بنکو ویخو ال کارمن","de":"Benque Viejo el Carmen","es":"Benque Viejo el Carmen","fr":"Benque Viejo el Carmen","ja":"ベンケ・ビエホ・エル・カルメン","it":"Benque Viejo el Carmen","zh-CN":"本克维耶霍埃尔卡门","tr":"Benque Viejo el Carmen","ru":"Бенке-Вьехо-эль-Кармен","uk":"Бенке-В'єхо-ель-Кармен","pl":"Benque Viejo el Carmen","hi":"बेन्के विएजो एल कारमेन","ar":"بنك فيجو إل كارمن"}},{"name":"San Ignacio","latitude":"17.15880000","longitude":"-89.06960000","native":"San Ignacio","translations":{"br":"San Ignacio","ko":"산 이그나시오","pt-BR":"Santo Inácio","pt":"Santo Inácio","nl":"San Ignacio","hr":"San Ignacio","fa":"سن ایگناسیو","de":"San Ignacio","es":"San Ignacio","fr":"Saint Ignacio","ja":"サン・イグナシオ","it":"San Ignacio","zh-CN":"圣伊格纳西奥","tr":"San Ignacio","ru":"Сан-Игнасио","uk":"Сан-Ігнасіо","pl":"San Ignacio","hi":"सैन इग्नासियो","ar":"سان إجناسيو"}},{"name":"Valley of Peace","latitude":"17.33472000","longitude":"-88.83472000","native":"Valley of Peace","translations":{"br":"Traoñienn ar Peoc'h","ko":"평화의 계곡","pt-BR":"Vale da Paz","pt":"Vale da Paz","nl":"Vallei van de Vrede","hr":"Dolina mira","fa":"دره صلح","de":"Tal des Friedens","es":"Valle de la Paz","fr":"Vallée de la Paix","ja":"平和の谷","it":"Valle della Pace","zh-CN":"和平谷","tr":"Barış Vadisi","ru":"Долина Мира","uk":"Долина Миру","pl":"Dolina Spokoju","hi":"शांति की घाटी","ar":"وادي السلام"}}]},{"name":"Corozal District","state_code":"CZL","latitude":"18.13492380","longitude":"-88.24611830","cities":[{"name":"Corozal","latitude":"18.39375000","longitude":"-88.38849000","native":"Corozal","translations":{"br":"Corozal","ko":"코로잘","pt-BR":"Corozal","pt":"Corozal","nl":"Corozal","hr":"Corozal","fa":"کروزال","de":"Corozal","es":"Corozal","fr":"Corozal","ja":"コロザル","it":"Corozal","zh-CN":"科罗萨尔","tr":"Corozal","ru":"Коросаль","uk":"Коросал","pl":"Corozal","hi":"कोरोज़ल","ar":"كوروزال"}}]},{"name":"Orange Walk District","state_code":"OW","latitude":"17.76035300","longitude":"-88.86469800","cities":[{"name":"Hopelchén","latitude":"17.80000000","longitude":"-89.10000000","native":"Hopelchén","translations":{"br":"Hopelchén","ko":"호펠첸","pt-BR":"Hopelchén","pt":"Hopelchén","nl":"Hopelchén","hr":"Hopelchén","fa":"هوپلشن","de":"Hopelchén","es":"Hopelchén","fr":"Hopelchén","ja":"ホペルチェン","it":"Hopelchén","zh-CN":"霍佩尔申","tr":"Hopelchén","ru":"Хопельчен","uk":"Хопельчен","pl":"Hopelchén","hi":"होपेलचेन","ar":"هوبلشين"}},{"name":"Orange Walk","latitude":"18.08124000","longitude":"-88.56328000","native":"Orange Walk","translations":{"br":"Pourmenadenn orañjez","ko":"오렌지 워크","pt-BR":"Caminhada Laranja","pt":"Caminhada Laranja","nl":"Oranjewandeling","hr":"Narančasta šetnja","fa":"پیاده‌روی نارنجی","de":"Orange Walk","es":"Paseo Naranja","fr":"Promenade Orange","ja":"オレンジウォーク","it":"Passeggiata arancione","zh-CN":"奥兰治沃克","tr":"Turuncu Yürüyüş","ru":"Оранжевая прогулка","uk":"Помаранчева прогулянка","pl":"Pomarańczowy Spacer","hi":"ऑरेंज वॉक","ar":"ممشى البرتقال"}},{"name":"Shipyard","latitude":"17.89382000","longitude":"-88.65452000","native":"Shipyard","translations":{"br":"Chantier","ko":"조선소","pt-BR":"Estaleiro","pt":"Estaleiro","nl":"Scheepswerf","hr":"Brodogradilište","fa":"کارخانه کشتی سازی","de":"Werft","es":"Astillero","fr":"Chantier naval","ja":"造船所","it":"Cantiere navale","zh-CN":"船厂","tr":"Tersane","ru":"Верфь","uk":"Суднобудівний завод","pl":"Stocznia","hi":"शिपयार्ड","ar":"حوض بناء السفن"}}]},{"name":"Stann Creek District","state_code":"SC","latitude":"16.81166310","longitude":"-88.40160410","cities":[{"name":"Dangriga","latitude":"16.96970000","longitude":"-88.23313000","native":"Dangriga","translations":{"br":"Dangriga","ko":"단그리가","pt-BR":"Dangriga","pt":"Dangriga","nl":"Dangriga","hr":"Dangriga","fa":"دانگریگا","de":"Dangriga","es":"Dangriga","fr":"Dangriga","ja":"ダングリガ","it":"Dangriga","zh-CN":"丹格里加","tr":"Dangriga","ru":"Дангрига","uk":"Дангрига","pl":"Dangriga","hi":"डांगरीगा","ar":"دانغريغا"}},{"name":"Placencia","latitude":"16.51419000","longitude":"-88.36647000","native":"Placentcia","translations":{"br":"Placencia","ko":"태반","pt-BR":"Placência","pt":"Placência","nl":"Placencia","hr":"Placencia","fa":"پلاسنسیا","de":"Placencia","es":"Placencia","fr":"Placencia","ja":"プラセンシア","it":"Placencia","zh-CN":"普拉森西亚","tr":"Placencia","ru":"Плаценция","uk":"Пласенсія","pl":"Placencia","hi":"प्लेसेंसिया","ar":"بلاسينسيا"}}]},{"name":"Toledo District","state_code":"TOL","latitude":"16.24919230","longitude":"-88.86469800","cities":[{"name":"Punta Gorda","latitude":"16.09835000","longitude":"-88.80970000","native":"Gorda Punta","translations":{"br":"Punta Gorda","ko":"푼타 고르다","pt-BR":"Punta Gorda","pt":"Punta Gorda","nl":"Punta Gorda","hr":"Punta Gorda","fa":"پونتا گوردا","de":"Punta Gorda","es":"Punta Gorda","fr":"Punta Gorda","ja":"プンタゴルダ","it":"Punta Gorda","zh-CN":"蓬塔戈尔达","tr":"Punta Gorda","ru":"Пунта-Горда","uk":"Пунта-Горда","pl":"Punta Gorda","hi":"पुंटा गोर्डा","ar":"بونتا غوردا"}}]}]}