{"code":"CG","states":[{"name":"Bouenza Department","state_code":"11","latitude":"-4.11280790","longitude":"13.72891670","cities":[{"name":"Kayes","latitude":"-4.20493000","longitude":"13.28608000","native":"Kayes","translations":{"br":"Kayes","ko":"케이스","pt-BR":"Kayes","pt":"Kayes","nl":"Kayes","hr":"Kayes","fa":"کایس","de":"Kayes","es":"Kayes","fr":"Kayes","ja":"ケイズ","it":"Kayes","zh-CN":"凯斯","tr":"Kayes","ru":"Кейс","uk":"Кейс","pl":"Kayes","hi":"कयेस","ar":"كايس","hy":"Կայես"}},{"name":"Madingou","latitude":"-4.15361000","longitude":"13.55000000","native":"Mode","translations":{"br":"Madingou","ko":"마딩구","pt-BR":"Madingou","pt":"Madingou","nl":"Madingou","hr":"Madingou","fa":"مادیگو","de":"Madingou","es":"Madingou","fr":"Madingou","ja":"マディンゴウ","it":"Madingou","zh-CN":"马丁古","tr":"Madingou","ru":"Мадингу","uk":"Мадінгу","pl":"Madingou","hi":"मादिंगौ","ar":"مادينجو","hy":"Մադինգու"}}]},{"name":"Brazzaville","state_code":"BZV","latitude":"-4.26335970","longitude":"15.24288530","cities":[{"name":"Brazzaville","latitude":"-4.26613000","longitude":"15.28318000","native":"Brazzaville","translations":{"br":"Brazzaville","ko":"브라자빌","pt-BR":"Brazzaville","pt":"Brazzaville","nl":"Brazzaville","hr":"Brazzaville","fa":"برازاویل","de":"Brazzaville","es":"Brazzaville","fr":"Brazzaville","ja":"ブラザヴィル","it":"Brazzaville","zh-CN":"布拉柴维尔","tr":"Brazzaville","ru":"Браззавиль","uk":"Браззавіль","pl":"Brazzaville","hi":"ब्राज़ाविल","ar":"برازافيل","hy":"Բրազավիլ"}}]},{"name":"Cuvette Department","state_code":"8","latitude":"-0.28774460","longitude":"16.15809370","cities":[{"name":"Makoua","latitude":"0.00694000","longitude":"15.63333000","native":"Makouua","translations":{"br":"Makoua","ko":"마코우아","pt-BR":"Makoua","pt":"Makoua","nl":"Makoua","hr":"Makoua","fa":"ماکوا","de":"Makoua","es":"Makoua","fr":"Makoua","ja":"マクア","it":"Makoua","zh-CN":"马库阿","tr":"Makoua","ru":"Макуа","uk":"Макуа","pl":"Makoua","hi":"मकौआ","ar":"ماكوا","hy":"Մակուա"}},{"name":"Owando","latitude":"-0.48193000","longitude":"15.89988000","native":"Owando","translations":{"br":"Owando","ko":"오완도","pt-BR":"Owando","pt":"Owando","nl":"Owando","hr":"Owando","fa":"اواندو","de":"Owando","es":"Owando","fr":"Owando","ja":"オワンド","it":"Owando","zh-CN":"奥旺多","tr":"Owando","ru":"Овандо","uk":"Овандо","pl":"Owando","hi":"ओवांडो","ar":"أواندو","hy":"Օվանդո"}}]},{"name":"Cuvette-Ouest Department","state_code":"15","latitude":"0.14475500","longitude":"14.47233010","cities":[{"name":"Ewo","latitude":"-0.87250000","longitude":"14.82056000","native":"Héros","translations":{"br":"Ewo","ko":"에워","pt-BR":"Ewo","pt":"Ewo","nl":"Ewo","hr":"Evo","fa":"ایو","de":"Ewo","es":"Ewo","fr":"Ewo","ja":"エウォ","it":"Ewo","zh-CN":"埃沃","tr":"Ewo","ru":"Эво","uk":"Ево","pl":"Ewo","hi":"इवो","ar":"إيوو","hy":"Էվո"}}]},{"name":"Kouilou Department","state_code":"5","latitude":"-4.14284130","longitude":"11.88917210","cities":[]},{"name":"Lékoumou Department","state_code":"2","latitude":"-3.17038200","longitude":"13.35872880","cities":[{"name":"Sibiti","latitude":"-3.68192000","longitude":"13.34985000","native":"Siti","translations":{"br":"Sibiti","ko":"시비티","pt-BR":"Sibiti","pt":"Sibiti","nl":"Sibi","hr":"Sibiti","fa":"سیبیتی","de":"Sibiti","es":"Sibiti","fr":"Sibiti","ja":"シビティ","it":"Sibiti","zh-CN":"西比蒂","tr":"Sibiti","ru":"Сибити","uk":"Сібіті","pl":"Sibiti","hi":"सिबिटी","ar":"سيبيتي","hy":"Սիբիտի"}}]},{"name":"Likouala Department","state_code":"7","latitude":"2.04392400","longitude":"17.66888700","cities":[{"name":"Impfondo","latitude":"1.61804000","longitude":"18.05981000","native":"Louer","translations":{"br":"Impfondo","ko":"임폰도","pt-BR":"Impfondo","pt":"Impfondo","nl":"Impfondo","hr":"Impfondo","fa":"ایمفوندو","de":"Impfondo","es":"Impfondo","fr":"Impfondo","ja":"インプフォンド","it":"Impfondo","zh-CN":"因普丰多","tr":"Impfondo","ru":"Импфондо","uk":"Імфондо","pl":"Impfondo","hi":"इम्फोंडो","ar":"إمبفوندو","hy":"Իմպֆոնդո"}}]},{"name":"Niari Department","state_code":"9","latitude":"-3.18427000","longitude":"12.25479190","cities":[{"name":"Dolisie","latitude":"-4.19834000","longitude":"12.66664000","native":"Dolisie","translations":{"br":"Dolisie","ko":"돌리시","pt-BR":"Dolisie","pt":"Dolisie","nl":"Dolisie","hr":"Dolisie","fa":"دولیسی","de":"Dolisie","es":"Dolisie","fr":"Dolisie","ja":"ドリシー","it":"Dolisie","zh-CN":"多利西","tr":"Dolisie","ru":"Долиси","uk":"Долісі","pl":"Dolisie","hi":"डोलिसी","ar":"دوليسي","hy":"Դոլիսի"}},{"name":"Mossendjo","latitude":"-2.94968000","longitude":"12.70423000","native":"Mossendjo","translations":{"br":"Mossendjo","ko":"모센조","pt-BR":"Mossendjo","pt":"Mossendjo","nl":"Mossendjo","hr":"Mossendjo","fa":"موسندجو","de":"Mossendjo","es":"Mossendjo","fr":"Mossendjo","ja":"モセンジョ","it":"Mossendjo","zh-CN":"莫森佐","tr":"Mossendjo","ru":"Моссенджо","uk":"Моссенджо","pl":"Mossendjo","hi":"मोसेंडजो","ar":"موسينجو","hy":"Մոսենջո"}}]},{"name":"Plateaux Department","state_code":"14","latitude":"-2.06800880","longitude":"15.40680790","cities":[{"name":"Djambala","latitude":"-2.54472000","longitude":"14.75333000","native":"Djambala","translations":{"br":"Djambala","ko":"잠발라","pt-BR":"Djambala","pt":"Djambala","nl":"Djambala","hr":"Džambala","fa":"جامبالا","de":"Djambala","es":"Djambala","fr":"Djambala","ja":"ジャンバラ","it":"Djambala","zh-CN":"贾巴拉","tr":"Djambala","ru":"Джамбала","uk":"Джамбала","pl":"Dżambala","hi":"जम्बाला","ar":"جامبالا","hy":"Ջամբալա"}},{"name":"Gamboma","latitude":"-1.87639000","longitude":"15.86444000","native":"Gamboma","translations":{"br":"Gamboma","ko":"감보마","pt-BR":"Gamboma","pt":"Gamboma","nl":"Gamboma","hr":"Gamboma","fa":"گامبوما","de":"Gamboma","es":"Gamboma","fr":"Gamboma","ja":"ガンボマ","it":"Gamboma","zh-CN":"甘博马","tr":"Gamboma","ru":"Гамбома","uk":"Гамбома","pl":"Gamboma","hi":"गम्बोमा","ar":"جامبوما","hy":"Գամբոմա"}}]},{"name":"Pointe-Noire","state_code":"16","latitude":"-4.76916230","longitude":"11.86636200","cities":[{"name":"Loandjili","latitude":"-4.75611000","longitude":"11.85778000","native":"Loandjili","translations":{"br":"Loandjili","ko":"론드질리","pt-BR":"Loandjili","pt":"Loandjili","nl":"Loandjili","hr":"Loandjili","fa":"لواندجیلی","de":"Loandjili","es":"Loandjili","fr":"Loandjili","ja":"ロアンジリ","it":"Loandjili","zh-CN":"洛安吉利","tr":"Loandjili","ru":"Лоанджили","uk":"Лоанджілі","pl":"Loandjili","hi":"लोआंडजिली","ar":"لوانجيلي","hy":"Լոանջիլի"}},{"name":"Pointe-Noire","latitude":"-4.77609000","longitude":"11.86352000","native":"Pointe-Noire","translations":{"br":"Poent-Noire","ko":"푸앵트누아르","pt-BR":"Pointe-Noire","pt":"Pointe-Noire","nl":"Pointe-Noire","hr":"Pointe-Noire","fa":"پوئنت-نوآر","de":"Pointe-Noire","es":"Pointe-Noire","fr":"Pointe-Noire","ja":"ポワントノワール","it":"Pointe-Noire","zh-CN":"黑角","tr":"Pointe-Noire","ru":"Пуэнт-Нуар","uk":"Пуент-Нуар","pl":"Pointe-Noire","hi":"पॉइंट-नॉइरे","ar":"بوانت نوار","hy":"Պուանտ-Նուար"}}]},{"name":"Pool Department","state_code":"12","latitude":"-3.77626280","longitude":"14.84546190","cities":[{"name":"Kinkala","latitude":"-4.36139000","longitude":"14.76444000","native":"Kinkala","translations":{"br":"Kinkala","ko":"킨칼라","pt-BR":"Kinkala","pt":"Kinkala","nl":"Kinkala","hr":"Kinkala","fa":"کینکالا","de":"Kinkala","es":"Kinkala","fr":"Kinkala","ja":"キンカラ","it":"Kinkala","zh-CN":"金卡拉","tr":"Kinkala","ru":"Кинкала","uk":"Кінкала","pl":"Kinkala","hi":"किंकाला","ar":"كينكالا","hy":"Կինկալա"}}]},{"name":"Sangha Department","state_code":"13","latitude":"1.46623280","longitude":"15.40680790","cities":[{"name":"Ouésso","latitude":"1.61361000","longitude":"16.05167000","native":"Ouésso","translations":{"br":"Ouésso","ko":"우에소","pt-BR":"Ouésso","pt":"Ouésso","nl":"Ouésso","hr":"Ouésso","fa":"اوسو","de":"Ouésso","es":"Ouésso","fr":"Ouésso","ja":"ウェッソ","it":"Ouésso","zh-CN":"韦索","tr":"Ouésso","ru":"Уэссо","uk":"Уессо","pl":"Ouésso","hi":"ओउएस्सो","ar":"أويسو","hy":"Ուեսո"}},{"name":"Sémbé","latitude":"1.64806000","longitude":"14.58056000","native":"Sémbé","translations":{"br":"Sémbé","ko":"셈베","pt-BR":"Sémbé","pt":"Sémbé","nl":"Sémbé","hr":"Sémbé","fa":"سمبه","de":"Sémbé","es":"Sémbé","fr":"Sembé","ja":"セムベ","it":"Sembé","zh-CN":"森贝","tr":"Sémbé","ru":"Сембе","uk":"Семб","pl":"Sémbé","hi":"सेम्बे","ar":"سيمبي","hy":"Սեմբե"}}]}]}