{"code":"CI","states":[{"name":"Abidjan","state_code":"AB","latitude":"5.35995170","longitude":"-4.00825630","cities":[{"name":"Abidjan","latitude":"5.30966000","longitude":"-4.01266000","native":"Abidjan","translations":{"ar":"أبيدجان","br":"Abidjan","de":"Abidjan","es":"Abiyán","fa":"آبیجان","fr":"Abidjan","hi":"एबिजान","hr":"Abidžan","it":"Abidjan","ja":"アビジャン","ko":"아비장","nl":"Abidjan","pl":"Abidżan","pt":"Abidjã","pt-BR":"Abidjã","ru":"Абиджан","tr":"Abidjan","uk":"Абіджан","zh-CN":"阿比让"}},{"name":"Abobo","latitude":"5.41613000","longitude":"-4.01590000","native":"Abobo","translations":{"ar":"أبوبو","br":"Abobo","de":"Abobo","es":"Abobo","fa":"ابوبو","fr":"Abobo","hi":"अबोबो","hr":"Abobo","it":"Abobo","ja":"アボボ","ko":"아보보","nl":"Abobo","pl":"Abobo","pt":"Abobo","pt-BR":"Abobo","ru":"Абобо","tr":"Abobo","uk":"Абобо","zh-CN":"阿波波"}},{"name":"Anyama","latitude":"5.49462000","longitude":"-4.05183000","native":"Se mouiller","translations":{"ar":"أنياما","br":"Anyama","de":"Anyama","es":"Anyama","fa":"آنیاما","fr":"Anyama","hi":"अन्यमा","hr":"Anyama","it":"Anyama","ja":"アニャマ","ko":"안야마","nl":"Anyama","pl":"Anyama","pt":"Anyama","pt-BR":"Anyama","ru":"Аньяма","tr":"Anyama","uk":"Аньяма","zh-CN":"阿尼亚马"}},{"name":"Bingerville","latitude":"5.35581000","longitude":"-3.88537000","native":"Bingerville","translations":{"ar":"بينجرفيل","br":"Bingerville","de":"Bingerville","es":"Bingerville","fa":"بینگرویل","fr":"Bingerville","hi":"बिंगरविले","hr":"Bingerville","it":"Bingerville","ja":"ビンガービル","ko":"빙거빌","nl":"Bingerville","pl":"Bingerville","pt":"Bingerville","pt-BR":"Bingerville","ru":"Бингервилль","tr":"Bingerville","uk":"Бінгервілл","zh-CN":"宾格维尔"}}]},{"name":"Agnéby","state_code":"16","latitude":"5.32245030","longitude":"-4.34495290","cities":[]},{"name":"Bafing Region","state_code":"17","latitude":"8.32520470","longitude":"-7.52472430","cities":[]},{"name":"Bas-Sassandra District","state_code":"BS","latitude":"5.27983560","longitude":"-6.15269850","cities":[{"name":"Gbôklé","latitude":"4.95712000","longitude":"-6.09372000","native":"Se fâcher","translations":{"ar":"غبوكلي","br":"Gbôklé","de":"Gbôklé","es":"Gbôklé","fa":"گبوکله","fr":"Gbôklé","hi":"ग्बोक्ले","hr":"Gbôklé","it":"Gbôklé","ja":"グボクレ","ko":"그보클레","nl":"Gbôklé","pl":"Gbôklé","pt":"Gbôklé","pt-BR":"Gbôklé","ru":"Гбокле","tr":"Gbôklé","uk":"Гбокле","zh-CN":"格博克莱"}},{"name":"Nawa","latitude":"5.80112000","longitude":"-6.60313000","native":"Combien","translations":{"ar":"نوى","br":"Nawa","de":"Nawa","es":"Nawa","fa":"نوا","fr":"Nawa","hi":"नवा","hr":"Nawa","it":"Nawa","ja":"ナワ","ko":"나와","nl":"Nawa","pl":"Nawa","pt":"Nawa","pt-BR":"Nawa","ru":"Нава","tr":"Nevva","uk":"Нава","zh-CN":"纳瓦"}},{"name":"San-Pédro","latitude":"4.76768000","longitude":"-6.65033000","native":"San-pedro","translations":{"ar":"سان بيدرو","br":"San-Pédro","de":"San Pedro","es":"San Pedro","fa":"سن-پدرو","fr":"San-Pédro","hi":"सैन पेड्रो","hr":"San Pedro","it":"San-Pédro","ja":"サンペドロ","ko":"산페드로","nl":"San Pedro","pl":"San-Pédro","pt":"San-Pédro","pt-BR":"San-Pédro","ru":"Сан-Педро","tr":"San Pedro","uk":"Сан-Педро","zh-CN":"圣佩德罗"}},{"name":"Sassandra","latitude":"4.95384000","longitude":"-6.08531000","native":"Sassandra","translations":{"ar":"ساساندرا","br":"Sassandra","de":"Sassandra","es":"Sassandra","fa":"ساساندرا","fr":"Sassandra","hi":"सासान्द्रा","hr":"Sasandra","it":"Sassandra","ja":"ササンドラ","ko":"사산드라","nl":"Sassandra","pl":"Sasandra","pt":"Sassandra","pt-BR":"Sassandra","ru":"Сассандра","tr":"Sassandra","uk":"Сассандра","zh-CN":"萨桑德拉"}},{"name":"Tabou","latitude":"4.42295000","longitude":"-7.35280000","native":"Tabou","translations":{"ar":"تابو","br":"Tabou","de":"Tabu","es":"Tabú","fa":"تابو","fr":"Tabou","hi":"तबू","hr":"Tabu","it":"Tabou","ja":"タブー","ko":"타부","nl":"Tabou","pl":"Tabou","pt":"Tabu","pt-BR":"Tabu","ru":"Табу","tr":"Tabu","uk":"Табу","zh-CN":"塔布"}}]},{"name":"Bas-Sassandra Region","state_code":"09","latitude":"5.35679160","longitude":"-6.74939930","cities":[]},{"name":"Comoé District","state_code":"CM","latitude":"5.55279300","longitude":"-3.25836260","cities":[{"name":"Abengourou","latitude":"6.72972000","longitude":"-3.49639000","native":"Abengourou","translations":{"ar":"أبنغورو","br":"Abengourou","de":"Abengourou","es":"Abengourou","fa":"آبنگورو","fr":"Abengourou","hi":"अबेंगौरौ","hr":"Abengourou","it":"Abengourou","ja":"アベンゴルー","ko":"아벤구루","nl":"Abengourou","pl":"Abengourou","pt":"Abengourou","pt-BR":"Abengourou","ru":"Абенгуру","tr":"Abengourou","uk":"Абенгуру","zh-CN":"阿本古鲁"}},{"name":"Aboisso","latitude":"5.46779000","longitude":"-3.20711000","native":"Aboisso","translations":{"ar":"أبويسو","br":"Aboisso","de":"Aboisso","es":"Aboisso","fa":"آبویسو","fr":"Aboisso","hi":"अबोइसो","hr":"Aboisso","it":"Aboisso","ja":"アボイッソ","ko":"아보이소","nl":"Aboisso","pl":"Aboisso","pt":"Aboisso","pt-BR":"Aboisso","ru":"Абоиссо","tr":"Aboisso","uk":"Абойсо","zh-CN":"阿博伊索"}},{"name":"Adiaké","latitude":"5.28634000","longitude":"-3.30403000","native":"Adiaké","translations":{"ar":"أدياكي","br":"Adiaké","de":"Adiaké","es":"Adiaké","fa":"آدیاکه","fr":"Adiaké","hi":"अदियाके","hr":"Adiaké","it":"Adiaké","ja":"アディアケ","ko":"아디아케","nl":"Adiaké","pl":"Adiaké","pt":"Adiaké","pt-BR":"Adiaké","ru":"Адиаке","tr":"Adiaké","uk":"Адіаке","zh-CN":"阿迪亚凯"}},{"name":"Agnibilékrou","latitude":"7.13113000","longitude":"-3.20415000","native":"Agnibilékrou","translations":{"ar":"أغنيبيليكرو","br":"Agnibilékrou","de":"Agnibilékrou","es":"Agnibilékrou","fa":"آگنیبیلکرو","fr":"Agnibilékrou","hi":"अग्निबिलेक्रो","hr":"Agnibilékrou","it":"Agnibilékrou","ja":"アグニビレクロウ","ko":"아그니빌레크루","nl":"Agnibilékrou","pl":"Agnibilékrou","pt":"Agnibilékrou","pt-BR":"Agnibilékrou","ru":"Агнибилекру","tr":"Agnibilékrou","uk":"Агнібілекру","zh-CN":"阿格尼比莱克鲁"}},{"name":"Ayamé","latitude":"5.60520000","longitude":"-3.15709000","native":"Ils l'ont laissé","translations":{"ar":"أيامي","br":"Ayamé","de":"Ayamé","es":"Ayamé","fa":"آیامه","fr":"Ayamé","hi":"Ayame","hr":"Ayamé","it":"Ayamé","ja":"アヤメ","ko":"아야메","nl":"Ayamé","pl":"Ayamé","pt":"Ayamé","pt-BR":"Ayamé","ru":"Аяме","tr":"Ayamé","uk":"Аяме","zh-CN":"绫"}},{"name":"Bonoua","latitude":"5.27247000","longitude":"-3.59625000","native":"Bonoua","translations":{"ar":"بونوا","br":"Bonua","de":"Bonoua","es":"Bonua","fa":"بونوا","fr":"Bonoua","hi":"बोनौआ","hr":"Bonoua","it":"Bonoua","ja":"ボヌア","ko":"보누아","nl":"Bonoua","pl":"Bonoua","pt":"Bonoua","pt-BR":"Bonoua","ru":"Бонуа","tr":"Bonoua","uk":"Бонуа","zh-CN":"博努阿"}},{"name":"Grand-Bassam","latitude":"5.21180000","longitude":"-3.73884000","native":"Grand-Bassam","translations":{"ar":"جراند بسام","br":"Grand-Bassam","de":"Grand-Bassam","es":"Grand-Bassam","fa":"گرند-باسام","fr":"Grand-Bassam","hi":"ग्रांड-बास्साम","hr":"Grand-Bassam","it":"Grand-Bassam","ja":"グラン・バサム","ko":"그랑바삼","nl":"Grand-Bassam","pl":"Grand-Bassam","pt":"Grand-Bassam","pt-BR":"Grand-Bassam","ru":"Гран-Басам","tr":"Grand-Bassam","uk":"Гранд-Бассам","zh-CN":"大巴萨姆"}},{"name":"Indénié-Djuablin","latitude":"6.74434000","longitude":"-3.49400000","native":"Indénié-Djuablin","translations":{"ar":"إندينييه-دجوابلين","br":"Indez-Djuablin","de":"Indénié-Djuablin","es":"Indénié-Djuablin","fa":"ایندنیه-دجوابلین","fr":"Indénié-Djuablin","hi":"इंडेनी-डजुआब्लिन","hr":"Indénié-Djuablin","it":"Indénié-Djuablin","ja":"インデニエ・ジュアブラン","ko":"인데니에-주아블린","nl":"Indénié-Djuablin","pl":"Indénié-Djuablin","pt":"Indénié-Djuablin","pt-BR":"Indénié-Djuablin","ru":"Индение-Джуаблин","tr":"Indénié-Djuablin","uk":"Інденіє-Джуаблен","zh-CN":"因德涅-朱阿布林"}},{"name":"Sud-Comoé","latitude":"5.49961000","longitude":"-3.24080000","native":"Sud-Comoé","translations":{"ar":"سود كوموي","br":"Sud-Comoé","de":"Süd-Comoé","es":"Sud-Comoé","fa":"سود-کوموئه","fr":"Sud-Comoé","hi":"सुद-कोमोए","hr":"Sud-Comoé","it":"Sud-Comoé","ja":"南コモエ","ko":"남코모에","nl":"Zuid-Comoé","pl":"Sud-Comoé","pt":"Sud-Comoé","pt-BR":"Sud-Comoé","ru":"Южный Комоэ","tr":"Güney Comoé","uk":"Південна Комое","zh-CN":"南科莫埃"}}]},{"name":"Denguélé District","state_code":"DN","latitude":"48.07077630","longitude":"-68.56093410","cities":[{"name":"Folon","latitude":"9.81241000","longitude":"-7.51894000","native":"Tenen","translations":{"ar":"فولون","br":"Folon","de":"Folon","es":"Folón","fa":"فولون","fr":"Folon","hi":"फोलोन","hr":"Folon","it":"Folone","ja":"フォロン","ko":"폴론","nl":"Folon","pl":"Folon","pt":"Folon","pt-BR":"Folon","ru":"Фолон","tr":"Folon","uk":"Фолон","zh-CN":"福隆"}},{"name":"Kabadougou","latitude":"9.60571000","longitude":"-7.43774000","native":"Kabadugou","translations":{"ar":"كابادوغو","br":"Kabadougou","de":"Kabadougou","es":"Kabadougou","fa":"کابادوگو","fr":"Kabadougou","hi":"कबाडौगौ","hr":"Kabadougou","it":"Kabadougou","ja":"カバドゥグー","ko":"카바두구","nl":"Kabadougou","pl":"Kabadougou","pt":"Kabadougou","pt-BR":"Kabadougou","ru":"Кабадугу","tr":"Kabadougou","uk":"Кабадугу","zh-CN":"卡巴杜古"}},{"name":"Odienné","latitude":"9.50511000","longitude":"-7.56433000","native":"Odienné","translations":{"ar":"أودينيه","br":"Odienné","de":"Odienne","es":"Odienné","fa":"اودینه","fr":"Odienné","hi":"Odienne","hr":"Odienné","it":"Odienné","ja":"オディエンネ","ko":"오디엔네","nl":"Odienné","pl":"Odienné","pt":"Odienné","pt-BR":"Odienné","ru":"Одиенне","tr":"Odienne","uk":"Одієнне","zh-CN":"奥迪内"}}]},{"name":"Denguélé Region","state_code":"10","latitude":"9.46623720","longitude":"-7.43813550","cities":[]},{"name":"Dix-Huit Montagnes","state_code":"06","latitude":"7.37623730","longitude":"-7.43813550","cities":[{"name":"Bangolo","latitude":"7.01232000","longitude":"-7.48639000","native":"Les dons","translations":{"ar":"بانغولو","br":"Bangolo","de":"Bangolo","es":"Bangolo","fa":"بنگولو","fr":"Bangolo","hi":"बंगलो","hr":"Bangalo","it":"Bangolo","ja":"バンゴロ","ko":"방골로","nl":"Bangolo","pl":"Bangolo","pt":"Bangolo","pt-BR":"Bangolo","ru":"Банголо","tr":"Bangolo","uk":"Банголо","zh-CN":"班戈洛"}},{"name":"Biankouma","latitude":"7.73909000","longitude":"-7.61377000","native":"Biankouma","translations":{"ar":"بيانكوما","br":"Biankouma","de":"Biankouma","es":"Biankouma","fa":"بیانکوما","fr":"Biankouma","hi":"बियानकौमा","hr":"Biankouma","it":"Biancouma","ja":"ビアンコウマ","ko":"비앙쿠마","nl":"Biankouma","pl":"Biankouma","pt":"Biankouma","pt-BR":"Biankouma","ru":"Бианкоума","tr":"Biankouma","uk":"Біанкума","zh-CN":"比安库马"}},{"name":"Cavally","latitude":"6.56343000","longitude":"-7.92526000","native":"Cavale","translations":{"ar":"كافالي","br":"Cavally","de":"Kavallerie","es":"Caballería","fa":"کاوالی","fr":"Cavally","hi":"कैवेली","hr":"Cavally","it":"Cavalleria","ja":"騎兵隊","ko":"기병대","nl":"Cavally","pl":"Kawaler","pt":"Cavalheiro","pt-BR":"Cavalheiro","ru":"Кавалли","tr":"Süvari","uk":"Каваллі","zh-CN":"卡瓦利"}},{"name":"Danané","latitude":"7.25957000","longitude":"-8.15498000","native":"Danané","translations":{"ar":"داناني","br":"Danané","de":"Danané","es":"Danané","fa":"دانانه","fr":"Danané","hi":"दानाने","hr":"Danané","it":"Danane","ja":"ダナネ","ko":"다나네","nl":"Danané","pl":"Danané","pt":"Danané","pt-BR":"Danané","ru":"Данане","tr":"Danané","uk":"Данане","zh-CN":"达纳内"}},{"name":"Duekoué","latitude":"6.74202000","longitude":"-7.34918000","native":"Dûkoué","translations":{"ar":"دويكوي","br":"Duekoué","de":"Duekoué","es":"Duekoué","fa":"دوکوئه","fr":"Duékoué","hi":"डुएकौए","hr":"Duekoué","it":"Duekoué","ja":"デュクエ","ko":"두에쿠에","nl":"Duekoué","pl":"Duekoué","pt":"Duekoué","pt-BR":"Duekoué","ru":"Дуэкуэ","tr":"Duekoué","uk":"Дуекуе","zh-CN":"杜埃奎"}},{"name":"Guémon","latitude":"7.09300000","longitude":"-7.17785000","native":"Guémon","translations":{"ar":"غيمون","br":"Guémon","de":"Guémon","es":"Guémon","fa":"گومون","fr":"Guémon","hi":"गुएमोन","hr":"Guémon","it":"Guémon","ja":"ゲモン","ko":"게몽","nl":"Guémon","pl":"Guémon","pt":"Guémon","pt-BR":"Guémon","ru":"Гемон","tr":"Guémon","uk":"Гемон","zh-CN":"盖蒙"}},{"name":"Guiglo","latitude":"6.54368000","longitude":"-7.49350000","native":"Ganglo","translations":{"ar":"غيغلو","br":"Guiglo","de":"Guiglo","es":"Guiglo","fa":"گولیو","fr":"Guiglo","hi":"गुइग्लो","hr":"Guigló","it":"Guiglo","ja":"ギグロ","ko":"기글로","nl":"Guiglo","pl":"Guiglo","pt":"Guiglo","pt-BR":"Guiglo","ru":"Гигло","tr":"Guiglo","uk":"Гігло","zh-CN":"吉格洛"}},{"name":"Man","latitude":"7.41251000","longitude":"-7.55383000","native":"Homme","translations":{"ar":"رجل","br":"Den","de":"Mann","es":"Hombre","fa":"مرد","fr":"Homme","hi":"आदमी","hr":"Čovjek","it":"Uomo","ja":"男","ko":"남성","nl":"Man","pl":"Człowiek","pt":"Homem","pt-BR":"Homem","ru":"Мужчина","tr":"Adam","uk":"Чоловік","zh-CN":"男人"}},{"name":"Tonkpi","latitude":"7.56785000","longitude":"-7.60941000","native":"Tonkpi","translations":{"ar":"تونكبي","br":"Tonkpi","de":"Tonkpi","es":"Tonkpi","fa":"تونکپی","fr":"Tonkpi","hi":"टोंकपी","hr":"Tonkpi","it":"Tonkpi","ja":"トンピ","ko":"통크피","nl":"Tonkpi","pl":"Tonkpi","pt":"Tonkpi","pt-BR":"Tonkpi","ru":"Тонкпи","tr":"Tonkpi","uk":"Тонкпі","zh-CN":"通克皮"}},{"name":"Toulépleu Gueré","latitude":"6.57395000","longitude":"-8.42592000","native":"Toulépleu Gueré","translations":{"ar":"توليبلو غيريه","br":"Toulépleu Gueré","de":"Toulépleu Gueré","es":"Toulépleu Gueré","fa":"تولپلو گره","fr":"Toulépleu Guéré","hi":"टूलेप्लु गुएरे","hr":"Toulépleu Guéré","it":"Toulépleu Gueré","ja":"トゥーレプル・ゲレ","ko":"툴레플루 게레","nl":"Toulépleu Gueré","pl":"Toulépleu Gueré","pt":"Toulépleu Gueré","pt-BR":"Toulépleu Gueré","ru":"Тулеплё Гере","tr":"Toulépleu Gueré","uk":"Тулепле Гере","zh-CN":"图莱普勒盖雷"}}]},{"name":"Fromager","state_code":"18","latitude":"45.54502130","longitude":"-73.60462230","cities":[]},{"name":"Gôh-Djiboua District","state_code":"GD","latitude":"5.87113930","longitude":"-5.56172790","cities":[{"name":"Divo","latitude":"5.83739000","longitude":"-5.35723000","native":"Étoile","translations":{"ar":"ديفو","br":"Divo","de":"Divo","es":"Divo","fa":"دیوو","fr":"Divo","hi":"डिवो","hr":"Divo","it":"Divo","ja":"ディーヴォ","ko":"디보","nl":"Divo","pl":"Divo","pt":"Divo","pt-BR":"Divo","ru":"Диво","tr":"Divo","uk":"Діво","zh-CN":"迪沃"}},{"name":"Gagnoa","latitude":"6.13193000","longitude":"-5.95060000","native":"Gagnoa","translations":{"ar":"غاغنوا","br":"Gagnoa","de":"Gagnoa","es":"Gagnoa","fa":"گاگنوا","fr":"Gagnoa","hi":"गग्नोआ","hr":"Gagnoa","it":"Gagnoa","ja":"ガニョア","ko":"가그노아","nl":"Gagnoa","pl":"Gagnoa","pt":"Gagnoa","pt-BR":"Gagnoa","ru":"Ганьоа","tr":"Gagnoa","uk":"Ганьоа","zh-CN":"加尼奥阿"}},{"name":"Gôh","latitude":"6.14459000","longitude":"-5.92644000","native":"Aller","translations":{"ar":"جوه","br":"Gôh","de":"Gôh","es":"Gôh","fa":"گو","fr":"Gôh","hi":"गोह","hr":"Gôh","it":"Gôh","ja":"ゴー","ko":"고흐","nl":"Gôh","pl":"Gôh","pt":"Goh","pt-BR":"Goh","ru":"Гох","tr":"Gôh","uk":"Гох","zh-CN":"吴"}},{"name":"Guibéroua","latitude":"6.23869000","longitude":"-6.17147000","native":"Guibéroua","translations":{"ar":"جيبيرووا","br":"Guibéroua","de":"Guibéroua","es":"Guibéroua","fa":"گیبروا","fr":"Guibéroua","hi":"गुइबेरुआ","hr":"Guibéroua","it":"Guibéroua","ja":"ギベロウア","ko":"기베루아","nl":"Guibéroua","pl":"Guibéroua","pt":"Guibéroua","pt-BR":"Guibéroua","ru":"Гиберуа","tr":"Guiberoua","uk":"Гіберуа","zh-CN":"吉贝鲁阿"}},{"name":"Lakota","latitude":"5.84752000","longitude":"-5.68200000","native":"Lakota","translations":{"ar":"لاكوتا","br":"Lakota","de":"Lakota","es":"Lakota","fa":"لاکوتا","fr":"Lakota","hi":"लकोटा","hr":"Lakota","it":"Lakota","ja":"ラコタ","ko":"라코타족","nl":"Lakota","pl":"Lakota","pt":"Lakota","pt-BR":"Lakota","ru":"Лакота","tr":"Lakota","uk":"Лакота","zh-CN":"拉科塔"}},{"name":"Lôh-Djiboua","latitude":"5.82483000","longitude":"-5.47668000","native":"Lôh-Djiboua","translations":{"ar":"لوه جيبوا","br":"Lôh-Djiboua","de":"Lôh-Djiboua","es":"Lôh-Yibua","fa":"لو-جیبوآ","fr":"Lôh-Djiboua","hi":"लोह-जिबूआ","hr":"Lôh-Džibua","it":"Lôh-Djiboua","ja":"ロージブア","ko":"로지부아","nl":"Lôh-Djiboua","pl":"Lôh-Djiboua","pt":"Lôh-Djiboua","pt-BR":"Lôh-Djiboua","ru":"Лох-Джибуа","tr":"Lôh-Ciboua","uk":"Лох-Джибуа","zh-CN":"洛吉布阿"}},{"name":"Oumé","latitude":"6.38309000","longitude":"-5.41759000","native":"Oumé","translations":{"ar":"أومي","br":"Oumé","de":"Oumé","es":"Oumé","fa":"اومه","fr":"Oumé","hi":"औमे","hr":"Oumé","it":"Oumè","ja":"ウメ","ko":"우메","nl":"Oumé","pl":"Oumé","pt":"Oumé","pt-BR":"Oumé","ru":"Уме","tr":"Oumé","uk":"Уме","zh-CN":"乌梅"}}]},{"name":"Haut-Sassandra","state_code":"02","latitude":"6.87578480","longitude":"-6.57833870","cities":[]},{"name":"Lacs District","state_code":"LC","latitude":"48.19801690","longitude":"-80.45644120","cities":[]},{"name":"Lacs Region","state_code":"07","latitude":"47.73958660","longitude":"-70.41866520","cities":[{"name":"Arrah","latitude":"6.67342000","longitude":"-3.96938000","native":"Arrah","translations":{"ar":"أراه","br":"Arrah","de":"Arrah","es":"Arrah","fa":"آراه","fr":"Arrah","hi":"आरा","hr":"Arrah","it":"Arrah","ja":"アラ","ko":"아라","nl":"Arrah","pl":"Arrah","pt":"Arrah","pt-BR":"Arrah","ru":"Аррах","tr":"Arrah","uk":"Аррах","zh-CN":"阿拉"}},{"name":"Bélier","latitude":"7.02582000","longitude":"-5.06744000","native":"Bélier","translations":{"ar":"بيلييه","br":"Bélier","de":"Bélier","es":"Bélier","fa":"بلیِر","fr":"Bélier","hi":"बेलिएर","hr":"Bélier","it":"Bélier","ja":"ベリエ","ko":"벨리에","nl":"Bélier","pl":"Bélier","pt":"Bélier","pt-BR":"Bélier","ru":"Белье","tr":"Bélier","uk":"Бельє","zh-CN":"贝利尔"}},{"name":"Bocanda","latitude":"7.06264000","longitude":"-4.49948000","native":"Bocanda","translations":{"ar":"بوكاندا","br":"Bocanda","de":"Bocanda","es":"Bocanda","fa":"بوکاندا","fr":"Bocanda","hi":"बोकांडा","hr":"Bocanda","it":"Bocanda","ja":"ボカンダ","ko":"보칸다","nl":"Bocanda","pl":"Bocanda","pt":"Bocanda","pt-BR":"Bocanda","ru":"Боканда","tr":"Bocanda","uk":"Боканда","zh-CN":"博坎达"}},{"name":"Bongouanou","latitude":"6.65175000","longitude":"-4.20406000","native":"Bongouohanou","translations":{"ar":"بونغوانو","br":"Bongouanou","de":"Bongouanou","es":"Bongouanou","fa":"بونگوآنو","fr":"Bongouanou","hi":"बोंगौआनौ","hr":"Bongouanou","it":"Bongouanou","ja":"ボンゴアヌ","ko":"봉구아누","nl":"Bongouanou","pl":"Bongouanou","pt":"Bongouanou","pt-BR":"Bongouanou","ru":"Бонгуаноу","tr":"Bongouanou","uk":"Бонгуану","zh-CN":"邦戈阿努"}},{"name":"Daoukro","latitude":"7.05910000","longitude":"-3.96310000","native":"Daoukro","translations":{"ar":"داوكرو","br":"Daoukro","de":"Daoukro","es":"Daoukro","fa":"داوکرو","fr":"Daoukro","hi":"दाउक्रो","hr":"Daoukro","it":"Daoukro","ja":"ダウクロ","ko":"다우크로","nl":"Daoukro","pl":"Daoukro","pt":"Daoukro","pt-BR":"Daoukro","ru":"Даукро","tr":"Daoukro","uk":"Даукро","zh-CN":"达乌克罗"}},{"name":"Dimbokro","latitude":"6.64678000","longitude":"-4.70519000","native":"Dimberage","translations":{"ar":"ديمبوكرو","br":"Dimbokro","de":"Dimbokro","es":"Dimbokro","fa":"دیمبوکرو","fr":"Dimbokro","hi":"डिम्बोक्रो","hr":"Dimbokro","it":"Dimbokro","ja":"ディンボクロ","ko":"딤보크로","nl":"Dimbokro","pl":"Dimbokro","pt":"Dimbokro","pt-BR":"Dimbokro","ru":"Димбокро","tr":"Dimbokro","uk":"Дімбокро","zh-CN":"丁博克罗"}},{"name":"Iffou","latitude":"7.11509000","longitude":"-3.95027000","native":"Foi","translations":{"ar":"إيفو","br":"Iffou","de":"Iffou","es":"Si lo pensaras","fa":"ایفو","fr":"Iffou","hi":"इफ़्फ़ौ","hr":"Iffou","it":"Iffou","ja":"イフー","ko":"이푸","nl":"Alsof","pl":"Jeśli","pt":"Se você","pt-BR":"Se você","ru":"Иффу","tr":"Iffou","uk":"Іффу","zh-CN":"伊富"}},{"name":"Moronou","latitude":"6.66830000","longitude":"-4.13155000","native":"Morouou","translations":{"ar":"مورونو","br":"Moronou","de":"Moronou","es":"Moronou","fa":"مورونو","fr":"Moronou","hi":"मोरोनोउ","hr":"Moronou","it":"Moronou","ja":"モロヌー","ko":"모로누","nl":"Moronou","pl":"Moronou","pt":"Moronou","pt-BR":"Moronou","ru":"Мороноу","tr":"Moronou","uk":"Морону","zh-CN":"莫罗努"}},{"name":"N'Zi","latitude":"6.82803000","longitude":"-4.58130000","native":"N'Zi","translations":{"ar":"نزي","br":"N'Zi","de":"N'Zi","es":"N'Zi","fa":"نزی","fr":"N'Zi","hi":"एन'ज़ी","hr":"N'Zi","it":"N'Zi","ja":"ンジ","ko":"느지","nl":"N'Zi","pl":"N'Zi","pt":"N'Zi","pt-BR":"N'Zi","ru":"Н'Зи","tr":"N'Zi","uk":"Н'Зі","zh-CN":"恩齐"}},{"name":"Toumodi","latitude":"6.55799000","longitude":"-5.01769000","native":"Toumodi","translations":{"ar":"تومودي","br":"Toumodi","de":"Toumodi","es":"Toumodi","fa":"تومودی","fr":"Toumodi","hi":"तौमोदी","hr":"Toumodi","it":"Toumodi","ja":"トウモディ","ko":"투모디","nl":"Toumodi","pl":"Toumodi","pt":"Toumodi","pt-BR":"Toumodi","ru":"Тумоди","tr":"Tomodi","uk":"Тумоді","zh-CN":"图莫迪"}},{"name":"Yamoussoukro","latitude":"6.82055000","longitude":"-5.27674000","native":"Yamoussoukro","translations":{"ar":"ياموسوكرو","br":"Yamoussoukro","de":"Yamoussoukro","es":"Yamusukro","fa":"یاموسوکرو","fr":"Yamoussoukro","hi":"यामौस्सोक्रो","hr":"Yamoussoukro","it":"Yamoussoukro","ja":"ヤムスクロ","ko":"야무수크로","nl":"Yamoussoukro","pl":"Jamusukro","pt":"Yamoussoukro","pt-BR":"Yamoussoukro","ru":"Ямусукро","tr":"Yamoussoukro","uk":"Ямусукро","zh-CN":"亚穆苏克罗"}}]},{"name":"Lagunes District","state_code":"LG","latitude":"5.88273340","longitude":"-4.23333550","cities":[]},{"name":"Lagunes region","state_code":"01","latitude":"5.88273340","longitude":"-4.23333550","cities":[{"name":"Adzopé","latitude":"6.10694000","longitude":"-3.86194000","native":"Adzopé","translations":{"ar":"أدزوبيه","br":"Adzopé","de":"Adzopé","es":"Adzopé","fa":"آدزوپه","fr":"Adzopé","hi":"अडज़ोपे","hr":"Adzopé","it":"Adzopé","ja":"アゾペ","ko":"아조페","nl":"Adzope","pl":"Adzopé","pt":"Adzopé","pt-BR":"Adzopé","ru":"Адзопе","tr":"Adzopé","uk":"Адзопе","zh-CN":"阿佐佩"}},{"name":"Affery","latitude":"6.32035000","longitude":"-3.95235000","native":"Affaiblissement","translations":{"ar":"أفيري","br":"Affery","de":"Affery","es":"Affery","fa":"آفری","fr":"Affery","hi":"अफ़री","hr":"Affery","it":"Affery","ja":"アフェリー","ko":"애프리","nl":"Affery","pl":"Affery","pt":"Affery","pt-BR":"Affery","ru":"Аффери","tr":"Affery","uk":"Аффері","zh-CN":"阿弗里"}},{"name":"Agboville","latitude":"5.92801000","longitude":"-4.21319000","native":"Agboville","translations":{"ar":"أغبوفيل","br":"Agboville","de":"Agboville","es":"Agboville","fa":"آگبوویل","fr":"Agboville","hi":"एग्बोविल","hr":"Agboville","it":"Agboville","ja":"アグボヴィル","ko":"아그보빌","nl":"Agboville","pl":"Agboville","pt":"Agboville","pt-BR":"Agboville","ru":"Агбовиль","tr":"Agboville","uk":"Агбовілль","zh-CN":"阿博维尔"}},{"name":"Agnéby-Tiassa","latitude":"5.79488000","longitude":"-4.37187000","native":"Agnby-tiassa","translations":{"ar":"أغنيبي تياسا","br":"Agnéby-Tiassa","de":"Agnéby-Tiassa","es":"Agnéby-Tiassa","fa":"آگنبی-تیاسا","fr":"Agnéby-Tiassa","hi":"एग्नेबी-टियासा","hr":"Agnéby-Tiassa","it":"Agnéby-Tiassa","ja":"アグネビー・ティアッサ","ko":"아그네비-티아사","nl":"Agnéby-Tiassa","pl":"Agnéby-Tiassa","pt":"Agnéby-Tiassa","pt-BR":"Agnéby-Tiassa","ru":"Аньеби-Тиасса","tr":"Agnéby-Tiassa","uk":"Агнебі-Тіасса","zh-CN":"阿涅比-蒂亚萨"}},{"name":"Akoupé","latitude":"6.38423000","longitude":"-3.88759000","native":"Typtes","translations":{"ar":"أكوبيه","br":"Akoupé","de":"Akoupé","es":"Akoupé","fa":"آکوپه","fr":"Akoupé","hi":"Akoupe","hr":"Akoupé","it":"Akoupé","ja":"アクーペ","ko":"아쿠페","nl":"Akoupé","pl":"Akoupé","pt":"Akoupé","pt-BR":"Akoupé","ru":"Акупе","tr":"Akoupé","uk":"Акупе","zh-CN":"阿库佩"}},{"name":"Dabou","latitude":"5.32556000","longitude":"-4.37685000","native":"Dabou","translations":{"ar":"دابو","br":"Dabou","de":"Dabou","es":"Dabou","fa":"دابو","fr":"Dabou","hi":"डबौ","hr":"Dabou","it":"Dabou","ja":"ダボウ","ko":"다부","nl":"Dabou","pl":"Dabou","pt":"Dabou","pt-BR":"Dabou","ru":"Дабу","tr":"Dabou","uk":"Дабу","zh-CN":"达布"}},{"name":"Grand-Lahou","latitude":"5.25068000","longitude":"-5.00333000","native":"Grand-Lahou","translations":{"ar":"جراند لاهو","br":"Grand-Lahou","de":"Grand-Lahou","es":"Grand-Lahou","fa":"گرند-لاهو","fr":"Grand-Lahou","hi":"ग्रैंड-लाहौ","hr":"Grand-Lahou","it":"Grand-Lahou","ja":"グラン・ラウ","ko":"그랑 라후","nl":"Grand-Lahou","pl":"Wielki Lahou","pt":"Grand-Lahou","pt-BR":"Grand-Lahou","ru":"Гранд-Лаху","tr":"Grand-Lahou","uk":"Гранд-Лаху","zh-CN":"格兰德-拉豪"}},{"name":"Grands-Ponts","latitude":"5.30487000","longitude":"-4.39247000","native":"Grands-Ponts","translations":{"ar":"جراند بونتس","br":"Grands-Ponts","de":"Grands-Ponts","es":"Grands-Ponts","fa":"گرند-پونتس","fr":"Grands-Ponts","hi":"ग्रैंड्स-पॉंट्स","hr":"Grands-Ponts","it":"Grands-Ponts","ja":"グランポン","ko":"그랑퐁","nl":"Grands-Ponts","pl":"Grands-Ponts","pt":"Grands-Ponts","pt-BR":"Grands-Ponts","ru":"Гран-Понты","tr":"Grands-Ponts","uk":"Гран-Пон","zh-CN":"格朗蓬"}},{"name":"Tiassalé","latitude":"5.89839000","longitude":"-4.82293000","native":"Tiiassélé","translations":{"ar":"تياسالي","br":"Tiassalé","de":"Tiassalé","es":"Tiassalé","fa":"تیاساله","fr":"Tiassalé","hi":"तियासाले","hr":"Tiassalé","it":"Tiassalé","ja":"ティアサレ","ko":"티아살레","nl":"Tiassalé","pl":"Tiassalé","pt":"Tiassalé","pt-BR":"Tiassalé","ru":"Тиассале","tr":"Tiassalé","uk":"Тіассале","zh-CN":"蒂亚萨莱"}}]},{"name":"Marahoué Region","state_code":"12","latitude":"6.88462070","longitude":"-5.89871390","cities":[]},{"name":"Montagnes District","state_code":"MG","latitude":"7.37623730","longitude":"-7.43813550","cities":[]},{"name":"Moyen-Cavally","state_code":"19","latitude":"6.52087930","longitude":"-7.61142170","cities":[]},{"name":"Moyen-Comoé","state_code":"05","latitude":"6.65149170","longitude":"-3.50034540","cities":[]},{"name":"N'zi-Comoé","state_code":"11","latitude":"7.24567490","longitude":"-4.23333550","cities":[]},{"name":"Sassandra-Marahoué District","state_code":"SM","latitude":"6.88033480","longitude":"-6.23759470","cities":[{"name":"Bouaflé","latitude":"6.99041000","longitude":"-5.74420000","native":"Bouaflé","translations":{"ar":"بوافلي","br":"Bouaflé","de":"Bouaflé","es":"Bouaflé","fa":"بوافله","fr":"Bouaflé","hi":"बौफ़्ले","hr":"Bouaflé","it":"Bouaflé","ja":"ブアフレ","ko":"부아플레","nl":"Bouaflé","pl":"Bouaflé","pt":"Bouaflé","pt-BR":"Bouaflé","ru":"Буафле","tr":"Bouaflé","uk":"Буафле","zh-CN":"布瓦夫莱"}},{"name":"Daloa","latitude":"6.87735000","longitude":"-6.45022000","native":"Daloa","translations":{"ar":"دالوا","br":"Daloa","de":"Daloa","es":"Daloa","fa":"دالوا","fr":"Daloa","hi":"डालोआ","hr":"Daloa","it":"Daloa","ja":"ダロア","ko":"달로아","nl":"Daloa","pl":"Daloa","pt":"Daloa","pt-BR":"Daloa","ru":"Далоа","tr":"Daloa","uk":"Далоа","zh-CN":"达洛亚"}},{"name":"Haut-Sassandra","latitude":"6.66961000","longitude":"-6.50116000","native":"Haut-Sassandra","translations":{"ar":"أوت ساساندرا","br":"Haut-Sassandra","de":"Haut-Sassandra","es":"Haut-Sassandra","fa":"هاوت-ساساندرا","fr":"Haut-Sassandra","hi":"हौत-सासान्द्रा","hr":"Haut-Sassandra","it":"Haut-Sassandra","ja":"オー・ササンドラ","ko":"오트-사산드라","nl":"Hoog-Sassandra","pl":"Haut-Sassandra","pt":"Haut-Sassandra","pt-BR":"Haut-Sassandra","ru":"Верхняя Сассандра","tr":"Yukarı Sassandra","uk":"Верхня Сассандра","zh-CN":"上萨桑德拉"}},{"name":"Issia","latitude":"6.49224000","longitude":"-6.58558000","native":"Idite","translations":{"ar":"إيسيا","br":"Issia","de":"Issia","es":"Issia","fa":"ایسیا","fr":"Issia","hi":"इस्सिया","hr":"Issia","it":"Issia","ja":"イシア","ko":"이시아","nl":"Issia","pl":"Issia","pt":"Issia","pt-BR":"Issia","ru":"Иссия","tr":"Issia","uk":"Іссія","zh-CN":"伊西亚"}},{"name":"Marahoué","latitude":"7.03252000","longitude":"-5.80215000","native":"Marahoué","translations":{"ar":"ماراوي","br":"Marahoué","de":"Marahoué","es":"Marahoué","fa":"ماراهوئه","fr":"Marahoué","hi":"माराहौए","hr":"Marahoué","it":"Marahoué","ja":"マラウェ","ko":"마라우에","nl":"Marahoué","pl":"Marahoué","pt":"Marahoué","pt-BR":"Marahoué","ru":"Марауэ","tr":"Marahoué","uk":"Марауе","zh-CN":"马拉乌埃"}},{"name":"Vavoua","latitude":"7.38194000","longitude":"-6.47778000","native":"Vavoua","translations":{"ar":"فافوا","br":"Vavoua","de":"Vavoua","es":"Vavoua","fa":"واووا","fr":"Vavoua","hi":"ववऔआ","hr":"Vavoua","it":"Vavoua","ja":"ヴァヴォア","ko":"바부아","nl":"Vavoua","pl":"Vavoua","pt":"Vavoua","pt-BR":"Vavoua","ru":"Вавуа","tr":"Vavoua","uk":"Вавуа","zh-CN":"瓦武阿"}},{"name":"Zuénoula","latitude":"7.43027000","longitude":"-6.05054000","native":"Zuénoula","translations":{"ar":"زوينولا","br":"Zuénoula","de":"Zuénoula","es":"Zuénoula","fa":"زونولا","fr":"Zuénoula","hi":"ज़ुएनौला","hr":"Zuénoula","it":"Zuénoula","ja":"ズエヌーラ","ko":"주에누라","nl":"Zuénoula","pl":"Zuénoula","pt":"Zuénoula","pt-BR":"Zuénoula","ru":"Зуэнула","tr":"Zuénoula","uk":"Зуенула","zh-CN":"祖埃努拉"}}]},{"name":"Savanes Region","state_code":"03","latitude":null,"longitude":null,"cities":[]},{"name":"Sud-Bandama","state_code":"15","latitude":"5.53570830","longitude":"-5.56172790","cities":[]},{"name":"Sud-Comoé","state_code":"13","latitude":"5.55279300","longitude":"-3.25836260","cities":[]},{"name":"Vallée du Bandama District","state_code":"VB","latitude":"8.27897800","longitude":"-4.89356270","cities":[]},{"name":"Vallée du Bandama Region","state_code":"04","latitude":"8.27897800","longitude":"-4.89356270","cities":[{"name":"Béoumi","latitude":"7.67395000","longitude":"-5.58085000","native":"Béoumi","translations":{"ar":"بيومي","br":"Béoumi","de":"Béoumi","es":"Beoumi","fa":"بوئومی","fr":"Béoumi","hi":"बेऔमी","hr":"Beoumi","it":"Béoumi","ja":"ベオミ","ko":"베우미","nl":"Béoumi","pl":"Béoumi","pt":"Béoumi","pt-BR":"Béoumi","ru":"Беуми","tr":"Beoumi","uk":"Беумі","zh-CN":"贝乌米"}},{"name":"Botro","latitude":"7.85249000","longitude":"-5.31063000","native":"Marraine","translations":{"ar":"بوترو","br":"Botro","de":"Botro","es":"Botro","fa":"بوترو","fr":"Botro","hi":"बोट्रो","hr":"Botro","it":"Botro","ja":"ボトロ","ko":"보트로","nl":"Botro","pl":"Botro","pt":"Botro","pt-BR":"Botro","ru":"Ботро","tr":"Botro","uk":"Ботро","zh-CN":"博特罗"}},{"name":"Bouaké","latitude":"7.69385000","longitude":"-5.03031000","native":"Bouaké","translations":{"ar":"بواكي","br":"Bouaké","de":"Bouaké","es":"Bouaké","fa":"بوآکه","fr":"Bouaké","hi":"Bouake","hr":"Bouaké","it":"Bouaké","ja":"ブアケ","ko":"부아케","nl":"Bouaké","pl":"Bouaké","pt":"Bouaké","pt-BR":"Bouaké","ru":"Буаке","tr":"Bouaké","uk":"Буаке","zh-CN":"布瓦凯"}},{"name":"Dabakala","latitude":"8.36321000","longitude":"-4.42863000","native":"Dabakala","translations":{"ar":"داباكالا","br":"Dabakala","de":"Dabakala","es":"Dabakala","fa":"داباکالا","fr":"Dabakala","hi":"डबाकला","hr":"Dabakala","it":"Dabakala","ja":"ダバカラ","ko":"다바칼라","nl":"Dabakala","pl":"Dabakala","pt":"Dabakala","pt-BR":"Dabakala","ru":"Дабакала","tr":"Dabakala","uk":"Дабакала","zh-CN":"达巴卡拉"}},{"name":"Gbêkê","latitude":"7.70271000","longitude":"-5.28511000","native":"Le gbêk","translations":{"ar":"جبيكي","br":"Gbêkê","de":"Gbêkê","es":"Gbêkê","fa":"گبکه","fr":"Gbêkê","hi":"ग्बेके","hr":"Gbêkê","it":"Gbêkê","ja":"グベケ","ko":"그베케","nl":"Gbêkê","pl":"Gbêkê","pt":"Gbêkê","pt-BR":"Gbêkê","ru":"Гбеке","tr":"Gbêkê","uk":"Гбеке","zh-CN":"格贝克"}},{"name":"Hambol","latitude":"8.30368000","longitude":"-5.15396000","native":"Hambol","translations":{"ar":"هامبول","br":"Hambol","de":"Hambol","es":"Hambol","fa":"هامبول","fr":"Hambol","hi":"हम्बोल","hr":"Hambol","it":"Hambol","ja":"ハンボル","ko":"함볼","nl":"Hambol","pl":"Hambol","pt":"Hambol","pt-BR":"Hambol","ru":"Хамбол","tr":"Hambol","uk":"Гамбол","zh-CN":"汉博尔"}},{"name":"Katiola","latitude":"8.13728000","longitude":"-5.10095000","native":"Katiola","translations":{"ar":"كاتيولا","br":"Katiola","de":"Katiola","es":"Katiola","fa":"کاتیولا","fr":"Katiola","hi":"काटिओला","hr":"Katiola","it":"Katiola","ja":"カティオラ","ko":"카티올라","nl":"Katiola","pl":"Katiola","pt":"Katiola","pt-BR":"Katiola","ru":"Катиола","tr":"Katiola","uk":"Катіола","zh-CN":"卡蒂奥拉"}},{"name":"Sakassou","latitude":"7.45462000","longitude":"-5.29263000","native":"Sakassou","translations":{"ar":"ساكاسو","br":"Sakassou","de":"Sakassou","es":"Sakassou","fa":"ساکاسو","fr":"Sakassou","hi":"सकासौ","hr":"Sakassou","it":"Sakassou","ja":"サカスソウ","ko":"사카소우","nl":"Sakassou","pl":"Sakassou","pt":"Sakassou","pt-BR":"Sakassou","ru":"Сакассу","tr":"Sakassou","uk":"Сакассу","zh-CN":"萨卡苏"}}]},{"name":"Woroba District","state_code":"WR","latitude":"8.24913720","longitude":"-6.92091350","cities":[{"name":"Bafing","latitude":"8.40611000","longitude":"-7.58048000","native":"Brafing","translations":{"ar":"بافينغ","br":"Bafing","de":"Bafing","es":"Bafing","fa":"بافینگ","fr":"Bafing","hi":"बाफिंग","hr":"Bafing","it":"Sbalordimento","ja":"バフィング","ko":"바핑","nl":"Bafing","pl":"Bafing","pt":"Bafing","pt-BR":"Bafing","ru":"Бафинг","tr":"Bafing","uk":"Бафінг","zh-CN":"巴芬"}},{"name":"Béré","latitude":"8.18952000","longitude":"-6.17157000","native":"Partir","translations":{"ar":"بيري","br":"Béré","de":"Béré","es":"Béré","fa":"بِره","fr":"Béré","hi":"बेरे","hr":"Béré","it":"Bere","ja":"ベレ","ko":"베레","nl":"Béré","pl":"Bere","pt":"Béré","pt-BR":"Béré","ru":"Бере","tr":"Beré","uk":"Бере","zh-CN":"贝雷"}},{"name":"Mankono","latitude":"8.05861000","longitude":"-6.18972000","native":"Écart","translations":{"ar":"مانكونو","br":"Mankono","de":"Mankono","es":"Mankono","fa":"مانکونو","fr":"Mankono","hi":"मनकोनो","hr":"Mankono","it":"Mankono","ja":"マンコノ","ko":"만코노","nl":"Mankono","pl":"Mankono","pt":"Mankono","pt-BR":"Mankono","ru":"Манконо","tr":"Mankono","uk":"Манконо","zh-CN":"曼科诺"}},{"name":"Séguéla","latitude":"7.96111000","longitude":"-6.67306000","native":"Séguéla","translations":{"ar":"سيغيلا","br":"Séguela","de":"Séguéla","es":"Séguéla","fa":"سگوئلا","fr":"Séguéla","hi":"सेगुएला","hr":"Séguéla","it":"Seguila","ja":"セゲラ","ko":"세겔라","nl":"Séguéla","pl":"Séguéla","pt":"Séguéla","pt-BR":"Séguéla","ru":"Сегела","tr":"Séguéla","uk":"Сегела","zh-CN":"塞盖拉"}},{"name":"Touba","latitude":"8.28333000","longitude":"-7.68333000","native":"Touba","translations":{"ar":"توبا","br":"Touba","de":"Touba","es":"Touba","fa":"طوبی","fr":"Touba","hi":"तौबा","hr":"Touba","it":"Touba","ja":"トゥーバ","ko":"투바","nl":"Touba","pl":"Touba","pt":"Touba","pt-BR":"Touba","ru":"Туба","tr":"Touba","uk":"Туба","zh-CN":"图巴"}},{"name":"Worodougou","latitude":"8.16482000","longitude":"-6.66595000","native":"Worodougou","translations":{"ar":"وورودوغو","br":"Worodougou","de":"Worodougou","es":"Worodougou","fa":"ورودوگو","fr":"Worodougou","hi":"वोरोदौगौ","hr":"Worodougou","it":"Worodougou","ja":"ウォロドゥグー","ko":"워두구","nl":"Worodougou","pl":"Worodugou","pt":"Worodougou","pt-BR":"Worodougou","ru":"Вородугу","tr":"Worodougou","uk":"Вородугу","zh-CN":"沃罗杜古"}}]},{"name":"Worodougou","state_code":"14","latitude":"8.25489620","longitude":"-6.57833870","cities":[]},{"name":"Yamoussoukro","state_code":"YM","latitude":"6.82762280","longitude":"-5.28934330","cities":[]},{"name":"Zanzan Region","state_code":"ZZ","latitude":"8.82079040","longitude":"-3.41955270","cities":[{"name":"Bondoukou","latitude":"8.04020000","longitude":"-2.80003000","native":"Bondoukou","translations":{"ar":"بوندوكو","br":"Bondoukou","de":"Bondoukou","es":"Bondoukou","fa":"بوندوکو","fr":"Bondoukou","hi":"बोंडौकोउ","hr":"Bondoukou","it":"Bondoukou","ja":"ボンドゥク","ko":"본두코우","nl":"Bondoukou","pl":"Bondoukou","pt":"Bondoukou","pt-BR":"Bondoukou","ru":"Бондуку","tr":"Bondoukou","uk":"Бондуку","zh-CN":"邦杜库"}},{"name":"Bouna","latitude":"9.26927000","longitude":"-2.99510000","native":"Bouna","translations":{"ar":"بونا","br":"Bouna","de":"Bouna","es":"Bouna","fa":"بونا","fr":"Bouna","hi":"बौना","hr":"Bouna","it":"Bouna","ja":"ブーナ","ko":"부나","nl":"Bouna","pl":"Bouna","pt":"Bouna","pt-BR":"Bouna","ru":"Буна","tr":"Bouna","uk":"Буна","zh-CN":"布纳"}},{"name":"Bounkani","latitude":"9.47841000","longitude":"-3.31238000","native":"Bounkani","translations":{"ar":"بونكاني","br":"Bounkani","de":"Bounkani","es":"Bounkani","fa":"بونکانی","fr":"Bounkani","hi":"बौंकानी","hr":"Bounkani","it":"Bounkani","ja":"ブンカニ","ko":"부운카니","nl":"Bounkani","pl":"Bounkani","pt":"Bounkani","pt-BR":"Bounkani","ru":"Бункани","tr":"Bounkani","uk":"Бункані","zh-CN":"邦卡尼"}},{"name":"Gontougo","latitude":"7.87132000","longitude":"-3.07068000","native":"Gontougo","translations":{"ar":"غونتوغو","br":"Gontougo","de":"Gontougo","es":"Gontougo","fa":"گونتوگو","fr":"Gontougo","hi":"गोंटौगो","hr":"Gontougo","it":"Gontougo","ja":"ゴントゥゴ","ko":"곤투고","nl":"Gontougo","pl":"Gontougo","pt":"Gontougo","pt-BR":"Gontougo","ru":"Гонтуго","tr":"Gontougo","uk":"Гонтоуго","zh-CN":"贡图戈"}},{"name":"Sinfra","latitude":"6.62103000","longitude":"-5.91144000","native":"Sinfra","translations":{"ar":"سينفرا","br":"Sinfra","de":"Sinfra","es":"Sinfra","fa":"سینفرا","fr":"Sinfra","hi":"सिनफ्रा","hr":"Sinfra","it":"Sinfra","ja":"シンフラ","ko":"신프라","nl":"Sinfra","pl":"Sinfra","pt":"Sinfra","pt-BR":"Sinfra","ru":"Синфра","tr":"Sinfra","uk":"Сінфра","zh-CN":"辛弗拉"}},{"name":"Tanda","latitude":"7.80335000","longitude":"-3.16832000","native":"Signe","translations":{"ar":"تاندا","br":"Tanda","de":"Tanda","es":"Tanda","fa":"تاندا","fr":"Tanda","hi":"टांडा","hr":"Tanda","it":"Tanda","ja":"タンダ","ko":"탄다","nl":"Tanda","pl":"Tanda","pt":"Tanda","pt-BR":"Tanda","ru":"Танда","tr":"Tanda","uk":"Танда","zh-CN":"坦达"}}]}]}