{"code":"CR","states":[{"name":"Alajuela Province","state_code":"A","latitude":"10.39158300","longitude":"-84.43827210","cities":[{"name":"Alajuela","latitude":"10.01625000","longitude":"-84.21163000","native":"Alajuela","translations":{"br":"Alajuela","ko":"알라후엘라","pt-BR":"Alajuela","pt":"Alajuela","nl":"Alajuela","hr":"Alajuela","fa":"آلاخوئلا","de":"Alajuela","es":"Alajuela","fr":"Alajuela","ja":"アラフエラ","it":"Alajuela","zh-CN":"阿拉胡埃拉","tr":"Alajuela","ru":"Алахуэла","uk":"Алахуела","pl":"Alajuela","hi":"एलाज़ुएला","ar":"ألاخويلا"}},{"name":"Atenas","latitude":"9.98333000","longitude":"-84.38333000","native":"Atenas","translations":{"br":"Atenas","ko":"아테나스","pt-BR":"Atenas","pt":"Atenas","nl":"Athene","hr":"Atena","fa":"آتناس","de":"Atenas","es":"Atenas","fr":"Athènes","ja":"アテナス","it":"Atene","zh-CN":"阿特纳斯","tr":"Atina","ru":"Афины","uk":"Афіни","pl":"Ateny","hi":"एटेनास","ar":"أتيناس"}},{"name":"Bijagua","latitude":"10.73279000","longitude":"-85.05676000","native":"Bijagua","translations":{"br":"Bijagua","ko":"비자구아","pt-BR":"Bijagua","pt":"Bijagua","nl":"Bijagua","hr":"Bijagua","fa":"بیژاگوا","de":"Bijagua","es":"Bijagua","fr":"Bijagua","ja":"ビハグア","it":"Bijagua","zh-CN":"比哈瓜","tr":"Bijagua","ru":"Бихагуа","uk":"Біхагуа","pl":"Bijagua","hi":"बिजागुआ","ar":"بيجاغوا"}},{"name":"Carrillos","latitude":"10.02918000","longitude":"-84.27403000","native":"Carrillos","translations":{"br":"Carrillos","ko":"카리요스","pt-BR":"Carrillos","pt":"Carrillos","nl":"Carrillos","hr":"Carrillos","fa":"کاریلوس","de":"Carrillos","es":"Carrillos","fr":"Carrillos","ja":"カリロス","it":"Carrillos","zh-CN":"卡里略斯","tr":"Carrillos","ru":"Каррильос","uk":"Каррільйос","pl":"Carrillos","hi":"कैरिलोस","ar":"كاريوس"}},{"name":"Desamparados","latitude":"9.94727000","longitude":"-84.50626000","native":"Desamparados","translations":{"br":"Desamparados","ko":"데삼파라도스","pt-BR":"Desamparados","pt":"Desamparados","nl":"Desamparados","hr":"Desamparados","fa":"دسامپارادوس","de":"Desamparados","es":"Desamparados","fr":"Désemparés","ja":"デサンパラドス","it":"Desamparados","zh-CN":"孤苦伶仃","tr":"Desamparados","ru":"Десампарадос","uk":"Десампарадос","pl":"Desamparados","hi":"डेसम्पाराडोस","ar":"ديسامبارادوس"}},{"name":"Esquipulas","latitude":"10.05676000","longitude":"-84.42337000","native":"Esquipulas","translations":{"br":"Esquipulas","ko":"에스키풀라스","pt-BR":"Esquipulas","pt":"Esquipulas","nl":"Esquipulas","hr":"Esquipulas","fa":"اسکوئیپولاس","de":"Esquipulas","es":"Esquipulas","fr":"Esquipulas","ja":"エスキプラス","it":"Esquipulas","zh-CN":"埃斯基普拉斯","tr":"Esquipulas","ru":"Эскипулас","uk":"Ескіпулас","pl":"Esquipulas","hi":"एस्क्विपुलस","ar":"إسكيبولاس"}},{"name":"Grecia","latitude":"10.06892000","longitude":"-84.31458000","native":"Grecia","translations":{"br":"Gresia","ko":"그레시아","pt-BR":"Grécia","pt":"Grécia","nl":"Griekenland","hr":"Grčka","fa":"یونان","de":"Griechenland","es":"Grecia","fr":"Grèce","ja":"グレシア","it":"Grecia","zh-CN":"希腊","tr":"Yunanistan","ru":"Греция","uk":"Греція","pl":"Grecja","hi":"ग्रीसिया","ar":"اليونان"}},{"name":"Guatuso","latitude":"10.66667000","longitude":"-84.83333000","native":"Guatuso","translations":{"br":"Guatuso","ko":"과투소","pt-BR":"Guatuso","pt":"Guatuso","nl":"Guatuso","hr":"Guatuso","fa":"گواتوزو","de":"Guatuso","es":"Guatuso","fr":"Guatuso","ja":"グアトゥーソ","it":"Guatuso","zh-CN":"瓜图索","tr":"Guatuso","ru":"Гуатусо","uk":"Гуатусо","pl":"Guatuso","hi":"गुआतुसो","ar":"غواتوسو"}},{"name":"La Fortuna","latitude":"10.47089000","longitude":"-84.64535000","native":"La Fortuna","translations":{"br":"La Fortuna","ko":"라 포르투나","pt-BR":"A Fortuna","pt":"A Fortuna","nl":"La Fortuna","hr":"La Fortuna","fa":"لا فورتونا","de":"La Fortuna","es":"La Fortuna","fr":"La Fortuna","ja":"ラ・フォルトゥナ","it":"La Fortuna","zh-CN":"拉福图纳","tr":"La Fortuna","ru":"Ла Фортуна","uk":"Ла Фортуна","pl":"Fortuna","hi":"ला फ़ोर्टुना","ar":"لا فورتونا"}},{"name":"Los Chiles","latitude":"10.86667000","longitude":"-84.66667000","native":"Los Chiles","translations":{"br":"Los Chiles","ko":"로스 차일스","pt-BR":"Os Chiles","pt":"Os Chiles","nl":"De Chili's","hr":"Los Chiles","fa":"لوس چیلس","de":"Los Chiles","es":"Los Chiles","fr":"Les Chilis","ja":"ロス・チレス","it":"Los Chiles","zh-CN":"洛斯辣椒","tr":"Los Chiles","ru":"Лос-Чилес","uk":"Лос-Чилес","pl":"Los Chiles","hi":"लॉस चिलेस","ar":"لوس تشيليس"}},{"name":"Naranjo","latitude":"10.11667000","longitude":"-84.40000000","native":"Naranjo","translations":{"br":"Naranjo","ko":"나란조","pt-BR":"Naranjo","pt":"Naranjo","nl":"Naranjo","hr":"Naranjo","fa":"نارانجو","de":"Naranjo","es":"Naranjo","fr":"Orange","ja":"ナランホ","it":"Naranjo","zh-CN":"纳兰霍","tr":"Naranjo","ru":"Наранхо","uk":"Наранхо","pl":"Naranjo","hi":"नारांजो","ar":"نارانيو"}},{"name":"Orotina","latitude":"9.90000000","longitude":"-84.56667000","native":"Orotina","translations":{"br":"Orotina","ko":"오로티나","pt-BR":"Orotina","pt":"Orotina","nl":"Orotina","hr":"Orotina","fa":"اوروتینا","de":"Orotina","es":"Orotina","fr":"Orotina","ja":"オロティナ","it":"Orotina","zh-CN":"奥罗蒂纳","tr":"Orotina","ru":"Оротина","uk":"Оротіна","pl":"Orotina","hi":"ओरोटिना","ar":"أوروتينا"}},{"name":"Palmares","latitude":"10.03333000","longitude":"-84.43333000","native":"Palomar","translations":{"br":"Palmares","ko":"팔마레스","pt-BR":"Palmares","pt":"Palmares","nl":"Palmbomen","hr":"Palmares","fa":"پالمارس","de":"Palmares","es":"Palmares","fr":"Palmarès","ja":"パルマレス","it":"Palmares","zh-CN":"荣誉榜","tr":"Palmares","ru":"Пальмарес","uk":"Пальмарес","pl":"Palmares","hi":"पामारेस","ar":"بالميراس"}},{"name":"Pital","latitude":"10.45056000","longitude":"-84.27406000","native":"Pital","translations":{"br":"Pital","ko":"피탈","pt-BR":"Pital","pt":"Pital","nl":"Ziekenhuis","hr":"Pital","fa":"پیتال","de":"Pital","es":"Pital","fr":"Hôpital","ja":"ピタル","it":"Pital","zh-CN":"医院","tr":"Önemli","ru":"Питал","uk":"Пітал","pl":"Pital","hi":"पिटाल","ar":"بيتال"}},{"name":"Poás","latitude":"10.08333000","longitude":"-84.23333000","native":"Poas","translations":{"br":"Poás","ko":"포아스","pt-BR":"Poás","pt":"Poás","nl":"Poás","hr":"Poás","fa":"پواس","de":"Poás","es":"Poás","fr":"Poás","ja":"ポアス","it":"Poás","zh-CN":"波阿斯","tr":"Poás","ru":"Поас","uk":"Поас","pl":"Poás","hi":"पोआस","ar":"بواس"}},{"name":"Pocosol","latitude":"10.36667000","longitude":"-84.61667000","native":"Pocosol","translations":{"br":"Pocosol","ko":"포코솔","pt-BR":"Pocosol","pt":"Pocosol","nl":"Pocosol","hr":"Pocosol","fa":"پوکوزول","de":"Pocosol","es":"Pocosol","fr":"Pocosol","ja":"ポコソル","it":"Pocosol","zh-CN":"波科索尔","tr":"Pocosol","ru":"Покосол","uk":"Покосол","pl":"Pocosol","hi":"पोकोसोल","ar":"بوكوسول"}},{"name":"Quesada","latitude":"10.32381000","longitude":"-84.42714000","native":"Quesada","translations":{"br":"Quesada","ko":"케사다","pt-BR":"Quesada","pt":"Quesada","nl":"Quesada","hr":"Quesada","fa":"کسادا","de":"Quesada","es":"Quesada","fr":"Quesada","ja":"ケサダ","it":"Quesada","zh-CN":"克萨达","tr":"Quesada","ru":"Кесада","uk":"Кесада","pl":"Quesada","hi":"क्यूसादा","ar":"كيسادا"}},{"name":"Río Segundo","latitude":"10.24138000","longitude":"-84.27933000","native":"Río Segundo","translations":{"br":"Río Segundo","ko":"리오 세군도","pt-BR":"Rio Segundo","pt":"Rio Segundo","nl":"Río Segundo","hr":"Río Segundo","fa":"ریو سگوندو","de":"Río Segundo","es":"Río Segundo","fr":"Río Segundo","ja":"リオセグンド","it":"Río Segundo","zh-CN":"里奥塞贡多","tr":"Rio Segundo","ru":"Рио Сегундо","uk":"Ріо-Сегундо","pl":"Río Drugie","hi":"रियो सेगुंडो","ar":"ريو سيغوندو"}},{"name":"Sabanilla","latitude":"10.07404000","longitude":"-84.21551000","native":"Sabanilla","translations":{"br":"Sabanilla","ko":"사바닐라","pt-BR":"Sabanilla","pt":"Sabanilla","nl":"Sabanilla","hr":"Sabanilla","fa":"سابانیلا","de":"Sabanilla","es":"Sabanilla","fr":"Sabanilla","ja":"サバニラ","it":"Sabanilla","zh-CN":"萨巴尼拉","tr":"Sabanilla","ru":"Сабанилья","uk":"Сабанілья","pl":"Sabanilla","hi":"सबनिल्ला","ar":"سابانيلا"}},{"name":"San Carlos","latitude":"10.58333000","longitude":"-84.41667000","native":"San Carlos","translations":{"br":"San Carlos","ko":"산 카를로스","pt-BR":"São Carlos","pt":"São Carlos","nl":"San Carlos","hr":"San Carlos","fa":"سن کارلوس","de":"San Carlos","es":"San Carlos","fr":"San Carlos","ja":"サンカルロス","it":"San Carlos","zh-CN":"圣卡洛斯","tr":"San Carlos","ru":"Сан-Карлос","uk":"Сан-Карлос","pl":"San Carlos","hi":"सैन कार्लोस","ar":"سان كارلوس"}},{"name":"San José","latitude":"10.95173000","longitude":"-85.13610000","native":"San José","translations":{"br":"San José","ko":"산호세","pt-BR":"São José","pt":"São José","nl":"San José","hr":"San José","fa":"سن خوزه","de":"San José","es":"San José","fr":"San José","ja":"サンホセ","it":"San José","zh-CN":"圣何塞","tr":"San Jose","ru":"Сан-Хосе","uk":"Сан-Хосе","pl":"San Jose","hi":"सैन होज़े","ar":"سان خوسيه"}},{"name":"San Juan","latitude":"10.10248000","longitude":"-84.31694000","native":"San Juan","translations":{"br":"San Juan","ko":"산후안","pt-BR":"São João","pt":"São João","nl":"San Juan","hr":"San Juan","fa":"سن خوان","de":"San Juan","es":"San Juan","fr":"San Juan","ja":"サンファン","it":"San Juan","zh-CN":"圣胡安","tr":"San Juan","ru":"Сан-Хуан","uk":"Сан-Хуан","pl":"San Juan","hi":"सहन जुआन","ar":"سان خوان"}},{"name":"San Mateo","latitude":"9.95000000","longitude":"-84.51667000","native":"San Mateo","translations":{"br":"San Mateo","ko":"샌머테오","pt-BR":"São Mateus","pt":"São Mateus","nl":"San Mateo","hr":"San Mateo","fa":"سن ماتئو","de":"San Mateo","es":"San Mateo","fr":"San Mateo","ja":"サンマテオ","it":"San Mateo","zh-CN":"圣马特奥","tr":"San Mateo","ru":"Сан-Матео","uk":"Сан-Матео","pl":"San Mateo","hi":"सैन मेटो","ar":"سان ماتيو"}},{"name":"San Rafael","latitude":"10.06403000","longitude":"-84.47281000","native":"San Rafael","translations":{"br":"San Rafael","ko":"산 라파엘","pt-BR":"São Rafael","pt":"São Rafael","nl":"San Rafael","hr":"San Rafael","fa":"سن رافائل","de":"San Rafael","es":"San Rafael","fr":"San Rafael","ja":"サンラファエル","it":"San Rafael","zh-CN":"圣拉斐尔","tr":"San Rafael","ru":"Сан-Рафаэль","uk":"Сан-Рафаель","pl":"San Rafael","hi":"सैन राफेल","ar":"سان رافائيل"}},{"name":"San Ramón","latitude":"10.08718000","longitude":"-84.47044000","native":"San Ramón","translations":{"br":"San Ramón","ko":"산 라몬","pt-BR":"São Ramón","pt":"São Ramón","nl":"San Ramón","hr":"San Ramón","fa":"سن رامون","de":"San Ramón","es":"San Ramón","fr":"San Ramón","ja":"サン・ラモン","it":"San Ramón","zh-CN":"圣拉蒙","tr":"San Ramon","ru":"Сан-Рамон","uk":"Сан-Рамон","pl":"San Ramón","hi":"सैन रामोन","ar":"سان رامون"}},{"name":"Santiago","latitude":"10.02275000","longitude":"-84.44420000","native":"Santiago","translations":{"br":"Santiago","ko":"산티아고","pt-BR":"Santiago","pt":"Santiago","nl":"Santiago","hr":"Santiago","fa":"سانتیاگو","de":"Santiago","es":"Santiago","fr":"Santiago","ja":"サンティアゴ","it":"Santiago","zh-CN":"圣地亚哥","tr":"Santiago","ru":"Сантьяго","uk":"Сантьяго","pl":"Santiago","hi":"सेंटियागो","ar":"سانتياغو"}},{"name":"Upala","latitude":"10.85000000","longitude":"-85.16667000","native":"Inflamación","translations":{"br":"Upala","ko":"우팔라","pt-BR":"Upala","pt":"Upala","nl":"Upala","hr":"Upala","fa":"اوپالا","de":"Upala","es":"Upala","fr":"Upala","ja":"ウパラ","it":"Upala","zh-CN":"乌帕拉","tr":"Upala","ru":"Упала","uk":"Упала","pl":"Upala","hi":"उपाला","ar":"أوبالا"}},{"name":"Valverde Vega","latitude":"10.18721000","longitude":"-84.30290000","native":"Valverde Vega","translations":{"br":"Valverde Vega","ko":"발베르데 베가","pt-BR":"Valverde Vega","pt":"Valverde Vega","nl":"Valverde Vega","hr":"Valverde Vega","fa":"والورده وگا","de":"Valverde Vega","es":"Valverde Vega","fr":"Valverde Vega","ja":"バルベルデ・ベガ","it":"Valverde Vega","zh-CN":"巴尔韦德·维加","tr":"Valverde Vega","ru":"Вальверде Вега","uk":"Вальверде Вега","pl":"Valverde Vega","hi":"वाल्वरडे वेगा","ar":"فالفيردي فيغا"}},{"name":"Zarcero","latitude":"10.20000000","longitude":"-84.40000000","native":"Zarcero","translations":{"br":"Zarcero","ko":"자르세로","pt-BR":"Zarcero","pt":"Zarcero","nl":"Zarcero","hr":"Zarcero","fa":"زارسرو","de":"Zarcero","es":"Zarcero","fr":"Zarcero","ja":"ザルセロ","it":"Zarcero","zh-CN":"萨塞罗","tr":"Zarcero","ru":"Зарсеро","uk":"Зарсеро","pl":"Zarcero","hi":"ज़ारसेरो","ar":"زارسيرو"}}]},{"name":"Guanacaste Province","state_code":"G","latitude":"10.62673990","longitude":"-85.44367060","cities":[{"name":"Abangares","latitude":"10.21667000","longitude":"-85.00000000","native":"Resentimiento","translations":{"br":"Abangares","ko":"아방가레스","pt-BR":"Abangares","pt":"Abangares","nl":"Abangares","hr":"Abangares","fa":"آبانگارس","de":"Abangares","es":"Abangares","fr":"Abangares","ja":"アバンガレス","it":"Abangares","zh-CN":"阿班加雷斯","tr":"Abangares","ru":"Абангарес","uk":"Абангарес","pl":"Abangares","hi":"अबंगारेस","ar":"أبانغاريس"}},{"name":"Bagaces","latitude":"10.50000000","longitude":"-85.25000000","native":"Paisaje","translations":{"br":"Bagadoù","ko":"바가세스","pt-BR":"Bagaces","pt":"Bagaces","nl":"Bagaces","hr":"Bagaces","fa":"باگاس","de":"Taschen","es":"Bagaces","fr":"Bagaces","ja":"バガス","it":"Bagaces","zh-CN":"巴加斯","tr":"Bagaces","ru":"Багасы","uk":"Багас","pl":"Bagaces","hi":"बैगेस","ar":"باغاسيس"}},{"name":"Belén","latitude":"10.40789000","longitude":"-85.58836000","native":"Belén","translations":{"br":"Belén","ko":"벨렌","pt-BR":"Belém","pt":"Belém","nl":"Belén","hr":"Belén","fa":"بلن","de":"Belén","es":"Belén","fr":"Belén","ja":"ベレン","it":"Belén","zh-CN":"贝伦","tr":"Belén","ru":"Белен","uk":"Белен","pl":"Belén","hi":"बेलें","ar":"بيلين"}},{"name":"Cañas","latitude":"10.48005000","longitude":"-85.11349000","native":"Cañas","translations":{"br":"Cañas","ko":"카냐스","pt-BR":"Cañas","pt":"Cañas","nl":"Cañas","hr":"Cañas","fa":"کانیاس","de":"Cañas","es":"Cañas","fr":"Cañas","ja":"カニャス","it":"Cañas","zh-CN":"卡尼亚斯","tr":"Cañas","ru":"Каньяс","uk":"Каньяс","pl":"Cañas","hi":"कैनास","ar":"كاناس"}},{"name":"Carrillo","latitude":"10.41667000","longitude":"-85.58333000","native":"Carrillo","translations":{"br":"Carrillo","ko":"카리요","pt-BR":"Carrillo","pt":"Carrillo","nl":"Carrillo","hr":"Carrillo","fa":"کاریلو","de":"Carrillo","es":"Carrillo","fr":"Carrillo","ja":"カリロ","it":"Carrillo","zh-CN":"卡里略","tr":"Carrillo","ru":"Каррильо","uk":"Каррільйо","pl":"Carrillo","hi":"करीलो","ar":"كاريو"}},{"name":"Fortuna","latitude":"10.67384000","longitude":"-85.19984000","native":"Fortuna","translations":{"br":"Fortuna","ko":"포르투나","pt-BR":"Fortuna","pt":"Fortuna","nl":"Fortuna","hr":"Fortuna","fa":"فورتونا","de":"Fortuna","es":"Fortuna","fr":"Fortune","ja":"フォルトゥナ","it":"Fortuna","zh-CN":"福尔图娜","tr":"Fortuna","ru":"Фортуна","uk":"Фортуна","pl":"Fortuna","hi":"फ़ोर्टुना","ar":"فورتونا"}},{"name":"Hojancha","latitude":"9.96667000","longitude":"-85.41667000","native":"Hojancha","translations":{"br":"Hojancha","ko":"호잔차","pt-BR":"Hojancha","pt":"Hojancha","nl":"Hojancha","hr":"Hojancha","fa":"هوجانچا","de":"Hojancha","es":"Hojancha","fr":"Hojancha","ja":"ホジャンチャ","it":"Hojancha","zh-CN":"霍詹查","tr":"Hojancha","ru":"Ходжанча","uk":"Ходжанча","pl":"Hojancha","hi":"होजांचा","ar":"هوجانشا"}},{"name":"Juntas","latitude":"10.28089000","longitude":"-84.95951000","native":"Juntas","translations":{"br":"Juntas","ko":"훈타스","pt-BR":"Juntas","pt":"Juntas","nl":"Juntas","hr":"Junte","fa":"خونتاها","de":"Juntas","es":"Juntas","fr":"Juntes","ja":"フンタス","it":"Giunte","zh-CN":"军政府","tr":"Cuntalar","ru":"Хунты","uk":"Хунти","pl":"Juntas","hi":"juntas","ar":"المجالس"}},{"name":"La Cruz","latitude":"11.00000000","longitude":"-85.58333000","native":"La Cruz","translations":{"br":"La Cruz","ko":"라 크루즈","pt-BR":"A Cruz","pt":"A Cruz","nl":"La Cruz","hr":"La Cruz","fa":"لا کروز","de":"La Cruz","es":"La Cruz","fr":"La Cruz","ja":"ラ・クルス","it":"La Cruz","zh-CN":"拉克鲁斯","tr":"La Cruz","ru":"Ла-Крус","uk":"Ла-Крус","pl":"Krzyż","hi":"ला क्रूज़","ar":"لا كروز"}},{"name":"Liberia","latitude":"10.63504000","longitude":"-85.43772000","native":"Liberia","translations":{"br":"Liberia","ko":"라이베리아","pt-BR":"Libéria","pt":"Libéria","nl":"Liberia","hr":"Liberija","fa":"لیبریا","de":"Liberia","es":"Liberia","fr":"Libéria","ja":"リベリア","it":"Liberia","zh-CN":"利比里亚","tr":"Liberya","ru":"Либерия","uk":"Ліберія","pl":"Liberia","hi":"लाइबेरिया","ar":"ليبيريا"}},{"name":"Nandayure","latitude":"9.91667000","longitude":"-85.28333000","native":"Nandayure","translations":{"br":"Nandayure","ko":"난다유레","pt-BR":"Nandayure","pt":"Nandayure","nl":"Nandayure","hr":"Nandayure","fa":"ناندیور","de":"Nandayure","es":"Nandayure","fr":"Nandayure","ja":"ナンダユレ","it":"Nandayure","zh-CN":"南达尤雷","tr":"Nandayure","ru":"Нандайуре","uk":"Нандаюр","pl":"Nandayure","hi":"नंदयूरे","ar":"ناندايور"}},{"name":"Nicoya","latitude":"10.08333000","longitude":"-85.50000000","native":"Nicoya","translations":{"br":"Nicoya","ko":"니코야","pt-BR":"Nicoya","pt":"Nicoya","nl":"Nicoya","hr":"Nikoja","fa":"نیکویا","de":"Nicoya","es":"Nicoya","fr":"Nicoya","ja":"ニコヤ","it":"Nicoya","zh-CN":"尼科亚","tr":"Nicoya","ru":"Никойя","uk":"Нікоя","pl":"Nicoya","hi":"निकोया","ar":"نيكويا"}},{"name":"Sámara","latitude":"9.88147000","longitude":"-85.52809000","native":"Sámara","translations":{"br":"Sámara","ko":"익과","pt-BR":"Sámara","pt":"Sámara","nl":"Samara","hr":"Krilati plod","fa":"سامارا","de":"Sámara","es":"Sámara","fr":"Samara","ja":"サマラ","it":"Samara","zh-CN":"萨马拉","tr":"Sámara","ru":"Самара","uk":"Самара","pl":"Skrzydlak","hi":"समारा","ar":"سامارا"}},{"name":"Santa Cruz","latitude":"10.25000000","longitude":"-85.66667000","native":"Santa Cruz","translations":{"br":"Santa Cruz","ko":"산타크루즈","pt-BR":"Santa Cruz","pt":"Santa Cruz","nl":"Santa Cruz","hr":"Santa Cruz","fa":"سانتا کروز","de":"Santa Cruz","es":"Santa Cruz","fr":"Santa Cruz","ja":"サンタクルーズ","it":"Santa Cruz","zh-CN":"圣克鲁斯","tr":"Santa Cruz","ru":"Санта-Крус","uk":"Санта-Крус","pl":"Santa Cruz","hi":"सांताक्रूज","ar":"سانتا كروز"}},{"name":"Sardinal","latitude":"10.51674000","longitude":"-85.64748000","native":"Sardinal","translations":{"br":"Sardinal","ko":"사르디날","pt-BR":"Sardinal","pt":"Sardinal","nl":"Sardinaal","hr":"Sardinal","fa":"ساردینال","de":"Sardinal","es":"Sardinal","fr":"Sardine","ja":"イワシ","it":"Sardinal","zh-CN":"红雀","tr":"Sardalya","ru":"Сардинал","uk":"Сардинал","pl":"Sardynka","hi":"सार्डिनल","ar":"ساردينال"}},{"name":"Tilarán","latitude":"10.45878000","longitude":"-84.97513000","native":"Tilarán","translations":{"br":"Tilarán","ko":"틸라란","pt-BR":"Tilarán","pt":"Tilarán","nl":"Tilarán","hr":"Tilarán","fa":"تیلاران","de":"Tilarán","es":"Tilarán","fr":"Tilarán","ja":"ティララン","it":"Tilarán","zh-CN":"蒂拉兰","tr":"Tilaran","ru":"Тиларан","uk":"Тіларан","pl":"Tilarán","hi":"Tilaran","ar":"تيلاران"}}]},{"name":"Heredia Province","state_code":"H","latitude":"10.47352300","longitude":"-84.01674230","cities":[{"name":"Ángeles","latitude":"9.99591000","longitude":"-84.05126000","native":"Ángeles","translations":{"br":"Ángeles","ko":"앙헬레스","pt-BR":"Ángeles","pt":"Ángeles","nl":"Angeles","hr":"Ángeles","fa":"آنجلس","de":"Ángeles","es":"Ángeles","fr":"Ángeles","ja":"アンヘレス","it":"Ángeles","zh-CN":"安杰利斯","tr":"Angeles","ru":"Анхелес","uk":"Анхелес","pl":"Ángeles","hi":"एंजिल्स","ar":"أنجيليس"}},{"name":"Barva","latitude":"10.08333000","longitude":"-84.10000000","native":"Color","translations":{"br":"Barva","ko":"바르바","pt-BR":"Barva","pt":"Barva","nl":"Barva","hr":"Barva","fa":"باروا","de":"Barva","es":"Barva","fr":"Barva","ja":"バルヴァ","it":"Barva","zh-CN":"巴瓦","tr":"Barva","ru":"Барва","uk":"Барва","pl":"Barva","hi":"बरवा","ar":"بارفا"}},{"name":"Belén","latitude":"9.98333000","longitude":"-84.16667000","native":"Belén","translations":{"br":"Belén","ko":"벨렌","pt-BR":"Belém","pt":"Belém","nl":"Belén","hr":"Belén","fa":"بلن","de":"Belén","es":"Belén","fr":"Belén","ja":"ベレン","it":"Belén","zh-CN":"贝伦","tr":"Belén","ru":"Белен","uk":"Белен","pl":"Belén","hi":"बेलें","ar":"بيلين"}},{"name":"Flores","latitude":"10.00000000","longitude":"-84.15000000","native":"Flores","translations":{"br":"Flores","ko":"플로레스","pt-BR":"Flores","pt":"Flores","nl":"Flores","hr":"Flores","fa":"فلورس","de":"Flores","es":"Flores","fr":"Flores","ja":"フローレス","it":"Fiori","zh-CN":"弗洛雷斯","tr":"Çiçek","ru":"Флорес","uk":"Флорес","pl":"Flores","hi":"फ्लोरेस","ar":"فلوريس"}},{"name":"Heredia","latitude":"10.00236000","longitude":"-84.11651000","native":"Heredia","translations":{"br":"Heredia","ko":"에레디아","pt-BR":"Heredia","pt":"Heredia","nl":"Heredia","hr":"Heredia","fa":"هردیا","de":"Heredia","es":"Heredia","fr":"Hérédia","ja":"エレディア","it":"Heredia","zh-CN":"埃雷迪亚","tr":"Heredia","ru":"Эредиа","uk":"Ередія","pl":"Heredia","hi":"हेरेडिया","ar":"هيريديا"}},{"name":"La Asunción","latitude":"9.97961000","longitude":"-84.17281000","native":"La Asunción","translations":{"br":"La Asunción","ko":"라 아순시온","pt-BR":"A Assunção","pt":"A Assunção","nl":"De Hemelvaart","hr":"La Asunción","fa":"لا آسونسیون","de":"La Asunción","es":"La Asunción","fr":"La Asunción","ja":"ラ・アスンシオン","it":"L'Assunzione","zh-CN":"拉亚松森","tr":"La Asunción","ru":"Ла Асунсьон","uk":"Ла-Асунсьйон","pl":"Asunción","hi":"ला असुनसियन","ar":"لا أسونسيون"}},{"name":"Llorente","latitude":"9.99844000","longitude":"-84.15448000","native":"Llorente","translations":{"br":"Llorente","ko":"요렌테","pt-BR":"Llorente","pt":"Llorente","nl":"Llorente","hr":"Llorente","fa":"یورنته","de":"Llorente","es":"Llorente","fr":"Llorente","ja":"ジョレンテ","it":"Llorente","zh-CN":"略伦特","tr":"Llorente","ru":"Льоренте","uk":"Льоренте","pl":"Llorente","hi":"लॉरेंटे","ar":"لورينتي"}},{"name":"Mercedes","latitude":"10.00695000","longitude":"-84.13396000","native":"Mercedes","translations":{"br":"Mercedes","ko":"메르세데스","pt-BR":"Mercedes","pt":"Mercedes","nl":"Mercedes","hr":"mercedes","fa":"مرسدس","de":"Mercedes","es":"Mercedes","fr":"Mercedes","ja":"メルセデス","it":"Mercedes","zh-CN":"梅赛德斯","tr":"Mercedes","ru":"Мерседес","uk":"Мерседес","pl":"Mercedes","hi":"मर्सिडीज","ar":"مرسيدس"}},{"name":"San Antonio","latitude":"9.98333000","longitude":"-84.18333000","native":"San Antonio","translations":{"br":"San Antonio","ko":"샌안토니오","pt-BR":"Santo Antônio","pt":"Santo Antônio","nl":"San Antonio","hr":"San Antonio","fa":"سن آنتونیو","de":"San Antonio","es":"San Antonio","fr":"San Antonio","ja":"サンアントニオ","it":"San Antonio","zh-CN":"圣安东尼奥","tr":"San Antonio","ru":"Сан-Антонио","uk":"Сан-Антоніо","pl":"San Antonio","hi":"सेन एंटोनियो","ar":"سان أنطونيو"}},{"name":"San Francisco","latitude":"9.99299000","longitude":"-84.12934000","native":"San Francisco","translations":{"br":"San Francisco","ko":"샌프란시스코","pt-BR":"São Francisco","pt":"São Francisco","nl":"San Francisco","hr":"San Francisco","fa":"سانفرانسیسکو","de":"San Francisco","es":"San Francisco","fr":"San Francisco","ja":"サンフランシスコ","it":"San Francisco","zh-CN":"旧金山","tr":"San Francisco","ru":"Сан-Франциско","uk":"Сан-Франциско","pl":"San Francisco","hi":"सैन फ्रांसिस्को","ar":"سان فرانسيسكو"}},{"name":"San Isidro","latitude":"10.03333000","longitude":"-84.03333000","native":"San Isidro","translations":{"br":"San Isidro","ko":"산 이시드로","pt-BR":"São Isidro","pt":"São Isidro","nl":"San Isidro","hr":"San Isidro","fa":"سان ایسیدرو","de":"San Isidro","es":"San Isidro","fr":"San Isidro","ja":"サン・イシドロ","it":"San Isidro","zh-CN":"圣伊西德罗","tr":"San Isidro","ru":"Сан-Исидро","uk":"Сан-Ісідро","pl":"Święty Izydor","hi":"सैन इसिड्रो","ar":"سان إيسيدرو"}},{"name":"San Josecito","latitude":"10.01667000","longitude":"-84.10000000","native":"San Josecito","translations":{"br":"San Josecito","ko":"산호세시토","pt-BR":"São Josecito","pt":"São Josecito","nl":"San Josecito","hr":"San Josecito","fa":"سن خوزه سیتو","de":"San Josecito","es":"San Josecito","fr":"San Josecito","ja":"サンホセシト","it":"San Josecito","zh-CN":"圣何塞西托","tr":"San Josecito","ru":"Сан-Хосесито","uk":"Сан-Хосесіто","pl":"San Josecito","hi":"सैन जोसिटो","ar":"سان خوسيسيتو"}},{"name":"San Pablo","latitude":"10.00000000","longitude":"-84.08333000","native":"San Pablo","translations":{"br":"San Pablo","ko":"산 파블로","pt-BR":"São Paulo","pt":"São Paulo","nl":"San Pablo","hr":"San Pablo","fa":"سن پابلو","de":"San Pablo","es":"San Pablo","fr":"Saint-Paul","ja":"サンパブロ","it":"San Pablo","zh-CN":"圣巴勃罗","tr":"San Pablo","ru":"Сан-Пабло","uk":"Сан-Пабло","pl":"Święty Paweł","hi":"सैन पाब्लो","ar":"سان بابلو"}},{"name":"San Rafael","latitude":"10.05000000","longitude":"-84.06667000","native":"San Rafael","translations":{"br":"San Rafael","ko":"산 라파엘","pt-BR":"São Rafael","pt":"São Rafael","nl":"San Rafael","hr":"San Rafael","fa":"سن رافائل","de":"San Rafael","es":"San Rafael","fr":"San Rafael","ja":"サンラファエル","it":"San Rafael","zh-CN":"圣拉斐尔","tr":"San Rafael","ru":"Сан-Рафаэль","uk":"Сан-Рафаель","pl":"San Rafael","hi":"सैन राफेल","ar":"سان رافائيل"}},{"name":"Santa Bárbara","latitude":"10.08333000","longitude":"-84.15000000","native":"Santa Bárbara","translations":{"br":"Santa Bárbara","ko":"산타바바라","pt-BR":"Santa Bárbara","pt":"Santa Bárbara","nl":"Santa Barbara","hr":"Santa Bárbara","fa":"سانتا باربارا","de":"Santa Bárbara","es":"Santa Bárbara","fr":"Santa Barbara","ja":"サンタバーバラ","it":"Santa Barbara","zh-CN":"圣巴巴拉","tr":"Santa Barbara","ru":"Санта-Барбара","uk":"Санта-Барбара","pl":"Święta Barbara","hi":"सैंटा बारबरा","ar":"سانتا باربرا"}},{"name":"Santo Domingo","latitude":"10.06389000","longitude":"-84.15499000","native":"Santo Domingo","translations":{"br":"Santo Domingo","ko":"산토도밍고","pt-BR":"Santo Domingo","pt":"Santo Domingo","nl":"Santo Domingo","hr":"Santo Domingo","fa":"سانتو دومینگو","de":"Santo Domingo","es":"Santo Domingo","fr":"Saint-Domingue","ja":"サントドミンゴ","it":"Santo Domingo","zh-CN":"圣多明各","tr":"Santo Domingo","ru":"Санто-Доминго","uk":"Санто-Домінго","pl":"Santo Domingo","hi":"सैंटो डोमिंगो","ar":"سانتو دومينغو"}},{"name":"Sarapiquí","latitude":"10.50000000","longitude":"-84.00000000","native":"Sarapiquí","translations":{"br":"Sarapiquí","ko":"사라피키","pt-BR":"Sarapiquí","pt":"Sarapiquí","nl":"Sarapiquí","hr":"Sarapiquí","fa":"ساراپیکی","de":"Sarapiquí","es":"Sarapiquí","fr":"Sarapiquí","ja":"サラピキ","it":"Sarapiquí","zh-CN":"萨拉皮基","tr":"Sarapiquí","ru":"Сарапики","uk":"Сарапікі","pl":"Sarapiquí","hi":"sarapiqui","ar":"سارابيكي"}}]},{"name":"Limón Province","state_code":"L","latitude":"9.98963980","longitude":"-83.03324170","cities":[{"name":"Batán","latitude":"10.08354000","longitude":"-83.33413000","native":"Bañero","translations":{"br":"Batán","ko":"바탄","pt-BR":"Batán","pt":"Batán","nl":"Batan","hr":"Batán","fa":"باتان","de":"Batán","es":"Batán","fr":"Batan","ja":"バタン","it":"Batán","zh-CN":"巴坦","tr":"Batan","ru":"Батан","uk":"Батан","pl":"Batán","hi":"बाटन","ar":"باتان"}},{"name":"Guácimo","latitude":"10.20000000","longitude":"-83.66667000","native":"Gacimo","translations":{"br":"Guácimo","ko":"과시모","pt-BR":"Guácimo","pt":"Guácimo","nl":"Guácimo","hr":"Guácimo","fa":"گواسیمو","de":"Guácimo","es":"Guácimo","fr":"Guácimo","ja":"グアシモ","it":"Guácimo","zh-CN":"瓜西莫","tr":"Guácimo","ru":"Гуасимо","uk":"Гуасімо","pl":"Guácimo","hi":"Guacimo","ar":"غواسيمو"}},{"name":"Guápiles","latitude":"10.21682000","longitude":"-83.78483000","native":"Guápiles","translations":{"br":"Guápiles","ko":"과필레스","pt-BR":"Guápiles","pt":"Guápiles","nl":"Guápiles","hr":"Guápiles","fa":"گواپیلس","de":"Guapiles","es":"Guápiles","fr":"Guápiles","ja":"グアピレス","it":"Guapiles","zh-CN":"瓜皮莱斯","tr":"Guápiles","ru":"Гуапилес","uk":"Гуапілес","pl":"Guápiles","hi":"गुआपिल्स","ar":"غوابيليس"}},{"name":"Limón","latitude":"9.99074000","longitude":"-83.03596000","native":"Limón","translations":{"br":"Limón","ko":"리몬","pt-BR":"Limão","pt":"Limão","nl":"Limon","hr":"Limón","fa":"لیمون","de":"Limón","es":"Limón","fr":"Citron","ja":"リモン","it":"Limone","zh-CN":"利蒙","tr":"Limon","ru":"Лимон","uk":"Лімон","pl":"Limonka","hi":"लिमोन","ar":"ليمون"}},{"name":"Matina","latitude":"10.00000000","longitude":"-83.25000000","native":"Por la mañana","translations":{"br":"Matina","ko":"마티나","pt-BR":"Matina","pt":"Matina","nl":"Matina","hr":"Matina","fa":"ماتینا","de":"Matina","es":"Matina","fr":"Matine","ja":"マティーナ","it":"Matina","zh-CN":"马蒂娜","tr":"Matina","ru":"Матина","uk":"Матіна","pl":"Matina","hi":"मटिना","ar":"ماتينا"}},{"name":"Pococí","latitude":"10.50000000","longitude":"-83.63333000","native":"Chupete","translations":{"br":"Pococí","ko":"포코치","pt-BR":"Pococí","pt":"Pococí","nl":"Pococí","hr":"Pococí","fa":"پوکوچی","de":"Pococí","es":"Pococí","fr":"Pococí","ja":"ポコシ","it":"Pococí","zh-CN":"波科奇","tr":"Pococí","ru":"Покочи","uk":"Покосі","pl":"Pococí","hi":"Pococi","ar":"بوكوسي"}},{"name":"Pocora","latitude":"10.17185000","longitude":"-83.60439000","native":"Pequeño","translations":{"br":"Pocora","ko":"포코라","pt-BR":"Pocora","pt":"Pocora","nl":"Pocora","hr":"Pocora","fa":"پوکورا","de":"Pocora","es":"Pocora","fr":"Pocora","ja":"ポコラ","it":"Pocora","zh-CN":"波科拉","tr":"Pocora","ru":"Покора","uk":"Покора","pl":"Pocora","hi":"पोकोरा","ar":"بوكورا"}},{"name":"Roxana","latitude":"10.26712000","longitude":"-83.75110000","native":"Roxano","translations":{"br":"Roxana","ko":"록사나","pt-BR":"Roxana","pt":"Roxana","nl":"Roxana","hr":"Roksana","fa":"رکسانا","de":"Roxana","es":"Roxana","fr":"Roxane","ja":"ロクサーナ","it":"Rossana","zh-CN":"罗克珊娜","tr":"Roxana","ru":"Роксана","uk":"Роксана","pl":"Roksana","hi":"रोक्साना","ar":"روكسانا"}},{"name":"Siquirres","latitude":"10.11667000","longitude":"-83.50000000","native":"Siquirres","translations":{"br":"Sikirezed","ko":"시키레스","pt-BR":"Siquirres","pt":"Siquirres","nl":"Siquirres","hr":"Siquirres","fa":"سیکوئیرس","de":"Siquirres","es":"Siquirres","fr":"Siquirres","ja":"シクイレス","it":"Siquirres","zh-CN":"西基雷斯","tr":"Sincaplar","ru":"Сиквиррес","uk":"Сікіррес","pl":"Wiewiórki","hi":"सिक्विरेस","ar":"سيكيريس"}},{"name":"Sixaola","latitude":"9.52766000","longitude":"-82.62185000","native":"Sixaola","translations":{"br":"Sixaola","ko":"식사올라","pt-BR":"Sixaola","pt":"Sixaola","nl":"Sixaola","hr":"Sixaola","fa":"سیکسائولا","de":"Sixaola","es":"Sixaola","fr":"Sixaola","ja":"シクサオラ","it":"Sixaola","zh-CN":"西克绍拉","tr":"Altıaola","ru":"Сиксаола","uk":"Сіксаола","pl":"Sixaola","hi":"सिक्साओला","ar":"سيكساولا"}},{"name":"Talamanca","latitude":"9.50000000","longitude":"-83.08333000","native":"Talamanca","translations":{"br":"Talamanca","ko":"탈라만카","pt-BR":"Talamanca","pt":"Talamanca","nl":"Talamanca","hr":"Talamanca","fa":"تالامانکا","de":"Talamanca","es":"Talamanca","fr":"Talamanque","ja":"タラマンカ","it":"Talamanca","zh-CN":"塔拉曼卡","tr":"Talamanca","ru":"Таламанка","uk":"Таламанка","pl":"Talamanca","hi":"तलमांका","ar":"تالامانكا"}}]},{"name":"Provincia de Cartago","state_code":"C","latitude":"9.86223110","longitude":"-83.92141870","cities":[{"name":"Alvarado","latitude":"9.93333000","longitude":"-83.80000000","native":"Alvarado","translations":{"br":"Alvarado","ko":"알바라도","pt-BR":"Alvarado","pt":"Alvarado","nl":"Alvarado","hr":"Alvarado","fa":"آلوارادو","de":"Alvarado","es":"Alvarado","fr":"Alvarado","ja":"アルバラド","it":"Alvarado","zh-CN":"阿尔瓦拉多","tr":"Alvarado","ru":"Альварадо","uk":"Альварадо","pl":"Alvarado","hi":"अल्वराडो","ar":"ألفارادو"}},{"name":"Cartago","latitude":"9.86444000","longitude":"-83.91944000","native":"Cartago","translations":{"br":"Kartago","ko":"카르타고","pt-BR":"Cartago","pt":"Cartago","nl":"Cartago","hr":"Cartago","fa":"کارتاگو","de":"Cartago","es":"Cartago","fr":"Cartago","ja":"カルタゴ","it":"Cartago","zh-CN":"卡塔戈","tr":"Kartaca","ru":"Картаго","uk":"Картаго","pl":"Cartago","hi":"कार्टेगो","ar":"كارتاغو"}},{"name":"Concepción","latitude":"9.93333000","longitude":"-84.00000000","native":"Concepción","translations":{"br":"Konsepsion","ko":"콘셉시온","pt-BR":"Conceição","pt":"Conceição","nl":"Conceptie","hr":"Concepción","fa":"کانسپسیون","de":"Konzeption","es":"Concepción","fr":"Conception","ja":"コンセプシオン","it":"Concezione","zh-CN":"康塞普西翁","tr":"Konsept","ru":"Консепсьон","uk":"Консепсьйон","pl":"Concepción","hi":"कॉन्सेप्शन","ar":"كونسيبسيون"}},{"name":"Cot","latitude":"9.89449000","longitude":"-83.87302000","native":"Cuna","translations":{"br":"Kot","ko":"간이 침대","pt-BR":"Berço","pt":"Berço","nl":"Kinderbed","hr":"Dječji krevetić","fa":"تخت کودک","de":"Kinderbett","es":"Cuna","fr":"Lit bébé","ja":"ベビーベッド","it":"Culla","zh-CN":"婴儿床","tr":"Beşik","ru":"Детская кроватка","uk":"Дитяче ліжечко","pl":"Łóżko składane","hi":"खाट","ar":"سرير أطفال"}},{"name":"El Guarco","latitude":"9.75000000","longitude":"-83.91667000","native":"El Guarco","translations":{"br":"El Guarco","ko":"엘 과르코","pt-BR":"O Guarco","pt":"O Guarco","nl":"De Guarco","hr":"El Guarco","fa":"ال گوارکو","de":"El Guarco","es":"El Guarco","fr":"Le Guarco","ja":"エル・グアルコ","it":"El Guarco","zh-CN":"埃尔瓜尔科","tr":"El Guarco","ru":"Эль Гуарко","uk":"Ель-Гуарко","pl":"El Guarco","hi":"एल ग्वार्को","ar":"إل غواركو"}},{"name":"Jiménez","latitude":"9.75000000","longitude":"-83.68333000","native":"Jiménez","translations":{"br":"Jiménez","ko":"히메네스","pt-BR":"Jiménez","pt":"Jiménez","nl":"Jiménez","hr":"Jiménez","fa":"خیمنز","de":"Jiménez","es":"Jiménez","fr":"Jiménez","ja":"ヒメネス","it":"Jiménez","zh-CN":"希门尼斯","tr":"Jiménez","ru":"Хименес","uk":"Хіменес","pl":"Jiménez","hi":"Jimenez","ar":"خيمينيز"}},{"name":"La Suiza","latitude":"9.85065000","longitude":"-83.61690000","native":"La Suiza","translations":{"br":"La Suiza","ko":"라 수이자","pt-BR":"A Suíça","pt":"A Suíça","nl":"De Suiza","hr":"Švicarska","fa":"لا سویزا","de":"La Suiza","es":"La Suiza","fr":"La Suisse","ja":"ラ・スイザ","it":"La Svizzera","zh-CN":"拉瑞士","tr":"La Suiza","ru":"Ла Суиза","uk":"Ла-Суїза","pl":"La Suiza","hi":"ला सुइज़ा","ar":"لا سويزا"}},{"name":"La Unión","latitude":"9.91667000","longitude":"-83.98333000","native":"La Unión","translations":{"br":"Unaniezh","ko":"라 유니온","pt-BR":"A União","pt":"A União","nl":"De Unie","hr":"La Unión","fa":"لا یونیون","de":"La Unión","es":"La Unión","fr":"La Union","ja":"ラ・ウニオン","it":"L'Unione","zh-CN":"联合","tr":"Birlik","ru":"Ла Унион","uk":"Ла Уніон","pl":"Związek","hi":"ला यूनियन","ar":"الاتحاد"}},{"name":"Oreamuno","latitude":"10.00000000","longitude":"-83.83333000","native":"Oreamuno","translations":{"br":"Oreamuno","ko":"오레아무노","pt-BR":"Oreamuno","pt":"Oreamuno","nl":"Oreamuno","hr":"Oreamuno","fa":"اورئمونو","de":"Oreamuno","es":"Oreamuno","fr":"Oreamuno","ja":"オレアムノ","it":"Oreamuno","zh-CN":"奥雷阿穆诺","tr":"Oreamuno","ru":"Ореамуно","uk":"Ореамуно","pl":"Oreamuno","hi":"ओरेमुनो","ar":"أوريمونو"}},{"name":"Orosí","latitude":"9.79617000","longitude":"-83.85383000","native":"Mineral","translations":{"br":"Orosí","ko":"오로시","pt-BR":"Orosí","pt":"Orosí","nl":"Orosí","hr":"Orosí","fa":"اوروسی","de":"Orosi","es":"Orosi","fr":"Orosí","ja":"オロシ","it":"Orosí","zh-CN":"奥罗西","tr":"Orosí","ru":"Ороси","uk":"Оросі","pl":"Orosí","hi":"Orosi","ar":"أوروسي"}},{"name":"Pacayas","latitude":"9.80709000","longitude":"-84.04764000","native":"Pacayas","translations":{"br":"Pacaya","ko":"파카야","pt-BR":"Pacayas","pt":"Pacayas","nl":"Pacayas","hr":"Pacayas","fa":"پاکایاها","de":"Pacayas","es":"Pacayas","fr":"Pacayas","ja":"パカヤ","it":"Pacayas","zh-CN":"帕卡亚斯","tr":"Pacayalar","ru":"Пакайяс","uk":"Пакайя","pl":"Pacaye","hi":"पकायस","ar":"باكايا"}},{"name":"Paraíso","latitude":"9.75000000","longitude":"-83.80000000","native":"Paraíso","translations":{"br":"Paraíso","ko":"파라이소","pt-BR":"Paraíso","pt":"Paraíso","nl":"Paraíso","hr":"Paraíso","fa":"پارایسو","de":"Paraíso","es":"Paraíso","fr":"Paraíso","ja":"パライソ","it":"Paradiso","zh-CN":"帕拉伊索","tr":"Cennet","ru":"Параисо","uk":"Параїсо","pl":"Paraíso","hi":"पैराइसो","ar":"بارايسو"}},{"name":"Pejibaye","latitude":"9.81135000","longitude":"-83.70336000","native":"El intestino","translations":{"br":"Pejibaye","ko":"페지바예","pt-BR":"Pejibaye","pt":"Pejibaye","nl":"Pejibaye","hr":"Pejibaye","fa":"پجیبای","de":"Pejibaye","es":"Pejibaye","fr":"Péjibaye","ja":"ペジバイエ","it":"Pejibaye","zh-CN":"佩吉巴耶","tr":"Pejibaye","ru":"Пежибае","uk":"Педжибає","pl":"Pejibaye","hi":"पेजिबाये","ar":"بيجيباي"}},{"name":"San Diego","latitude":"9.89898000","longitude":"-84.00287000","native":"San Diego","translations":{"br":"San Diego","ko":"샌디에이고","pt-BR":"São Diego","pt":"São Diego","nl":"San Diego","hr":"San Diego","fa":"سن دیگو","de":"San Diego","es":"San Diego","fr":"San Diego","ja":"サンディエゴ","it":"San Diego","zh-CN":"圣地亚哥","tr":"San Diego","ru":"Сан-Диего","uk":"Сан-Дієго","pl":"San Diego","hi":"सैन डिएगो","ar":"سان دييغو"}},{"name":"Tobosi","latitude":"9.83837000","longitude":"-83.98391000","native":"Tobosis","translations":{"br":"Tobosi","ko":"토보시","pt-BR":"Tobosi","pt":"Tobosi","nl":"Tobosi","hr":"Tobosi","fa":"توبوسی","de":"Tobosi","es":"Tobosi","fr":"Tobosi","ja":"トボシ","it":"Tobosi","zh-CN":"托博西","tr":"Tobosi","ru":"Тобоси","uk":"Тобосі","pl":"Tobosi","hi":"टोबोसी","ar":"توبوسي"}},{"name":"Tres Ríos","latitude":"9.90644000","longitude":"-83.98760000","native":"Tres Ríos","translations":{"br":"Tres Ríos","ko":"트레스 리오스","pt-BR":"Três Rios","pt":"Três Rios","nl":"Drie Rios","hr":"Tres Ríos","fa":"ترس ریوس","de":"Tres Ríos","es":"Tres Ríos","fr":"Tres Ríos","ja":"トレス・リオス","it":"Tres Ríos","zh-CN":"特雷斯里奥斯","tr":"Tres Rios","ru":"Трес Риос","uk":"Трес-Ріос","pl":"Trzy rzeki","hi":"ट्रेस रियोस","ar":"تريس ريوس"}},{"name":"Tucurrique","latitude":"9.85336000","longitude":"-83.72273000","native":"Tucurrical","translations":{"br":"Tucurrique","ko":"투쿠리크","pt-BR":"Tucurrique","pt":"Tucurrique","nl":"Tucurrique","hr":"Tucurrique","fa":"توکوریک","de":"Tucurrique","es":"Tucurrique","fr":"Tucurrique","ja":"トゥクリケ","it":"Tucurrique","zh-CN":"图库里克","tr":"Tucurrique","ru":"Тукуррике","uk":"Тукурріке","pl":"Tucurrique","hi":"टुकुरिक","ar":"توكوريك"}},{"name":"Turrialba","latitude":"9.80000000","longitude":"-83.53333000","native":"Turrialba","translations":{"br":"Turrialba","ko":"투리알바","pt-BR":"Turrialba","pt":"Turrialba","nl":"Turrialba","hr":"Turrialba","fa":"توریالبا","de":"Turrialba","es":"Turrialba","fr":"Turrialba","ja":"トゥリアルバ","it":"Turrialba","zh-CN":"图里亚尔瓦","tr":"Turrialba","ru":"Турриальба","uk":"Турріальба","pl":"Turrialba","hi":"टुरिआल्बा","ar":"توريالبا"}}]},{"name":"Puntarenas Province","state_code":"P","latitude":"9.21695310","longitude":"-83.33618800","cities":[{"name":"Buenos Aires","latitude":"9.11667000","longitude":"-83.25000000","native":"Buenos Aires","translations":{"br":"Buenos Aires","ko":"부에노스 아이레스","pt-BR":"Buenos Aires","pt":"Buenos Aires","nl":"Buenos Aires","hr":"Buenos Aires","fa":"بوئنوس آیرس","de":"Buenos Aires","es":"Buenos Aires","fr":"Buenos Aires","ja":"ブエノスアイレス","it":"Buenos Aires","zh-CN":"布宜诺斯艾利斯","tr":"Buenos Aires","ru":"Буэнос-Айрес","uk":"Буенос-Айрес","pl":"Buenos Aires","hi":"ब्यूनस आयर्स","ar":"بوينس آيرس"}},{"name":"Canoas","latitude":"8.53305000","longitude":"-82.83844000","native":"Canoas","translations":{"br":"Kanoaz","ko":"카노아스","pt-BR":"Canoas","pt":"Canoas","nl":"Kano's","hr":"Canoas","fa":"کانواس","de":"Canoas","es":"Canoas","fr":"Canoas","ja":"カノア","it":"Canoas","zh-CN":"卡诺阿斯","tr":"Canoas","ru":"Каноа","uk":"Каноас","pl":"Kajaki","hi":"कैनोआस","ar":"كانواس"}},{"name":"Chacarita","latitude":"9.98424000","longitude":"-84.77892000","native":"Chacarita","translations":{"br":"Chacarita","ko":"차카리타","pt-BR":"Chacarita","pt":"Chacarita","nl":"Chacarita","hr":"Čačarita","fa":"چاکاریتا","de":"Chacarita","es":"Chacarita","fr":"Chacarita","ja":"チャカリタ","it":"Chacarita","zh-CN":"查卡里塔","tr":"Çacarita","ru":"Чакарита","uk":"Чакаріта","pl":"Chacarita","hi":"चकारिता","ar":"تشاكاريتا"}},{"name":"Ciudad Cortés","latitude":"8.95988000","longitude":"-83.52381000","native":"Ciudad Cortés","translations":{"br":"Ciudad Cortés","ko":"시우다드 코르테스","pt-BR":"Cidade Cortés","pt":"Cidade Cortés","nl":"Ciudad Cortés","hr":"Ciudad Cortés","fa":"سیوداد کورتس","de":"Ciudad Cortés","es":"Ciudad Cortés","fr":"Ciudad Cortés","ja":"シウダー・コルテス","it":"Ciudad Cortés","zh-CN":"科尔特斯城","tr":"Ciudad Cortés","ru":"Сьюдад-Кортес","uk":"Сьюдад-Кортес","pl":"Ciudad Cortés","hi":"सियुदाद कोर्टेस","ar":"سيوداد كورتيس"}},{"name":"Corredor","latitude":"8.64002000","longitude":"-82.94600000","native":"Corredor","translations":{"br":"Korredor","ko":"코레도르","pt-BR":"Corredor","pt":"Corredor","nl":"Gang","hr":"Koridor","fa":"کریدور","de":"Korridor","es":"Corredor","fr":"Corredor","ja":"コレドール","it":"Corridore","zh-CN":"走廊","tr":"Koridor","ru":"Коридор","uk":"Коредор","pl":"Korytarz","hi":"Corredor","ar":"كوريدور"}},{"name":"Corredores","latitude":"8.58333000","longitude":"-82.91667000","native":"Pasillos","translations":{"br":"Kevreerien","ko":"코레도레스","pt-BR":"Corretores","pt":"Corretores","nl":"Corredores","hr":"Corredores","fa":"کوردورس","de":"Korredores","es":"Corredores","fr":"Corredores","ja":"コレドーレス","it":"Corredores","zh-CN":"科雷多雷斯","tr":"Koridorlar","ru":"Корредорес","uk":"Корредорес","pl":"Kordegardy","hi":"कोरेडोरेस","ar":"كوريدوريس"}},{"name":"Coto Brus","latitude":"8.88333000","longitude":"-82.96667000","native":"Coto Brus","translations":{"br":"Coto Brus","ko":"코토 브루스","pt-BR":"Coto Brus","pt":"Coto Brus","nl":"Coto Brus","hr":"Coto Brus","fa":"کوتو بروس","de":"Coto Brus","es":"Coto Brus","fr":"Coto Brus","ja":"コト・ブルス","it":"Coto Brus","zh-CN":"科托布鲁斯","tr":"Coto Brus","ru":"Кото Брус","uk":"Кото Брус","pl":"Coto Brus","hi":"कोटो ब्रुस","ar":"كوتو بروس"}},{"name":"Esparza","latitude":"10.00000000","longitude":"-84.66667000","native":"Esparza","translations":{"br":"Esparza","ko":"에스파르자","pt-BR":"Esparza","pt":"Esparza","nl":"Esparza","hr":"Esparza","fa":"اسپارزا","de":"Esparza","es":"Esparza","fr":"Esparza","ja":"エスパルザ","it":"Esparza","zh-CN":"埃斯帕扎","tr":"Esparza","ru":"Эспарса","uk":"Еспарза","pl":"Esparza","hi":"एस्पर्ज़ा","ar":"إسبارزا"}},{"name":"Garabito","latitude":"9.61903000","longitude":"-84.62013000","native":"Garabito","translations":{"br":"Garabito","ko":"가라비토","pt-BR":"Garabito","pt":"Garabito","nl":"Garabito","hr":"Garabito","fa":"گارابیتو","de":"Garabito","es":"garabito","fr":"Garabito","ja":"ガラビト","it":"Garabito","zh-CN":"加拉比托","tr":"Garabito","ru":"Гарабито","uk":"Гарабіто","pl":"Garabito","hi":"गैराबिटो","ar":"جارابيتو"}},{"name":"Golfito","latitude":"8.60000000","longitude":"-83.12000000","native":"Golfito","translations":{"br":"Golfito","ko":"골피토","pt-BR":"Golfito","pt":"Golfito","nl":"Golfito","hr":"Golfito","fa":"گلفیتو","de":"Golfito","es":"Golfito","fr":"Golfito","ja":"ゴルフィト","it":"Golfito","zh-CN":"戈尔菲托","tr":"Golfito","ru":"Гольфито","uk":"Гольфіто","pl":"Golfito","hi":"गोल्फिटो","ar":"جولفيتو"}},{"name":"Jacó","latitude":"9.61497000","longitude":"-84.62975000","native":"Jacob","translations":{"br":"Jacó","ko":"자코","pt-BR":"Jacó","pt":"Jacó","nl":"Jacó","hr":"Jacó","fa":"ژاکو","de":"Jacó","es":"Jacó","fr":"Jacó","ja":"ジャコ","it":"Jacó","zh-CN":"雅科","tr":"Jaco","ru":"Хако","uk":"Жако","pl":"Jacó","hi":"जैको","ar":"جاكو"}},{"name":"Miramar","latitude":"10.09250000","longitude":"-84.72978000","native":"Miramar","translations":{"br":"Miramar","ko":"미라마","pt-BR":"Miramar","pt":"Miramar","nl":"Miramar","hr":"Miramar","fa":"میرامار","de":"Miramar","es":"Miramar","fr":"Miramar","ja":"ミラマー","it":"Miramar","zh-CN":"米拉马尔","tr":"Miramar","ru":"Мирамар","uk":"Мірамар","pl":"Miramar","hi":"Miramar","ar":"ميرامار"}},{"name":"Montes de Oro","latitude":"10.10000000","longitude":"-84.75000000","native":"Montes de Oro","translations":{"br":"Menezioù Oro","ko":"몬테스 데 오로","pt-BR":"Montes de Oro","pt":"Montes de Oro","nl":"Montes de Oro","hr":"Zlatne planine","fa":"مونتس د اورو","de":"Montes de Oro","es":"Montes de Oro","fr":"Monts d'Or","ja":"モンテス・デ・オロ","it":"Monti d'Oro","zh-CN":"蒙特斯德奥罗","tr":"Montes de Oro","ru":"Монтес-де-Оро","uk":"Монтес-де-Оро","pl":"Złote Góry","hi":"मोंटेस डी ओरो","ar":"جبال الذهب"}},{"name":"Osa","latitude":"8.83333000","longitude":"-83.50000000","native":"OSA","translations":{"br":"Osa","ko":"오사","pt-BR":"Osa","pt":"Osa","nl":"Osa","hr":"Osa","fa":"اوسا","de":"Osa","es":"Osa","fr":"Osa","ja":"オサ","it":"Osa","zh-CN":"奥萨","tr":"Osa","ru":"Оса","uk":"Оса","pl":"Osa","hi":"ओएसए","ar":"أوسا"}},{"name":"Paquera","latitude":"9.82005000","longitude":"-84.93513000","native":"Voltear","translations":{"br":"Paquera","ko":"파케라","pt-BR":"Paquera","pt":"Paquera","nl":"Paquera","hr":"Paquera","fa":"پاکرا","de":"Paquera","es":"Paquera","fr":"Paquera","ja":"パケラ","it":"Paquera","zh-CN":"帕克拉","tr":"Paquera","ru":"Пакера","uk":"Пакера","pl":"Paquera","hi":"पाक्वेरा","ar":"باكيرا"}},{"name":"Parrita","latitude":"9.55000000","longitude":"-84.33333000","native":"No laboriosamente","translations":{"br":"Parrita","ko":"파리타","pt-BR":"Parrita","pt":"Parrita","nl":"Parrita","hr":"Parrita","fa":"پاریتا","de":"Parrita","es":"Parrita","fr":"Parrita","ja":"パリタ","it":"Parrita","zh-CN":"帕里塔","tr":"Parrita","ru":"Паррита","uk":"Парріта","pl":"Parrita","hi":"पर्रिता","ar":"باريتا"}},{"name":"Puntarenas","latitude":"9.97625000","longitude":"-84.83836000","native":"Puntarenas","translations":{"br":"Puntarenas","ko":"푼타레나스","pt-BR":"Puntarenas","pt":"Puntarenas","nl":"Puntarenas","hr":"Puntarenas","fa":"پونتارناس","de":"Puntarenas","es":"Puntarenas","fr":"Puntarenas","ja":"プンタレナス","it":"Puntarenas","zh-CN":"蓬塔雷纳斯","tr":"Puntarenas","ru":"Пунтаренас","uk":"Пунтаренас","pl":"Puntarenas","hi":"पुंटारेनास","ar":"بونتاريناس"}},{"name":"Quepos","latitude":"9.43187000","longitude":"-84.16141000","native":"Quepos","translations":{"br":"Quepos","ko":"케포스","pt-BR":"Quepos","pt":"Quepos","nl":"Quepos","hr":"Quepos","fa":"کوئپوس","de":"Quepos","es":"Quepos","fr":"Quepos","ja":"ケポス","it":"Quepos","zh-CN":"克波斯","tr":"Quepos","ru":"Кепос","uk":"Кепос","pl":"Quepos","hi":"क्यूपोस","ar":"كيبوس"}},{"name":"San Vito","latitude":"8.82079000","longitude":"-82.97092000","native":"San Vito","translations":{"br":"San Vito","ko":"산 비토","pt-BR":"São Vito","pt":"São Vito","nl":"San Vito","hr":"San Vito","fa":"سن ویتو","de":"San Vito","es":"San Vito","fr":"San Vito","ja":"サン・ヴィート","it":"San Vito","zh-CN":"圣维托","tr":"San Vito","ru":"Сан Вито","uk":"Сан-Віто","pl":"Święty Wit","hi":"सैन विटो","ar":"سان فيتو"}}]},{"name":"San José Province","state_code":"SJ","latitude":"9.91297270","longitude":"-84.07682940","cities":[{"name":"Acosta","latitude":"9.80000000","longitude":"-84.20000000","native":"Acosta","translations":{"br":"Acosta","ko":"아코스타","pt-BR":"Acosta","pt":"Acosta","nl":"Acosta","hr":"Acosta","fa":"آکوستا","de":"Acosta","es":"Acosta","fr":"Acosta","ja":"アコスタ","it":"Acosta","zh-CN":"阿科斯塔","tr":"Acosta","ru":"Акоста","uk":"Акоста","pl":"Acosta","hi":"अकोस्टा","ar":"أكوستا"}},{"name":"Alajuelita","latitude":"9.90000000","longitude":"-84.10000000","native":"Alajuelita","translations":{"br":"Alajuelita","ko":"알라후엘리타","pt-BR":"Alajuelita","pt":"Alajuelita","nl":"Alajuelita","hr":"Alajuelita","fa":"آلاخوئلیتا","de":"Alajuelita","es":"Alajuelita","fr":"Alajuelita","ja":"アラフエリータ","it":"Alajuelita","zh-CN":"阿拉胡埃利塔","tr":"Alajuelita","ru":"Алахуэлита","uk":"Алахуеліта","pl":"Alajuelita","hi":"अलाजुएलिता","ar":"ألاخويلاتا"}},{"name":"Aserrí","latitude":"9.86667000","longitude":"-84.10000000","native":"Aserrí","translations":{"br":"Aserrí","ko":"아세리","pt-BR":"Aserrí","pt":"Aserrí","nl":"Aserrí","hr":"Aserrí","fa":"آسری","de":"Aserrí","es":"Aserrí","fr":"Aserrí","ja":"アセリ","it":"Aserrí","zh-CN":"阿塞里","tr":"Aserri","ru":"Асерри","uk":"Асеррі","pl":"Aserrí","hi":"असर्री","ar":"أسيري"}},{"name":"Calle Blancos","latitude":"9.95000000","longitude":"-84.06667000","native":"Calle Blancos","translations":{"br":"Calle Blancos","ko":"칼레 블랑코스","pt-BR":"Rua Blancos","pt":"Rua Blancos","nl":"Witte straat","hr":"Ulica Blancos","fa":"کاله بلانکوس","de":"Calle Blancos","es":"Calle Blancos","fr":"Rue Blancos","ja":"ブランコス通り","it":"Calle Blancos","zh-CN":"卡勒布兰科斯","tr":"Calle Blancos","ru":"Калле Бланкос","uk":"Калле Бланкос","pl":"Ulice Blancos","hi":"कैले ब्लैंकोस","ar":"شارع بلانكوس"}},{"name":"Colima","latitude":"9.95091000","longitude":"-84.08503000","native":"Colima","translations":{"br":"Colima","ko":"콜리마","pt-BR":"Colima","pt":"Colima","nl":"Colima","hr":"Colima","fa":"کولیما","de":"Colima","es":"Colima","fr":"Colima","ja":"コリマ","it":"Colima","zh-CN":"科利马","tr":"Colima","ru":"Колима","uk":"Коліма","pl":"Colima","hi":"कोलीमा","ar":"كوليما"}},{"name":"Colón","latitude":"9.91491000","longitude":"-84.24170000","native":"Colon","translations":{"br":"Colón","ko":"콜론","pt-BR":"Cólon","pt":"Cólon","nl":"Dubbele punt","hr":"Debelo crijevo","fa":"کولون","de":"Doppelpunkt","es":"Colon","fr":"Côlon","ja":"結腸","it":"Colon","zh-CN":"冒号","tr":"Kolon","ru":"Колон","uk":"Колон","pl":"Okrężnica","hi":"कोलन","ar":"كولون"}},{"name":"Curridabat","latitude":"9.91667000","longitude":"-84.03333000","native":"Curridabat","translations":{"br":"Curridabat","ko":"쿠리다바트","pt-BR":"Curridabat","pt":"Curridabat","nl":"Curridabat","hr":"Curridabat","fa":"کوریدابات","de":"Curridabat","es":"Curridabat","fr":"Curridabat","ja":"クリダバト","it":"Curridabat","zh-CN":"库里达巴特","tr":"Curridabat","ru":"Курридабат","uk":"Куррідабат","pl":"Curridabat","hi":"कुरिडाबैट","ar":"كوريدابات"}},{"name":"Daniel Flores","latitude":"9.33554000","longitude":"-83.66940000","native":"Daniel Flores","translations":{"br":"Daniel Flores","ko":"다니엘 플로레스","pt-BR":"Daniel Flores","pt":"Daniel Flores","nl":"Daniël Flores","hr":"Daniel Flores","fa":"دانیل فلورس","de":"Daniel Flores","es":"Daniel Flores","fr":"Daniel Flores","ja":"ダニエル・フローレス","it":"Daniele Flores","zh-CN":"丹尼尔·弗洛雷斯","tr":"Daniel Flores","ru":"Дэниел Флорес","uk":"Даніель Флорес","pl":"Daniel Flores","hi":"डैनियल फ्लोरेस","ar":"دانييل فلوريس"}},{"name":"Desamparados","latitude":"9.90000000","longitude":"-84.06667000","native":"Desamparados","translations":{"br":"Desamparados","ko":"데삼파라도스","pt-BR":"Desamparados","pt":"Desamparados","nl":"Desamparados","hr":"Desamparados","fa":"دسامپارادوس","de":"Desamparados","es":"Desamparados","fr":"Désemparés","ja":"デサンパラドス","it":"Desamparados","zh-CN":"孤苦伶仃","tr":"Desamparados","ru":"Десампарадос","uk":"Десампарадос","pl":"Desamparados","hi":"डेसम्पाराडोस","ar":"ديسامبارادوس"}},{"name":"Dota","latitude":"9.65000000","longitude":"-83.95000000","native":"Dota","translations":{"br":"Dota","ko":"도타","pt-BR":"Dota","pt":"Dota","nl":"Dota","hr":"Dota","fa":"دوتا","de":"Dota","es":"Dota","fr":"Dota","ja":"ドータ","it":"Dota","zh-CN":"Dota","tr":"Dota","ru":"Дота","uk":"Дота","pl":"Dota","hi":"डोटा","ar":"دوتا"}},{"name":"Escazú","latitude":"9.93333000","longitude":"-84.13333000","native":"Escazú","translations":{"br":"Escazú","ko":"에스카수","pt-BR":"Escazú","pt":"Escazú","nl":"Escazú","hr":"Escazú","fa":"اسکازو","de":"Escazú","es":"Escazú","fr":"Escazú","ja":"エスカス","it":"Escazú","zh-CN":"埃斯卡苏","tr":"Escazú","ru":"Эскасу","uk":"Ескасу","pl":"Escazú","hi":"एस्काज़ू","ar":"إسكازو"}},{"name":"Goicoechea","latitude":"9.94848000","longitude":"-84.06365000","native":"Gicoechea","translations":{"br":"Goicoechea","ko":"고이코에케아","pt-BR":"Goicoechea","pt":"Goicoechea","nl":"Goicoechea","hr":"Goicoechea","fa":"گویکوکئا","de":"Goicoechea","es":"Goicoechea","fr":"Goicoechea","ja":"ゴイコエチェア","it":"Goicoechea","zh-CN":"戈伊科切亚","tr":"Goikoeke","ru":"Гойкоэчеа","uk":"Гойкоехея","pl":"Goicoechea","hi":"गोइकोएचिया","ar":"غويكوتشيا"}},{"name":"Granadilla","latitude":"9.93491000","longitude":"-84.01688000","native":"Granadilla","translations":{"br":"Granadilla","ko":"그라나딜라","pt-BR":"Granadilla","pt":"Granadilla","nl":"Granadilla","hr":"Granadilla","fa":"گرانادیلا","de":"Granadilla","es":"Granadilla","fr":"Grenadille","ja":"グラナディーラ","it":"Granadilla","zh-CN":"西番莲","tr":"Granadilla","ru":"Гранадилла","uk":"Гранаділла","pl":"Granadilla","hi":"ग्रेनाडिला","ar":"جراناديلا"}},{"name":"Guadalupe","latitude":"9.94805000","longitude":"-84.05665000","native":"Guadalupo","translations":{"br":"Gwadalupa","ko":"과달루페","pt-BR":"Guadalupe","pt":"Guadalupe","nl":"Guadalupe","hr":"Guadalupe","fa":"گوادالوپ","de":"Guadalupe","es":"Guadalupe","fr":"Guadalupe","ja":"グアダルーペ","it":"Guadalupe","zh-CN":"瓜达卢佩","tr":"Guadalupe","ru":"Гваделупе","uk":"Гваделупе","pl":"Gwadelupa","hi":"GUADALUPE","ar":"غوادالوبي"}},{"name":"Ipís","latitude":"9.96745000","longitude":"-84.01326000","native":"Ipís","translations":{"br":"Ipís","ko":"이피스","pt-BR":"Ipís","pt":"Ipís","nl":"Ipís","hr":"Ipís","fa":"ایپیس","de":"Ipís","es":"Ipís","fr":"Ipis","ja":"イピス","it":"Ipis","zh-CN":"伊皮斯","tr":"Ipis","ru":"Ипис","uk":"Іпіс","pl":"Ipís","hi":"IPIS","ar":"إيبيس"}},{"name":"León Cortés","latitude":"9.68300000","longitude":"-84.04781000","native":"León Cortés","translations":{"br":"León Cortés","ko":"레온 코르테스","pt-BR":"León Cortés","pt":"León Cortés","nl":"Leon Cortés","hr":"León Cortés","fa":"لئون کورتس","de":"León Cortés","es":"León Cortés","fr":"Léon Cortés","ja":"レオン・コルテス","it":"León Cortés","zh-CN":"莱昂·科尔特斯","tr":"León Cortés","ru":"Леон Кортес","uk":"Леон Кортес","pl":"Leon Cortés","hi":"लियोन कॉर्टेस","ar":"ليون كورتيس"}},{"name":"Mercedes","latitude":"9.26270000","longitude":"-83.58202000","native":"Mercedes","translations":{"br":"Mercedes","ko":"메르세데스","pt-BR":"Mercedes","pt":"Mercedes","nl":"Mercedes","hr":"mercedes","fa":"مرسدس","de":"Mercedes","es":"Mercedes","fr":"Mercedes","ja":"メルセデス","it":"Mercedes","zh-CN":"梅赛德斯","tr":"Mercedes","ru":"Мерседес","uk":"Мерседес","pl":"Mercedes","hi":"मर्सिडीज","ar":"مرسيدس"}},{"name":"Montes de Oca","latitude":"9.93960000","longitude":"-84.03013000","native":"Montes de Oca","translations":{"br":"Menezioù Oka","ko":"몬테스 데 오카","pt-BR":"Montes de Oca","pt":"Montes de Oca","nl":"Montes de Oca","hr":"Montes de Oca","fa":"مونتس د اوکا","de":"Montes de Oca","es":"Montes de Oca","fr":"Montes de Oca","ja":"モンテス・デ・オカ","it":"Monti di Oca","zh-CN":"蒙特斯德奥卡","tr":"Montes de Oca","ru":"Монтес-де-Ока","uk":"Монтес-де-Ока","pl":"Góry Oca","hi":"मोंटेस डी ओका","ar":"مونتيس دي أوكا"}},{"name":"Mora","latitude":"9.91667000","longitude":"-84.25000000","native":"Mora","translations":{"br":"Mora","ko":"모라","pt-BR":"Mora","pt":"Mora","nl":"Mora","hr":"Mora","fa":"مورا","de":"Mora","es":"Mora","fr":"Mora","ja":"モラ","it":"Mora","zh-CN":"猜拳","tr":"Mora","ru":"Мора","uk":"Мора","pl":"Mora","hi":"मोरा","ar":"مورا"}},{"name":"Moravia","latitude":"10.04000000","longitude":"-84.00000000","native":"Moravia","translations":{"br":"Moravia","ko":"모라비아","pt-BR":"Morávia","pt":"Morávia","nl":"Moravië","hr":"Moravska","fa":"موراویا","de":"Mähren","es":"Moravia","fr":"Moravie","ja":"モラビア","it":"Moravia","zh-CN":"摩拉维亚","tr":"Moravya","ru":"Моравия","uk":"Моравія","pl":"Morawia","hi":"मोराविया","ar":"مورافيا"}},{"name":"Palmichal","latitude":"9.83778000","longitude":"-84.20478000","native":"Palmichal","translations":{"br":"Palmikal","ko":"팔미칼","pt-BR":"Palmichal","pt":"Palmichal","nl":"Palmichal","hr":"Palmichal","fa":"پالمیچال","de":"Palmichal","es":"Palmichal","fr":"Palmichal","ja":"パルミチャル","it":"Palmichal","zh-CN":"帕尔米查尔","tr":"Palmiye","ru":"Пальмихал","uk":"Палмічал","pl":"Palmichal","hi":"पामिचल","ar":"بالميشال"}},{"name":"Patarrá","latitude":"9.88071000","longitude":"-84.03501000","native":"Patarrá","translations":{"br":"Patarrá","ko":"파타라","pt-BR":"Patarrá","pt":"Patarrá","nl":"Patarrá","hr":"Patarrá","fa":"پاتارا","de":"Patarrá","es":"Patarrá","fr":"Patarrá","ja":"パタラ","it":"Patarra","zh-CN":"帕塔拉","tr":"Patarrá","ru":"Патарра","uk":"Патарра","pl":"Patarra","hi":"पटारा","ar":"باتارا"}},{"name":"Pérez Zeledón","latitude":"9.35473000","longitude":"-83.63484000","native":"Pérez Zeledón","translations":{"br":"Pérez Zeledón","ko":"페레스 젤레돈","pt-BR":"Pérez Zeledón","pt":"Pérez Zeledón","nl":"Pérez Zeledón","hr":"Pérez Zeledón","fa":"پرز زلدون","de":"Pérez Zeledón","es":"Pérez Zeledón","fr":"Pérez Zeledón","ja":"ペレス・セレドン","it":"Pérez Zeledón","zh-CN":"佩雷斯·泽莱东","tr":"Pérez Zeledón","ru":"Перес Селедон","uk":"Перес Селедон","pl":"Pérez Zeledón","hi":"पेरेज़ ज़ेलेडोन","ar":"بيريز زيليدون"}},{"name":"Puriscal","latitude":"9.75000000","longitude":"-84.41667000","native":"Puriscal","translations":{"br":"Puriskal","ko":"퓨리스칼","pt-BR":"Puriscal","pt":"Puriscal","nl":"Puriscal","hr":"Puriski","fa":"پوریسک","de":"Puriscal","es":"Puriscal","fr":"Puriscal","ja":"プリスカル","it":"Puriscal","zh-CN":"普里斯卡尔","tr":"Puriscal","ru":"Пурискаль","uk":"Пуріскаль","pl":"Puriscal","hi":"प्यूरिसकल","ar":"بوريسكال"}},{"name":"Purral","latitude":"9.95808000","longitude":"-84.03050000","native":"Pural","translations":{"br":"Purral","ko":"퍼랄","pt-BR":"Purral","pt":"Purral","nl":"Purral","hr":"Purral","fa":"پورال","de":"Purral","es":"Ronroneo","fr":"Purral","ja":"パーラル","it":"Purral","zh-CN":"普拉尔","tr":"Mırıltı","ru":"Пурраль","uk":"Пуррал","pl":"Mruczenie","hi":"पूररल","ar":"بورال"}},{"name":"Sabanilla","latitude":"9.94522000","longitude":"-84.03927000","native":"Sabanilla","translations":{"br":"Sabanilla","ko":"사바닐라","pt-BR":"Sabanilla","pt":"Sabanilla","nl":"Sabanilla","hr":"Sabanilla","fa":"سابانیلا","de":"Sabanilla","es":"Sabanilla","fr":"Sabanilla","ja":"サバニラ","it":"Sabanilla","zh-CN":"萨巴尼拉","tr":"Sabanilla","ru":"Сабанилья","uk":"Сабанілья","pl":"Sabanilla","hi":"सबनिल्ला","ar":"سابانيلا"}},{"name":"Salitral","latitude":"9.91163000","longitude":"-84.17835000","native":"Salitral","translations":{"br":"Salitral","ko":"살리트랄","pt-BR":"Salitral","pt":"Salitral","nl":"Salitral","hr":"Salitral","fa":"سالیترال","de":"Salitral","es":"Salitral","fr":"Salitral","ja":"サリトラル","it":"Salitral","zh-CN":"萨利特拉尔","tr":"Salitral","ru":"Салитраль","uk":"Салітрал","pl":"Salitral","hi":"सैलिट्रल","ar":"ساليترال"}},{"name":"Salitrillos","latitude":"9.85259000","longitude":"-84.09062000","native":"Salitrillos","translations":{"br":"Salitrillos","ko":"살리트릴로스","pt-BR":"Salitrillos","pt":"Salitrillos","nl":"Zoutwater","hr":"Salitrillos","fa":"سالیتریلوس","de":"Salitrillos","es":"Salitrillos","fr":"Salitrillos","ja":"サリトリロス","it":"Salitrillos","zh-CN":"萨利特里洛斯","tr":"Salitrillos","ru":"Салитрильос","uk":"Салітрільйос","pl":"Salitillos","hi":"सैलिट्रिलोस","ar":"ساليتريلوس"}},{"name":"San Felipe","latitude":"9.90488000","longitude":"-84.10551000","native":"San Felipe","translations":{"br":"San Felipe","ko":"산 펠리페","pt-BR":"São Felipe","pt":"São Felipe","nl":"San Felipe","hr":"San Felipe","fa":"سن فیلیپه","de":"San Felipe","es":"San Felipe","fr":"San Felipe","ja":"サンフェリペ","it":"San Filippo","zh-CN":"圣费利佩","tr":"San Felipe","ru":"Сан-Фелипе","uk":"Сан-Феліпе","pl":"Święty Felipe","hi":"सैन फ़ेलिप","ar":"سان فيليبي"}},{"name":"San Ignacio","latitude":"9.79853000","longitude":"-84.16173000","native":"San Ignacio","translations":{"br":"San Ignacio","ko":"산 이그나시오","pt-BR":"Santo Inácio","pt":"Santo Inácio","nl":"San Ignacio","hr":"San Ignacio","fa":"سن ایگناسیو","de":"San Ignacio","es":"San Ignacio","fr":"Saint Ignacio","ja":"サン・イグナシオ","it":"San Ignacio","zh-CN":"圣伊格纳西奥","tr":"San Ignacio","ru":"Сан-Игнасио","uk":"Сан-Ігнасіо","pl":"San Ignacio","hi":"सैन इग्नासियो","ar":"سان إجناسيو"}},{"name":"San Isidro","latitude":"9.36740000","longitude":"-83.69713000","native":"San Isidro","translations":{"br":"San Isidro","ko":"산 이시드로","pt-BR":"São Isidro","pt":"São Isidro","nl":"San Isidro","hr":"San Isidro","fa":"سان ایسیدرو","de":"San Isidro","es":"San Isidro","fr":"San Isidro","ja":"サン・イシドロ","it":"San Isidro","zh-CN":"圣伊西德罗","tr":"San Isidro","ru":"Сан-Исидро","uk":"Сан-Ісідро","pl":"Święty Izydor","hi":"सैन इसिड्रो","ar":"سان إيسيدرو"}},{"name":"San José","latitude":"9.93333000","longitude":"-84.08333000","native":"San José","translations":{"br":"San José","ko":"산호세","pt-BR":"São José","pt":"São José","nl":"San José","hr":"San José","fa":"سن خوزه","de":"San José","es":"San José","fr":"San José","ja":"サンホセ","it":"San José","zh-CN":"圣何塞","tr":"San Jose","ru":"Сан-Хосе","uk":"Сан-Хосе","pl":"San Jose","hi":"सैन होज़े","ar":"سان خوسيه"}},{"name":"San Juan","latitude":"9.95974000","longitude":"-84.08165000","native":"San Juan","translations":{"br":"San Juan","ko":"산후안","pt-BR":"São João","pt":"São João","nl":"San Juan","hr":"San Juan","fa":"سن خوان","de":"San Juan","es":"San Juan","fr":"San Juan","ja":"サンファン","it":"San Juan","zh-CN":"圣胡安","tr":"San Juan","ru":"Сан-Хуан","uk":"Сан-Хуан","pl":"San Juan","hi":"सहन जुआन","ar":"سان خوان"}},{"name":"San Juan de Dios","latitude":"9.87730000","longitude":"-84.08470000","native":"San Juan de Dios","translations":{"br":"San Juan de Dios","ko":"산 후안 데 디오스","pt-BR":"São João de Deus","pt":"São João de Deus","nl":"San Juan de Dios","hr":"San Juan de Dios","fa":"سن خوان د دیوس","de":"San Juan de Dios","es":"San Juan de Dios","fr":"Saint Jean de Dieu","ja":"サン・ファン・デ・ディオス","it":"San Juan de Dios","zh-CN":"圣胡安德迪奥斯","tr":"San Juan de Dios","ru":"Сан-Хуан-де-Диос","uk":"Сан-Хуан-де-Діос","pl":"San Juan de Dios","hi":"सैन जुआन डे डिओस","ar":"سان خوان دي ديوس"}},{"name":"San Marcos","latitude":"9.66010000","longitude":"-84.02026000","native":"San Marcos","translations":{"br":"San Marcos","ko":"샌마르코스","pt-BR":"São Marcos","pt":"São Marcos","nl":"San Marcos","hr":"San Marcos","fa":"سن مارکوس","de":"San Marcos","es":"San Marcos","fr":"San Marcos","ja":"サンマルコス","it":"San Marcos","zh-CN":"圣马科斯","tr":"San Marcos","ru":"Сан-Маркос","uk":"Сан-Маркос","pl":"San Marcos","hi":"सैन मार्कोस","ar":"سان ماركوس"}},{"name":"San Miguel","latitude":"9.87121000","longitude":"-84.06084000","native":"San Miguel","translations":{"br":"San Miguel","ko":"산 미구엘","pt-BR":"São Miguel","pt":"São Miguel","nl":"San Miguel","hr":"San Miguel","fa":"سن میگل","de":"San Miguel","es":"San Miguel","fr":"San Miguel","ja":"サンミゲル","it":"San Miguel","zh-CN":"圣米格尔","tr":"San Miguel","ru":"Сан-Мигель","uk":"Сан-Мігель","pl":"San Miguel","hi":"सैन मिगुएल","ar":"سان ميغيل"}},{"name":"San Pedro","latitude":"9.92829000","longitude":"-84.05074000","native":"San Pedro","translations":{"br":"San Pedro","ko":"산 페드로","pt-BR":"São Pedro","pt":"São Pedro","nl":"San Pedro","hr":"San Pedro","fa":"سن پدرو","de":"San Pedro","es":"San Pedro","fr":"San Pedro","ja":"サンペドロ","it":"San Pedro","zh-CN":"圣佩德罗","tr":"San Pedro","ru":"Сан-Педро","uk":"Сан-Педро","pl":"Święty Pedro","hi":"सैन पेड्रो","ar":"سان بيدرو"}},{"name":"San Rafael","latitude":"9.92787000","longitude":"-84.13722000","native":"San Rafael","translations":{"br":"San Rafael","ko":"산 라파엘","pt-BR":"São Rafael","pt":"São Rafael","nl":"San Rafael","hr":"San Rafael","fa":"سن رافائل","de":"San Rafael","es":"San Rafael","fr":"San Rafael","ja":"サンラファエル","it":"San Rafael","zh-CN":"圣拉斐尔","tr":"San Rafael","ru":"Сан-Рафаэль","uk":"Сан-Рафаель","pl":"San Rafael","hi":"सैन राफेल","ar":"سان رافائيل"}},{"name":"San Rafael Abajo","latitude":"9.83100000","longitude":"-84.29008000","native":"San Rafael Abajo","translations":{"br":"San Rafael Abajo","ko":"산 라파엘 아바호","pt-BR":"São Rafael Abajo","pt":"São Rafael Abajo","nl":"San Rafael Abajo","hr":"San Rafael Abajo","fa":"سن رافائل آباخو","de":"San Rafael Abajo","es":"San Rafael Abajo","fr":"San Rafael Abajo","ja":"サン・ラファエル・アバホ","it":"San Rafael Abajo","zh-CN":"圣拉斐尔阿巴霍","tr":"San Rafael Abajo","ru":"Сан-Рафаэль-Абахо","uk":"Сан-Рафаель Абахо","pl":"San Rafael Abajo","hi":"सैन राफेल अबाजो","ar":"سان رافائيل أباجو"}},{"name":"San Rafael Arriba","latitude":"9.87556000","longitude":"-84.07661000","native":"San Rafael Arriba","translations":{"br":"San Rafael Arriba","ko":"산 라파엘 아리바","pt-BR":"São Rafael Arriba","pt":"São Rafael Arriba","nl":"San Rafael Arriba","hr":"San Rafael Arriba","fa":"سن رافائل آریبا","de":"San Rafael Arriba","es":"San Rafael Arriba","fr":"San Rafael Arriba","ja":"サン・ラファエル・アリバ","it":"San Rafael Arriba","zh-CN":"圣拉斐尔阿里巴","tr":"San Rafael Arriba","ru":"Сан-Рафаэль-Арриба","uk":"Сан-Рафаель Арріба","pl":"San Rafael Arriba","hi":"सैन राफेल अरीबा","ar":"سان رافائيل أريبا"}},{"name":"San Vicente","latitude":"9.96016000","longitude":"-84.04762000","native":"San Vicente","translations":{"br":"San Visente","ko":"산 비센테","pt-BR":"São Vicente","pt":"São Vicente","nl":"San Vicente","hr":"San Vicente","fa":"سن ویسنته","de":"San Vicente","es":"San Vicente","fr":"Saint-Vincent","ja":"サン・ビセンテ","it":"San Vicente","zh-CN":"圣维森特","tr":"San Vicente","ru":"Сан-Висенте","uk":"Сан-Вісенте","pl":"Święty Vicente","hi":"सैन विसेंट","ar":"سان فيسينتي"}},{"name":"San Vicente de Moravia","latitude":"9.96164000","longitude":"-84.04880000","native":"San Vicente de Moravia","translations":{"br":"San Vicente de Moravia","ko":"산 비센테 데 모라비아","pt-BR":"São Vicente da Morávia","pt":"São Vicente da Morávia","nl":"San Vicente de Moravië","hr":"San Vicente de Moravia","fa":"سن ویسنته د موراویا","de":"San Vicente de Moravia","es":"San Vicente de Moravia","fr":"San Vicente de Moravia","ja":"サン・ビセンテ・デ・モラビア","it":"San Vicente de Moravia","zh-CN":"圣维森特-德摩拉维亚","tr":"San Vicente de Moravia","ru":"Сан-Висенте-де-Моравия","uk":"Сан-Вісенте-де-Моравія","pl":"San Vicente de Moravia","hi":"सैन विसेंट डे मोराविया","ar":"سان فيسينتي دي مورافيا"}},{"name":"Santa Ana","latitude":"9.93260000","longitude":"-84.18255000","native":"Santa Ana","translations":{"br":"Santa Ana","ko":"산타 아나","pt-BR":"Santa Ana","pt":"Santa Ana","nl":"Santa Ana","hr":"Santa Ana","fa":"سانتا آنا","de":"Santa Ana","es":"Santa Ana","fr":"Santa Ana","ja":"サンタアナ","it":"Santa Ana","zh-CN":"圣安娜","tr":"Santa Ana","ru":"Санта-Ана","uk":"Санта-Ана","pl":"Święta Ana","hi":"सांता ऐना","ar":"سانتا آنا"}},{"name":"Santiago","latitude":"9.84636000","longitude":"-84.31428000","native":"Santiago","translations":{"br":"Santiago","ko":"산티아고","pt-BR":"Santiago","pt":"Santiago","nl":"Santiago","hr":"Santiago","fa":"سانتیاگو","de":"Santiago","es":"Santiago","fr":"Santiago","ja":"サンティアゴ","it":"Santiago","zh-CN":"圣地亚哥","tr":"Santiago","ru":"Сантьяго","uk":"Сантьяго","pl":"Santiago","hi":"सेंटियागो","ar":"سانتياغو"}},{"name":"Tarrazú","latitude":"9.65965000","longitude":"-84.02138000","native":"Trazzur","translations":{"br":"Tarrazú","ko":"타라수","pt-BR":"Tarrazú","pt":"Tarrazú","nl":"Tarrazú","hr":"Tarrazú","fa":"تارازو","de":"Tarrazú","es":"Tarrazú","fr":"Tarrazú","ja":"タラス","it":"Tarrazú","zh-CN":"塔拉苏","tr":"Tarrazú","ru":"Таррасу","uk":"Таррасу","pl":"Tarrazú","hi":"Tarrazu","ar":"تارازو"}},{"name":"Tejar","latitude":"9.74622000","longitude":"-84.23368000","native":"Tejar","translations":{"br":"Tejar","ko":"테하르","pt-BR":"Tejar","pt":"Tejar","nl":"Tejar","hr":"Tejar","fa":"تاجر","de":"Tejar","es":"Tejar","fr":"Tejar","ja":"テジャール","it":"Tejar","zh-CN":"特哈尔","tr":"Tejar","ru":"Теджар","uk":"Техар","pl":"Tejar","hi":"तेजार","ar":"تيجار"}},{"name":"Tibás","latitude":"9.96667000","longitude":"-84.08333000","native":"Tibás","translations":{"br":"Tibás","ko":"티바스","pt-BR":"Tibás","pt":"Tibás","nl":"Tibás","hr":"Tibás","fa":"تیباس","de":"Tibás","es":"Tibás","fr":"Tibás","ja":"ティバス","it":"Tibás","zh-CN":"蒂巴斯","tr":"Tibás","ru":"Тибас","uk":"Тібас","pl":"Tibás","hi":"तिबास","ar":"تيباس"}},{"name":"Turrubares","latitude":"9.75000000","longitude":"-84.50000000","native":"TURRUBARES","translations":{"br":"Turrubares","ko":"투루바레스","pt-BR":"Turrubares","pt":"Turrubares","nl":"Turrubares","hr":"Turrubares","fa":"توروبارز","de":"Turrubares","es":"Turrubares","fr":"Turrubares","ja":"トゥルバレス","it":"Turrubares","zh-CN":"图鲁巴雷斯","tr":"Turrubares","ru":"Туррубарес","uk":"Туррубарес","pl":"Turrubares","hi":"तुरुबारेस","ar":"توروباريس"}},{"name":"Vázquez de Coronado","latitude":"10.06000000","longitude":"-84.00000000","native":"Vázquez de Coronado","translations":{"br":"Vázquez de Coronado","ko":"바스케스 데 코로나도","pt-BR":"Vázquez de Coronado","pt":"Vázquez de Coronado","nl":"Vázquez de Coronado","hr":"Vázquez de Coronado","fa":"وازکز دِ کورونادو","de":"Vázquez de Coronado","es":"Vázquez de Coronado","fr":"Vázquez de Coronado","ja":"バスケス・デ・コロナド","it":"Vázquez de Coronado","zh-CN":"巴斯克斯·德·科罗纳多","tr":"Vázquez de Coronado","ru":"Васкес де Коронадо","uk":"Васкес де Коронадо","pl":"Vázquez de Coronado","hi":"वाज़क्वेज़ डी कोरोनाडो","ar":"فاسكيز دي كورونادو"}}]}]}