{"code":"DE","states":[{"name":"Baden-Württemberg","state_code":"BW","latitude":"48.66160370","longitude":"9.35013360","cities":[{"name":"Aach","latitude":"47.84240000","longitude":"8.85384000","native":"Aach","translations":{"br":"Aach","ko":"아치","pt-BR":"Aach","pt":"Aach","nl":"Aach","hr":"Aach","fa":"آخ","de":"Aach","es":"Aach","fr":"Aach","ja":"アーチ","it":"Aach","zh-CN":"阿赫","tr":"Aach","ru":"Аах","uk":"Аах","pl":"Aach","hi":"आच","ar":"آخ","hy":"Աախ"}},{"name":"Aalen","latitude":"48.83777000","longitude":"10.09330000","native":"Aalen","translations":{"br":"Aalen","ko":"알렌","pt-BR":"Aalen","pt":"Aalen","nl":"Aalen","hr":"Aalen","fa":"آلن","de":"Aalen","es":"Aalen","fr":"Aalen","ja":"アーレン","it":"Aalen","zh-CN":"阿伦","tr":"Aalen","ru":"Аален","uk":"Аален","pl":"Aalen","hi":"आलेन","ar":"آلين","hy":"Աալեն"}},{"name":"Abstatt","latitude":"49.06820000","longitude":"9.29070000","native":"ABSTATT","translations":{"br":"Abstatt","ko":"압슈타트","pt-BR":"Abstatt","pt":"Abstatt","nl":"Abstatt","hr":"Abstatt","fa":"آبستات","de":"Abstatt","es":"Abstatt","fr":"Abstatt","ja":"アプシュタット","it":"Abstatt","zh-CN":"阿布斯塔特","tr":"Abstatt","ru":"Абштатт","uk":"Абштатт","pl":"Abstatt","hi":"एबस्टैट","ar":"أبستات","hy":"Աբստատ"}},{"name":"Abtsgmünd","latitude":"48.89503000","longitude":"10.00172000","native":"ABTSGMUnd","translations":{"br":"Abtsgmünd","ko":"압츠그뮌트","pt-BR":"Abtsgmünd","pt":"Abtsgmünd","nl":"Abtsgmünd","hr":"Abtsgmünd","fa":"آبتسگموند","de":"Abtsgmünd","es":"Abtsgmünd","fr":"Abtsgmünd","ja":"アプトグミュント","it":"Abtsgmünd","zh-CN":"阿布茨格明德","tr":"Abtsgmünd","ru":"Абтсгмюнд","uk":"Абтсгмюнд","pl":"Abtsgmünd","hi":"एबट्सगमुंड","ar":"أبتسغموند","hy":"Աբցգմյունդ"}},{"name":"Achern","latitude":"48.63115000","longitude":"8.07607000","native":"Achern","translations":{"br":"Achern","ko":"아케른","pt-BR":"Achern","pt":"Achern","nl":"Achern","hr":"Achern","fa":"آخرن","de":"Achern","es":"Achern","fr":"Achern","ja":"アチャーン","it":"Achern","zh-CN":"阿赫恩","tr":"Achern","ru":"Ахерн","uk":"Ахерн","pl":"Achern","hi":"एचर्न","ar":"أخرن","hy":"Ախեռն"}},{"name":"Achstetten","latitude":"48.25886000","longitude":"9.89748000","native":"Achstetten","translations":{"br":"Achstetten","ko":"악스테텐","pt-BR":"Achstetten","pt":"Achstetten","nl":"Achstetten","hr":"Achstetten","fa":"آختتن","de":"Achstetten","es":"Achstetten","fr":"Achstetten","ja":"アハシュテッテン","it":"Achstetten","zh-CN":"阿赫施泰滕","tr":"Achstetten","ru":"Ахштеттен","uk":"Ахштеттен","pl":"Achstetten","hi":"आचस्टेटन","ar":"أشتيتن","hy":"Ախշտետեն"}},{"name":"Adelberg","latitude":"48.76227000","longitude":"9.59991000","native":"Adelberg","translations":{"br":"Adelberg","ko":"아델버그","pt-BR":"Adelberg","pt":"Adelberg","nl":"Adelberg","hr":"Adelberg","fa":"آدلبرگ","de":"Adelberg","es":"Adelberg","fr":"Adelberg","ja":"アデルバーグ","it":"Adelberg","zh-CN":"阿德尔贝格","tr":"Adelberg","ru":"Адельберг","uk":"Адельберг","pl":"Adelberg","hi":"एडेलबर्ग","ar":"أدلبيرج","hy":"Ադելբերգ"}},{"name":"Adelmannsfelden","latitude":"48.95476000","longitude":"10.00466000","native":"Adelmannsfeld","translations":{"br":"Adelmannsfelden","ko":"아델만스펠덴","pt-BR":"Adelmannsfelden","pt":"Adelmannsfelden","nl":"Adelmannsfelden","hr":"Adelmannsfelden","fa":"آدلمانسفلدِن","de":"Adelmannsfelden","es":"Adelmannsfelden","fr":"Adelmannsfelden","ja":"アデルマンスフェルデン","it":"Adelmannsfelden","zh-CN":"阿德尔曼斯费尔登","tr":"Adelmannsfelden","ru":"Адельманнсфельден","uk":"Адельманнсфельден","pl":"Adelmannsfelden","hi":"एडेलमैन्सफेल्डेन","ar":"أدلمانسفيلدن","hy":"Ադելմաննսֆելդեն"}},{"name":"Adelsheim","latitude":"49.40150000","longitude":"9.39250000","native":"Adelsheim","translations":{"br":"Adelsheim","ko":"아델스하임","pt-BR":"Adelsheim","pt":"Adelsheim","nl":"Adelsheim","hr":"Adelsheim","fa":"آدلشایم","de":"Adelsheim","es":"Adelsheim","fr":"Adelsheim","ja":"アデルスハイム","it":"Adelsheim","zh-CN":"阿德尔斯海姆","tr":"Adelsheim","ru":"Адельсхайм","uk":"Адельсхайм","pl":"Adelsheim","hi":"एडेल्सहाइम","ar":"أديلشيم","hy":"Ադելշհայմ"}},{"name":"Affalterbach","latitude":"48.92267000","longitude":"9.32362000","native":"Affalterbach","translations":{"br":"Affalterbach","ko":"아팔터바흐","pt-BR":"Affalterbach","pt":"Affalterbach","nl":"Affalterbach","hr":"Affalterbach","fa":"آفالترباخ","de":"Affalterbach","es":"Affalterbach","fr":"Affalterbach","ja":"アッファルターバッハ","it":"Affalterbach","zh-CN":"阿法尔特巴赫","tr":"Affalterbach","ru":"Аффальтербах","uk":"Аффальтербах","pl":"Affalterbach","hi":"अफ़ाल्टरबाक","ar":"أفالترباخ","hy":"Աֆալտերբախ"}},{"name":"Aglasterhausen","latitude":"49.35694000","longitude":"8.98694000","native":"Aglasterhausen","translations":{"br":"Aglasterhausen","ko":"아글라스터하우젠","pt-BR":"Aglasterhausen","pt":"Aglasterhausen","nl":"Agasterhausen","hr":"Aglasterhausen","fa":"آگلاسترهاوزن","de":"Aglasterhausen","es":"Aglasterhausen","fr":"Aglasterhausen","ja":"アグラスターハウゼン","it":"Aglasterhausen","zh-CN":"阿格拉斯特豪森","tr":"Aglasterhausen","ru":"Агластерхаузен","uk":"Агластерхаузен","pl":"Aglasterhausen","hi":"एग्लास्टरहौसेन","ar":"أغلاسترهاوزن","hy":"Աղլաստերհաուսեն"}},{"name":"Aichelberg","latitude":"48.63557000","longitude":"9.56373000","native":"Aichelberg","translations":{"br":"Aichelberg","ko":"아이첼베르크","pt-BR":"Aichelberg","pt":"Aichelberg","nl":"Aichelberg","hr":"Aichelberg","fa":"آیشلبرگ","de":"Aichelberg","es":"Aichelberg","fr":"Aichelberg","ja":"アイヒェルベルグ","it":"Aichelberg","zh-CN":"艾歇尔贝格","tr":"Aichelberg","ru":"Айхельберг","uk":"Айхельберг","pl":"Aichelberg","hi":"आइचेलबर्ग","ar":"أيشلبيرج","hy":"Այխելբերգ"}},{"name":"Aichhalden","latitude":"48.26719000","longitude":"8.40233000","native":"Aichhalden","translations":{"br":"Aichhalden","ko":"아이할덴","pt-BR":"Aichhalden","pt":"Aichhalden","nl":"Aichhalden","hr":"Aichhalden","fa":"آیچهالدن","de":"Aichhalden","es":"Aichhalden","fr":"Aichhalden","ja":"アイヒハルデン","it":"Aichhalden","zh-CN":"艾希哈尔登","tr":"Aichhalden","ru":"Айххальден","uk":"Айхгальден","pl":"Aichhalden","hi":"ऐचहाल्डेन","ar":"أيخالدن","hy":"Այխհալդեն"}},{"name":"Aichstetten","latitude":"47.89295000","longitude":"10.07837000","native":"Aichstetten","translations":{"br":"Aichstetten","ko":"아이히슈테텐","pt-BR":"Aichstetten","pt":"Aichstetten","nl":"Aichstetten","hr":"Aichstetten","fa":"آیشتتن","de":"Aichstetten","es":"Aichstetten","fr":"Aichstetten","ja":"アイヒシュテッテン","it":"Aichstetten","zh-CN":"艾希施泰滕","tr":"Aichstetten","ru":"Айхштеттен","uk":"Айхштеттен","pl":"Aichstetten","hi":"ऐचस्टेटन","ar":"أيشتيتن","hy":"Այխշտետեն"}},{"name":"Aidlingen","latitude":"48.67849000","longitude":"8.89524000","native":"Adiling","translations":{"br":"Aidlingen","ko":"아이들링겐","pt-BR":"Aidlingen","pt":"Aidlingen","nl":"Aidlingen","hr":"Aidlingen","fa":"آیدلینگن","de":"Aidlingen","es":"Aidlingen","fr":"Aidlingen","ja":"アイドリンゲン","it":"Aidlingen","zh-CN":"艾德林根","tr":"Aidlingen","ru":"Айдлинген","uk":"Айдлінген","pl":"Aidlingen","hi":"ऐडलिंगन","ar":"أيدلينجن","hy":"Այդլինգեն"}},{"name":"Aitrach","latitude":"47.93333000","longitude":"10.08333000","native":"Wenig","translations":{"br":"Aitrach","ko":"아이트라흐","pt-BR":"Aitrach","pt":"Aitrach","nl":"Aitrach","hr":"Aitrach","fa":"آیتراک","de":"Aitrach","es":"Aitrach","fr":"Aitrach","ja":"アイトラハ","it":"Aitrach","zh-CN":"艾特拉赫","tr":"Aitrach","ru":"Айтрах","uk":"Айтрах","pl":"Aitrach","hi":"ऐट्राच","ar":"أيتراك","hy":"Այտրախ"}},{"name":"Albbruck","latitude":"47.59077000","longitude":"8.12954000","native":"Albbruck","translations":{"br":"Albbruck","ko":"알브브뤼크","pt-BR":"Albbruck","pt":"Albbruck","nl":"Albbruck","hr":"Albruck","fa":"آلبروک","de":"Albbruck","es":"Albbruck","fr":"Albbruck","ja":"アルブルック","it":"Albbruck","zh-CN":"阿尔布鲁克","tr":"Albbruck","ru":"Альбрук","uk":"Альбрук","pl":"Albbruck","hi":"अल्बब्रुक","ar":"ألبراك","hy":"Աղբբրուկ"}},{"name":"Albershausen","latitude":"48.69136000","longitude":"9.56493000","native":"Albershausen","translations":{"br":"Albershausen","ko":"알버스하우젠","pt-BR":"Albershausen","pt":"Albershausen","nl":"Albershausen","hr":"Albershausen","fa":"آلبرشاوزن","de":"Albershausen","es":"Albershausen","fr":"Albershausen","ja":"アルバースハウゼン","it":"Albershausen","zh-CN":"阿尔伯斯豪森","tr":"Albershausen","ru":"Альберсхаузен","uk":"Альберсхаузен","pl":"Albershausen","hi":"अल्बर्सहॉसन","ar":"ألبرسهاوزن","hy":"Աղբերշաուսեն"}},{"name":"Albstadt","latitude":"48.21644000","longitude":"9.02596000","native":"Albstadt","translations":{"br":"Albstadt","ko":"알브슈타트","pt-BR":"Albstadt","pt":"Albstadt","nl":"Albstadt","hr":"Albstadt","fa":"آلبشتات","de":"Albstadt","es":"Albstadt","fr":"Albstadt","ja":"アルプシュタット","it":"Albstadt","zh-CN":"阿尔布施塔特","tr":"Albstadt","ru":"Альбштадт","uk":"Альбштадт","pl":"Albstadt","hi":"अल्बस्टाट","ar":"ألبشتات","hy":"Աղբշտադտ"}},{"name":"Aldingen","latitude":"48.10000000","longitude":"8.70000000","native":"Alding","translations":{"br":"Aldingen","ko":"알딩겐","pt-BR":"Aldingen","pt":"Aldingen","nl":"Aldingen","hr":"Aldingen","fa":"آلدینگن","de":"Aldingen","es":"Aldingen","fr":"Aldingen","ja":"アルディンゲン","it":"Aldingen","zh-CN":"阿尔丁根","tr":"Aldingen","ru":"Альдинген","uk":"Альдінген","pl":"Aldingen","hi":"एल्डिंगन","ar":"ألدينجن","hy":"Ալդինգեն"}},{"name":"Alfdorf","latitude":"48.84385000","longitude":"9.71857000","native":"Alfdorf","translations":{"br":"Alfdorf","ko":"알프도르프","pt-BR":"Alfdorf","pt":"Alfdorf","nl":"Alfdorf","hr":"Alfdorf","fa":"آلدورف","de":"Alfdorf","es":"Alfdorf","fr":"Alfdorf","ja":"アルフドルフ","it":"Alfdorf","zh-CN":"阿尔道夫","tr":"Alfdorf","ru":"Альфдорф","uk":"Альфдорф","pl":"Alfdorf","hi":"अल्फडॉर्फ","ar":"ألفدورف","hy":"Ալֆդորֆ"}},{"name":"Allensbach","latitude":"47.71536000","longitude":"9.07145000","native":"Allensbach","translations":{"br":"Allensbach","ko":"알렌스바흐","pt-BR":"Allensbach","pt":"Allensbach","nl":"Allensbach","hr":"Allensbach","fa":"آلنسباخ","de":"Allensbach","es":"Allensbach","fr":"Allensbach","ja":"アレンスバッハ","it":"Allensbach","zh-CN":"阿伦斯巴赫","tr":"Allensbach","ru":"Алленсбах","uk":"Алленсбах","pl":"Allensbach","hi":"एलेन्सबाख","ar":"ألينسباخ","hy":"Ալենսբախ"}},{"name":"Allmendingen","latitude":"48.33052000","longitude":"9.72419000","native":"Die Öffentlichkeit","translations":{"br":"Allmendingen","ko":"알멘딩겐","pt-BR":"Allmendingen","pt":"Allmendingen","nl":"Allmendingen","hr":"Allmendingen","fa":"آلمندیگن","de":"Allmendingen","es":"Allmendingen","fr":"Allmendingen","ja":"アルメンディンゲン","it":"Allmendingen","zh-CN":"阿尔门丁根","tr":"Allmendingen","ru":"Альмендинген","uk":"Алльмендінген","pl":"Allmendingen","hi":"ऑलमेन्डिन्गेन","ar":"ألميندينجن","hy":"Աղմենդինգեն"}},{"name":"Allmersbach im Tal","latitude":"48.90659000","longitude":"9.46815000","native":"Allmersbach im Tal","translations":{"br":"Allmersbach im Tal","ko":"알머스바흐 임 탈","pt-BR":"Allmersbach no Tal","pt":"Allmersbach no Tal","nl":"Allmersbach im Tal","hr":"Allmersbach u Talu","fa":"آلمرزباخ ایم تال","de":"Allmersbach im Tal","es":"Allmersbach im Tal","fr":"Allmersbach im Tal","ja":"アルマースバッハ・イム・タール","it":"Allmersbach im Tal","zh-CN":"阿尔默斯巴赫","tr":"Allmersbach im Tal","ru":"Allmersbach im Tal","uk":"Алльмерсбах-ім-Таль","pl":"Allmersbach im Tal","hi":"ऑलमर्सबाक इम ताल","ar":"Allmersbach im Tal","hy":"Ալմերսբախ իմ Տալ"}},{"name":"Alpirsbach","latitude":"48.34507000","longitude":"8.40197000","native":"Alpirsbach","translations":{"br":"Alpirsbach","ko":"알피르스바흐","pt-BR":"Alpirsbach","pt":"Alpirsbach","nl":"Alpirsbach","hr":"Alpirsbach","fa":"آلپیرسباخ","de":"Alpirsbach","es":"Alpirsbach","fr":"Alpirsbach","ja":"アルピルスバッハ","it":"Alpirsbach","zh-CN":"阿尔皮尔斯巴赫","tr":"Alpirsbach","ru":"Альпирсбах","uk":"Альпірсбах","pl":"Alpirsbach","hi":"अल्पिरस्बाख","ar":"ألبيرسباخ","hy":"Ալպիրսբախ"}},{"name":"Altbach","latitude":"48.72268000","longitude":"9.38078000","native":"Altbach","translations":{"br":"Altbach","ko":"알트바흐","pt-BR":"Altbach","pt":"Altbach","nl":"Altbach","hr":"Altbach","fa":"آلتباخ","de":"Altbach","es":"Altbach","fr":"Altbach","ja":"アルトバッハ","it":"Altbach","zh-CN":"阿尔特巴赫","tr":"Altbach","ru":"Альтбах","uk":"Альтбах","pl":"Altbach","hi":"ऑल्टबैक","ar":"ألتباخ","hy":"Ալտբախ"}},{"name":"Altdorf","latitude":"48.63112000","longitude":"8.99626000","native":"Altdorf","translations":{"br":"Altdorf","ko":"알트도르프","pt-BR":"Altdorf","pt":"Altdorf","nl":"Altdorf","hr":"Altdorf","fa":"آلتدورف","de":"Altdorf","es":"Altdorf","fr":"Altdorf","ja":"アルトドルフ","it":"Altdorf","zh-CN":"阿尔特多夫","tr":"Altdorf","ru":"Альтдорф","uk":"Альтдорф","pl":"Altdorf","hi":"आल्टडॉर्फ़","ar":"ألتدورف","hy":"Ալտդորֆ"}},{"name":"Altenriet","latitude":"48.59140000","longitude":"9.22186000","native":"Altenriet","translations":{"br":"Altenriet","ko":"알텐리트","pt-BR":"Altenriet","pt":"Altenriet","nl":"Altenriet","hr":"Altenriet","fa":"آلتنرایت","de":"Altenriet","es":"Altenriet","fr":"Altenriet","ja":"アルテンリート","it":"Altenriet","zh-CN":"阿尔滕里特","tr":"Altenriet","ru":"Альтенриет","uk":"Альтенріт","pl":"Altenriet","hi":"अल्टेनरिएट","ar":"ألتنريت","hy":"Ալտենրիետ"}},{"name":"Altensteig","latitude":"48.58649000","longitude":"8.60395000","native":"Altensteig","translations":{"br":"Altensteig","ko":"알텐슈타이크","pt-BR":"Altensteig","pt":"Altensteig","nl":"Altensteig","hr":"Altensteig","fa":"آلتنشتایگ","de":"Altensteig","es":"Altensteig","fr":"Altensteig","ja":"アルテンシュタイク","it":"Altensteig","zh-CN":"阿尔滕施泰格","tr":"Altensteig","ru":"Альтенштайг","uk":"Альтенштайг","pl":"Altensteig","hi":"अल्टेनस्टिग","ar":"ألتنستايج","hy":"Ալտենստայգ"}},{"name":"Altes Lager","latitude":"48.41755000","longitude":"9.53606000","native":"Altes Lager","translations":{"br":"Altes Lager","ko":"알테스 라거","pt-BR":"Altes Lager","pt":"Altes Lager","nl":"Altes Lager","hr":"Stari lager","fa":"آلتس لاگر","de":"Altes Lager","es":"Cervecería antigua","fr":"Altes Lager","ja":"アルテス・ラガー","it":"Altes Lager","zh-CN":"老仓库","tr":"Altes Lager","ru":"Altes Lager","uk":"Старий лагер","pl":"Stare piwo","hi":"अल्टेस लेगर","ar":"بيرة ألتيس لاغر","hy":"Ալտես Լաղեր"}},{"name":"Althengstett","latitude":"48.72325000","longitude":"8.79434000","native":"Althengstett","translations":{"br":"Althengstett","ko":"알텡스테트","pt-BR":"Althengstett","pt":"Althengstett","nl":"Althengstett","hr":"Althengstett","fa":"آلتنگستت","de":"Althengstett","es":"Althengstett","fr":"Althengstett","ja":"アルテンステット","it":"Althengstett","zh-CN":"阿尔滕施泰特","tr":"Althengstett","ru":"Альтенгстетт","uk":"Альтенгштетт","pl":"Althengstett","hi":"अल्थेंगस्टेट","ar":"ألثينغستيت","hy":"Ալտհենգստետ"}},{"name":"Althütte","latitude":"48.91565000","longitude":"9.56984000","native":"Althütte","translations":{"br":"Althütte","ko":"알튀테","pt-BR":"Althütte","pt":"Althütte","nl":"Althütte","hr":"Althütte","fa":"آلتوته","de":"Althütte","es":"Althütte","fr":"Althütte","ja":"アルトヒュッテ","it":"Althütte","zh-CN":"阿尔图特","tr":"Althutte","ru":"Альтхютте","uk":"Альтютте","pl":"Althütte","hi":"अल्थुट्टे","ar":"ألتهوت","hy":"Ալտհյուտե"}},{"name":"Altlußheim","latitude":"49.30167000","longitude":"8.49917000","native":"Altlußheim","translations":{"br":"Altlußheim","ko":"알트루스하임","pt-BR":"Altlußheim","pt":"Altlußheim","nl":"Altlußheim","hr":"Altlußheim","fa":"آلتلوسهایم","de":"Altlußheim","es":"Altlußheim","fr":"Altlußheim","ja":"アルトルスハイム","it":"Altlußheim","zh-CN":"阿尔特吕斯海姆","tr":"Altlußheim","ru":"Альтлусхайм","uk":"Альтлусхайм","pl":"Altlußheim","hi":"Altlussheim","ar":"ألتلوسهايم","hy":"Ալտլուսհայմ"}},{"name":"Altshausen","latitude":"47.93333000","longitude":"9.53333000","native":"Altshausen","translations":{"br":"Altshausen","ko":"알트샤우젠","pt-BR":"Altshausen","pt":"Altshausen","nl":"Altshausen","hr":"Altshausen","fa":"آلتسهاوزن","de":"Altshausen","es":"Altshausen","fr":"Altshausen","ja":"アルトハウゼン","it":"Altshausen","zh-CN":"阿尔茨豪森","tr":"Altshausen","ru":"Альтсхаузен","uk":"Альтсхаузен","pl":"Altshausen","hi":"अल्टशौसेन","ar":"ألتسهاوزن","hy":"Ալտշաուսեն"}},{"name":"Amstetten","latitude":"48.57876000","longitude":"9.87388000","native":"Amstetten","translations":{"br":"Amstetten","ko":"암슈테텐","pt-BR":"Amstetten","pt":"Amstetten","nl":"Amstetten","hr":"Amstetten","fa":"آمستتن","de":"Amstetten","es":"Amstetten","fr":"Amstetten","ja":"アムシュテッテン","it":"Amstetten","zh-CN":"阿姆施泰滕","tr":"Amstetten","ru":"Амштеттен","uk":"Амштеттен","pl":"Amstetten","hi":"एम्सटेटन","ar":"أمستيتن","hy":"Ամստետեն"}},{"name":"Amtzell","latitude":"47.70000000","longitude":"9.75000000","native":"Amtzell","translations":{"br":"Amtzell","ko":"암첼","pt-BR":"Amtzell","pt":"Amtzell","nl":"Amtzell","hr":"Amtzell","fa":"آمتزل","de":"Amtzell","es":"Amtzell","fr":"Amtzell","ja":"アムツェル","it":"Amtzell","zh-CN":"阿姆泽尔","tr":"Amtzell","ru":"Амтцелл","uk":"Амтцелл","pl":"Amtzell","hi":"एमट्ज़ेल","ar":"أمتزيل","hy":"Ամցեղ"}},{"name":"Aspach","latitude":"48.96667000","longitude":"9.40000000","native":"Aspach","translations":{"br":"Aspach","ko":"아스파흐","pt-BR":"Aspach","pt":"Aspach","nl":"Aspach","hr":"Aspach","fa":"آسپاچ","de":"Aspach","es":"Aspach","fr":"Aspach","ja":"アスパッチ","it":"Aspach","zh-CN":"阿斯帕赫","tr":"Aspach","ru":"Аспах","uk":"Аспах","pl":"Aspach","hi":"एस्पाच","ar":"أسباخ","hy":"Ասպախ"}},{"name":"Asperg","latitude":"48.90525000","longitude":"9.13502000","native":"Asperg","translations":{"br":"Asperg","ko":"아스퍼그","pt-BR":"Asperg","pt":"Asperg","nl":"Asperg","hr":"Asperg","fa":"آسپرگ","de":"Asperg","es":"Asperg","fr":"Asperg","ja":"アスペルガー症候群","it":"Asperg","zh-CN":"阿斯伯格","tr":"Asperg","ru":"Асперг","uk":"Асперг","pl":"Zespół Asperga","hi":"एस्परग","ar":"أسبيرج","hy":"Ասպերգ"}},{"name":"Assamstadt","latitude":"49.42806000","longitude":"9.68611000","native":"Assamstadt","translations":{"br":"Assamstadt","ko":"아삼슈타트","pt-BR":"Assamstadt","pt":"Assamstadt","nl":"Assamstadt","hr":"Assamstadt","fa":"آسامشتات","de":"Assamstadt","es":"Assamstadt","fr":"Assamstadt","ja":"アッサムシュタット","it":"Assamstadt","zh-CN":"阿萨姆施塔特","tr":"Assamstadt","ru":"Ассамштадт","uk":"Ассамштадт","pl":"Assamstadt","hi":"असमस्टेड","ar":"أسامشتات","hy":"Ասամշտադտ"}},{"name":"Asselfingen","latitude":"48.52959000","longitude":"10.19166000","native":"Asselfingen","translations":{"br":"Asselfingen","ko":"아셀핑겐","pt-BR":"Asselfingen","pt":"Asselfingen","nl":"Asselfingen","hr":"Asselfingen","fa":"آسلفینگن","de":"Asselfingen","es":"Asselfingen","fr":"Asselfingen","ja":"アセルフィンゲン","it":"Asselfingen","zh-CN":"阿瑟尔芬根","tr":"Asselfingen","ru":"Ассельфинген","uk":"Ассельфінген","pl":"Asselfingen","hi":"अस्सेलफिंगेन","ar":"أسيلفينجن","hy":"Ասելֆինգեն"}},{"name":"Attenweiler","latitude":"48.13333000","longitude":"9.70000000","native":"Attenweiler","translations":{"br":"Attenweiler","ko":"아텐바일러","pt-BR":"Attenweiler","pt":"Attenweiler","nl":"Attenweiler","hr":"Attenweiler","fa":"اتنویلر","de":"Attenweiler","es":"Attenweiler","fr":"Attenweiler","ja":"アテンヴァイラー","it":"Attenweiler","zh-CN":"阿滕韦勒","tr":"Attenweiler","ru":"Аттенвайлер","uk":"Аттенвайлер","pl":"Attenweiler","hi":"एटेनवीलर","ar":"أتنويلر","hy":"Ատտենվայլեր"}},{"name":"Au","latitude":"47.95000000","longitude":"7.83333000","native":"Au","translations":{"br":"Au","ko":"오","pt-BR":"Au","pt":"Au","nl":"Au","hr":"Au","fa":"آو","de":"Au","es":"Au","fr":"Au","ja":"オー","it":"Au","zh-CN":"金","tr":"Au","ru":"Ау","uk":"Ау","pl":"Au","hi":"ए.यू","ar":"أو","hy":"Աու"}},{"name":"Au am Rhein","latitude":"48.95000000","longitude":"8.23333000","native":"Au am Rhein","translations":{"br":"Au am Rhein","ko":"아우 암 라인","pt-BR":"Au am Rhein","pt":"Au am Rhein","nl":"Au am Rhein","hr":"Au na Rajni","fa":"آو آم راین","de":"Au am Rhein","es":"En el Rin","fr":"Au am Rhein","ja":"アウ・アム・ライン","it":"Au am Rhein","zh-CN":"莱茵河畔","tr":"Au am Rhein","ru":"Ау-на-Рейне","uk":"Ау-на-Рейні","pl":"Au am Rhein","hi":"औ एम राइन","ar":"أو أم راين","hy":"Աու ամ Ռայն"}},{"name":"Auggen","latitude":"47.78333000","longitude":"7.60000000","native":"Auggen","translations":{"br":"Auggen","ko":"오겐","pt-BR":"Auggen","pt":"Auggen","nl":"Auggen","hr":"Auggen","fa":"آگگن","de":"Auggen","es":"Auggen","fr":"Auggen","ja":"アウゲン","it":"Auggen","zh-CN":"奥根","tr":"Auggen","ru":"Аугген","uk":"Аугген","pl":"Auggen","hi":"ऑग्गेन","ar":"أوغين","hy":"Աուգեն"}},{"name":"Aulendorf","latitude":"47.95083000","longitude":"9.63745000","native":"Aulendorf","translations":{"br":"Aulendorf","ko":"아울렌도르프","pt-BR":"Aulendorf","pt":"Aulendorf","nl":"Aulendorf","hr":"Aulendorf","fa":"آئولندورف","de":"Aulendorf","es":"Aulendorf","fr":"Aulendorf","ja":"アウレンドルフ","it":"Aulendorf","zh-CN":"奥伦多夫","tr":"Aulendorf","ru":"Аулендорф","uk":"Аулендорф","pl":"Aulendorf","hi":"औलेंडोर्फ","ar":"أولندورف","hy":"Աուլենդորֆ"}},{"name":"Backnang","latitude":"48.94743000","longitude":"9.43718000","native":"Backnang","translations":{"br":"Backnang","ko":"백낭","pt-BR":"Backnang","pt":"Backnang","nl":"Backnang","hr":"Backnang","fa":"باکنانگ","de":"Backnang","es":"Backnang","fr":"Backnang","ja":"バックナング","it":"Backnang","zh-CN":"巴克南","tr":"Backnang","ru":"Бакнанг","uk":"Бакнанг","pl":"Backnang","hi":"बैकनांग","ar":"باكنانغ","hy":"Բակնանգ"}},{"name":"Bad Bellingen","latitude":"47.73147000","longitude":"7.55756000","native":"Schlechtes Bellingen","translations":{"br":"Bellingen fall","ko":"바트 벨링겐","pt-BR":"Bad Bellingen","pt":"Bad Bellingen","nl":"Bad Bellingen","hr":"Bad Bellingen","fa":"باد بلینگن","de":"Bad Bellingen","es":"Bad Bellingen","fr":"Bad Bellingen","ja":"バート・ベリンゲン","it":"Bad Bellingen","zh-CN":"巴特贝林根","tr":"Kötü Bellingen","ru":"Бад-Беллинген","uk":"Бад-Беллінген","pl":"Bad Bellingen","hi":"बैड बेलिंगेन","ar":"باد بيلينجين","hy":"Բադ Բելլինգեն"}},{"name":"Bad Buchau","latitude":"48.06231000","longitude":"9.61244000","native":"Bad Buchau","translations":{"br":"Buchau fall","ko":"바트 부하우","pt-BR":"Bad Buchau","pt":"Bad Buchau","nl":"Bad Buchau","hr":"Bad Buchau","fa":"باد بوخائو","de":"Bad Buchau","es":"Bad Buchau","fr":"Bad Buchau","ja":"バート・ブッハウ","it":"Bad Buchau","zh-CN":"巴特布豪","tr":"Kötü Buchau","ru":"Бад-Бухау","uk":"Бад-Бухау","pl":"Zły Buchau","hi":"बैड बुचाऊ","ar":"باد بوخاو","hy":"Բադ Բուխաու"}},{"name":"Bad Ditzenbach","latitude":"48.58830000","longitude":"9.70393000","native":"Bad Ditzenbach","translations":{"br":"Ditzenbach fall","ko":"바트 디첸바흐","pt-BR":"Bad Ditzenbach","pt":"Bad Ditzenbach","nl":"Bad Ditzenbach","hr":"Bad Ditzenbach","fa":"باد دیتسنباخ","de":"Bad Ditzenbach","es":"Bad Ditzenbach","fr":"Bad Ditzenbach","ja":"バート・ディッツェンバッハ","it":"Bad Ditzenbach","zh-CN":"巴特迪岑巴赫","tr":"Kötü Ditzenbach","ru":"Бад-Дитценбах","uk":"Бад-Дітценбах","pl":"Bad Ditzenbach","hi":"बैड डिट्ज़ेनबाक","ar":"باد ديتزنباخ","hy":"Բադ Դիցենբախ"}},{"name":"Bad Dürrheim","latitude":"48.02093000","longitude":"8.53056000","native":"Bad Dürrheim","translations":{"br":"Dürrheim fall","ko":"바트 뒤르하임","pt-BR":"Bad Dürrheim","pt":"Bad Dürrheim","nl":"Bad Dürrheim","hr":"Bad Dürrheim","fa":"باد دورهایم","de":"Bad Dürrheim","es":"Bad Dürrheim","fr":"Bad Dürrheim","ja":"バート・デュルハイム","it":"Bad Dürrheim","zh-CN":"巴特迪尔海姆","tr":"Kötü Dürrheim","ru":"Бад-Дюрхайм","uk":"Бад-Дюррхайм","pl":"Bad Dürrheim","hi":"बैड ड्यूरहेम","ar":"باد دورهايم","hy":"Բադ Դյուրրհայմ"}},{"name":"Bad Herrenalb","latitude":"48.79787000","longitude":"8.43617000","native":"Bad Herrenalb","translations":{"br":"Herrenalb fall","ko":"바트 헤렌알브","pt-BR":"Herrenalb ruim","pt":"Herrenalb ruim","nl":"Bad Herrenalb","hr":"Bad Herrenalb","fa":"بد هرنالب","de":"Bad Herrenalb","es":"Bad Herrenalb","fr":"Bad Herrenalb","ja":"バート・ヘレンアルプ","it":"Bad Herrenalb","zh-CN":"巴特黑雷纳尔布","tr":"Kötü Herrenalb","ru":"Бад-Херренальб","uk":"Бад-Герренальб","pl":"Zły Herrenalb","hi":"बैड हेरेनाल्ब","ar":"باد هيرينالب","hy":"Բադ Հերենալբ"}},{"name":"Bad Liebenzell","latitude":"48.77427000","longitude":"8.72971000","native":"Bad Liebenzell","translations":{"br":"Liebenzell fall","ko":"바트 리벤첼","pt-BR":"Bad Liebenzell","pt":"Bad Liebenzell","nl":"Bad Liebenzell","hr":"Bad Liebenzell","fa":"بد لیبنزل","de":"Bad Liebenzell","es":"Bad Liebenzell","fr":"Bad Liebenzell","ja":"バート・リーベンツェル","it":"Bad Liebenzell","zh-CN":"巴特利本采尔","tr":"Kötü Liebenzell","ru":"Бад-Либенцелль","uk":"Бад-Лібенцелль","pl":"Bad Liebenzell","hi":"बैड लिबेन्ज़ेल","ar":"باد ليبنزيل","hy":"Բադ Լիբենցեղ"}},{"name":"Bad Mergentheim","latitude":"49.49250000","longitude":"9.77361000","native":"Bad Mergentheim","translations":{"br":"Mergentheim fall","ko":"바트 메르겐타임","pt-BR":"Bad Mergentheim","pt":"Bad Mergentheim","nl":"Bad Mergentheim","hr":"Bad Mergentheim","fa":"باد مرگنتهایم","de":"Bad Mergentheim","es":"Bad Mergentheim","fr":"Bad Mergentheim","ja":"バート・メルゲントハイム","it":"Bad Mergentheim","zh-CN":"巴特梅根特海姆","tr":"Bad Mergentheim","ru":"Бад-Мергентхайм","uk":"Бад-Мергентхайм","pl":"Bad Mergentheim","hi":"बैड मर्जेंथाइम","ar":"باد ميرجينثيم","hy":"Բադ Մերգենտհայմ"}},{"name":"Bad Peterstal-Griesbach","latitude":"48.43333000","longitude":"8.21667000","native":"Schlechtes Peterstal-Greenbach","translations":{"br":"Peterstal-Griesbach fall","ko":"바트 페테르슈탈-그리스바흐","pt-BR":"Bad Peterstal-Griesbach","pt":"Bad Peterstal-Griesbach","nl":"Bad Peterstal-Griesbach","hr":"Bad Peterstal-Griesbach","fa":"باد پترستال-گریسباخ","de":"Bad Peterstal-Griesbach","es":"Bad Peterstal-Griesbach","fr":"Bad Peterstal-Griesbach","ja":"バート・ペーターシュタル＝グリースバッハ","it":"Bad Peterstal-Griesbach","zh-CN":"巴特彼得斯塔尔-格里斯巴赫","tr":"Kötü Peterstal-Griesbach","ru":"Бад-Петерсталь-Грисбах","uk":"Бад-Петерсталь-Грісбах","pl":"Bad Peterstal-Griesbach","hi":"बैड पीटरस्टल-ग्रीसबाख","ar":"باد بيترستال-جريسباخ","hy":"Բադ Պետերստալ-Գրիսբախ"}},{"name":"Bad Rappenau","latitude":"49.23848000","longitude":"9.10180000","native":"Bad Rappenau","translations":{"br":"Rappenau fall","ko":"바트 라페나우","pt-BR":"Bad Rappenau","pt":"Bad Rappenau","nl":"Bad Rappenau","hr":"Bad Rappenau","fa":"بد راپنو","de":"Bad Rappenau","es":"Bad Rappenau","fr":"Bad Rappenau","ja":"バート・ラッペナウ","it":"Bad Rappenau","zh-CN":"巴特拉珀瑙","tr":"Kötü Rappenau","ru":"Бад-Раппенау","uk":"Бад-Раппенау","pl":"Zły Rappenau","hi":"बैड रैपेनॉ","ar":"باد رابيناو","hy":"Բադ Ռապենաու"}},{"name":"Bad Rippoldsau-Schapbach","latitude":"48.42883000","longitude":"8.32584000","native":"Bad Rippoldsau-Schapbach","translations":{"br":"Rippoldsau-Schapbach fall","ko":"바트 리폴트자우-샤프바흐","pt-BR":"Bad Rippoldsau-Schapbach","pt":"Bad Rippoldsau-Schapbach","nl":"Bad Rippoldsau-Schapbach","hr":"Bad Rippoldsau-Schapbach","fa":"باد ریپولدزاو-شاپباخ","de":"Bad Rippoldsau-Schapbach","es":"Bad Rippoldsau-Schapbach","fr":"Bad Rippoldsau-Schapbach","ja":"バート・リッポルザウ＝シャップバッハ","it":"Bad Rippoldsau-Schapbach","zh-CN":"巴特里波尔茨奥-沙普巴赫","tr":"Kötü Rippoldsau-Schapbach","ru":"Бад-Риппольдзау-Шапбах","uk":"Бад-Ріппольдзау-Шапбах","pl":"Bad Rippoldsau-Schapbach","hi":"बैड रिप्पोल्ड्सौ-शैपबाक","ar":"باد ريبولدساو-شاباخ","hy":"Բադ Ռիպպոլդսաու-Շապբախ"}},{"name":"Bad Säckingen","latitude":"47.55371000","longitude":"7.94612000","native":"Bad Säckingen","translations":{"br":"Bad Säckingen","ko":"바트 제킹겐","pt-BR":"Bad Säckingen","pt":"Bad Säckingen","nl":"Bad Säckingen","hr":"Bad Säckingen","fa":"باد زکینگن","de":"Bad Säckingen","es":"Bad Säckingen","fr":"Bad Säckingen","ja":"バート・ゼッキンゲン","it":"Bad Säckingen","zh-CN":"巴特塞金根","tr":"Kötü Säckingen","ru":"Бад-Зекинген","uk":"Бад-Зеккінген","pl":"Bad Säckingen","hi":"बैड सैकिंगन","ar":"باد ساكنجن","hy":"Բադ Սաքկինգեն"}},{"name":"Bad Schussenried","latitude":"48.00468000","longitude":"9.65741000","native":"Bad Schussenried","translations":{"br":"Schussenried fall","ko":"바트 슈센리트","pt-BR":"Bad Schussenried","pt":"Bad Schussenried","nl":"Bad Schussenried","hr":"Bad Schussenried","fa":"بد شوسنرید","de":"Bad Schussenried","es":"Bad Schussenried","fr":"Bad Schussenried","ja":"バート・シュッセンリート","it":"Bad Schussenried","zh-CN":"巴特舒森里德","tr":"Kötü Schussenried","ru":"Бад-Шуссенрид","uk":"Бад-Шуссенрід","pl":"Bad Schussenried","hi":"बैड शूसेनरीड","ar":"باد شوسنريد","hy":"Բադ Շուսենրիեդ"}},{"name":"Bad Teinach-Zavelstein","latitude":"48.69051000","longitude":"8.69285000","native":"Bad Teinach-Zavelstein","translations":{"br":"Bad Teinach-Zavelstein","ko":"바트 타이나흐-차벨슈타인","pt-BR":"Bad Teinach-Zavelstein","pt":"Bad Teinach-Zavelstein","nl":"Bad Teinach-Zavelstein","hr":"Bad Teinach-Zavelstein","fa":"باد تیناخ-زاولشتاین","de":"Bad Teinach-Zavelstein","es":"Bad Teinach-Zavelstein","fr":"Bad Teinach-Zavelstein","ja":"バート・タイナハ＝ツァヴェルシュタイン","it":"Bad Teinach-Zavelstein","zh-CN":"巴特泰纳赫-察费尔施泰因","tr":"Kötü Teinach-Zavelstein","ru":"Бад-Тайнах-Цафельштайн","uk":"Бад-Тайнах-Цавельштайн","pl":"Bad Teinach-Zavelstein","hi":"बैड टीनाच-ज़ावेलस्टीन","ar":"باد تايناخ-زافيلشتاين","hy":"Բադ Տայնախ-Ցավելշտայն"}},{"name":"Bad Überkingen","latitude":"48.59991000","longitude":"9.79586000","native":"Schlechtes übernenden","translations":{"br":"Überkingen fall","ko":"Bad Überkingen","pt-BR":"Bad Überkingen","pt":"Bad Überkingen","nl":"Bad Überkingen","hr":"Bad Überkingen","fa":"باد اوبرکینگن","de":"Bad Überkingen","es":"Bad Überkingen","fr":"Bad Überkingen","ja":"バート・ユーバーキンゲン","it":"Bad Überkingen","zh-CN":"巴特于伯金根","tr":"Bad Überkingen","ru":"Бад-Юберкинген","uk":"Бад-Юберкінген","pl":"Bad Überkingen","hi":"बैड उबरकिंगेन","ar":"باد أوبركينجن","hy":"Բադ Յուբերկինգեն"}},{"name":"Bad Urach","latitude":"48.49107000","longitude":"9.40009000","native":"Bad Urach","translations":{"br":"Urach fall","ko":"바트 우라흐","pt-BR":"Urach ruim","pt":"Urach ruim","nl":"Bad Urach","hr":"Bad Urach","fa":"بد اوراخ","de":"Bad Urach","es":"Urach malo","fr":"Bad Urach","ja":"バート・ウーラッハ","it":"Cattivo Urach","zh-CN":"巴特乌拉赫","tr":"Kötü Urach","ru":"Бад-Урах","uk":"Бад-Урах","pl":"Zły Urach","hi":"बुरा उराच","ar":"باد أوراخ","hy":"Բադ Ուրախ"}},{"name":"Bad Waldsee","latitude":"47.92027000","longitude":"9.75490000","native":"Schlechtes Waldsee","translations":{"br":"Waldsee fall","ko":"바트 발트제","pt-BR":"Bad Waldsee","pt":"Bad Waldsee","nl":"Bad Waldsee","hr":"Bad Waldsee","fa":"بد والدسی","de":"Bad Waldsee","es":"Bad Waldsee","fr":"Bad Waldsee","ja":"バート・ヴァルトゼー","it":"Bad Waldsee","zh-CN":"巴特瓦尔德塞","tr":"Kötü Waldsee","ru":"Бад-Вальдзее","uk":"Бад-Вальдзе","pl":"Bad Waldsee","hi":"बैड वाल्डसी","ar":"بحيرة باد فالدسي","hy":"Բադ Վալդսե"}},{"name":"Bad Wildbad","latitude":"48.75071000","longitude":"8.55040000","native":"Bad Wildbad","translations":{"br":"Gwall fall","ko":"배드 와일드바드","pt-BR":"Mau Selvagem Mau","pt":"Mau Selvagem Mau","nl":"Slecht Wildbad","hr":"Bad Wildbad","fa":"بد وایلدبد","de":"Bad Wildbad","es":"Malo salvaje malo","fr":"Bad Wildbad","ja":"バート・ヴィルトバート","it":"Bad Wildbad","zh-CN":"巴特维尔德巴德","tr":"Kötü Vahşi Kötü","ru":"Бад-Вильдбад","uk":"Бад Вайлдбад","pl":"Zły Dziki Zły","hi":"ख़राब जंगली ख़राब","ar":"باد وايلدباد","hy":"Բադ Վիլդբադ"}},{"name":"Bad Wimpfen","latitude":"49.22971000","longitude":"9.15648000","native":"Bad Wimpfen","translations":{"br":"Wimpfen fall","ko":"바트 빔펜","pt-BR":"Bad Wimpfen","pt":"Bad Wimpfen","nl":"Bad Wimpfen","hr":"Bad Wimpfen","fa":"بد ویمپفن","de":"Bad Wimpfen","es":"Bad Wimpfen","fr":"Bad Wimpfen","ja":"バート・ヴィンプフェン","it":"Cattivo Wimpfen","zh-CN":"巴特温普芬","tr":"Kötü Wimpfen","ru":"Бад-Вимпфен","uk":"Бад-Вімпфен","pl":"Bad Wimpfen","hi":"बैड विम्पफेन","ar":"باد ويمبفن","hy":"Բադ Վիմֆեն"}},{"name":"Bad Wurzach","latitude":"47.90799000","longitude":"9.89686000","native":"Schlechtes Wurzach","translations":{"br":"Wurzach fall","ko":"바트 뷔르차흐","pt-BR":"Bad Wurzach","pt":"Bad Wurzach","nl":"Bad Wurzach","hr":"Bad Wurzach","fa":"باد وورزاخ","de":"Bad Wurzach","es":"Bad Wurzach","fr":"Bad Wurzach","ja":"バート・ヴルツァッハ","it":"Bad Wurzach","zh-CN":"巴特武尔察赫","tr":"Kötü Wurzach","ru":"Бад-Вурцах","uk":"Бад-Вурцах","pl":"Zły Wurzach","hi":"बैड वुर्जाच","ar":"باد فورتزاخ","hy":"Բադ Վուրցախ"}},{"name":"Baden-Baden","latitude":"48.76060000","longitude":"8.23975000","native":"Baden-Baden","translations":{"br":"Baden-Baden","ko":"바덴바덴","pt-BR":"Baden-Baden","pt":"Baden-Baden","nl":"Baden-Baden","hr":"Baden-Baden","fa":"بادن-بادن","de":"Baden-Baden","es":"Baden-Baden","fr":"Bade-Baden","ja":"バーデン・バーデン","it":"Baden-Baden","zh-CN":"巴登巴登","tr":"Baden-Baden","ru":"Баден-Баден","uk":"Баден-Баден","pl":"Baden-Baden","hi":"बाडेन-बाडेन","ar":"بادن بادن","hy":"Բադեն-Բադեն"}},{"name":"Badenweiler","latitude":"47.80223000","longitude":"7.67236000","native":"Badenweiler","translations":{"br":"Badenweiler","ko":"바덴바일러","pt-BR":"Badenweiler","pt":"Badenweiler","nl":"Badenweiler","hr":"Badenweiler","fa":"بادنوایلر","de":"Badenweiler","es":"Badenweiler","fr":"Badenweiler","ja":"バーデンヴァイラー","it":"Badenweiler","zh-CN":"巴登韦勒","tr":"Badenweiler","ru":"Баденвайлер","uk":"Баденвайлер","pl":"Badenweiler","hi":"बाडेनवीलर","ar":"بادنويلر","hy":"Բադենվայլեր"}},{"name":"Bahlingen","latitude":"48.12064000","longitude":"7.73982000","native":"Bungningan","translations":{"br":"Bahlingen","ko":"발링겐","pt-BR":"Bahlingen","pt":"Bahlingen","nl":"Bahlingen","hr":"Bahlingen","fa":"باهلینگن","de":"Bahlingen","es":"Bahlingen","fr":"Bahlingen","ja":"バーリンゲン","it":"Bahlingen","zh-CN":"巴林根","tr":"Bahlingen","ru":"Балинген","uk":"Балінген","pl":"Bahlingen","hi":"बहलिंगेन","ar":"باهلينجن","hy":"Բաղլինգեն"}},{"name":"Baienfurt","latitude":"47.82857000","longitude":"9.65157000","native":"Baaienfurt","translations":{"br":"Baienfurt","ko":"바이엔푸르트","pt-BR":"Baienfurt","pt":"Baienfurt","nl":"Baienfurt","hr":"Baienfurt","fa":"باینفورت","de":"Baienfurt","es":"Baienfurt","fr":"Baienfurt","ja":"バイエンフルト","it":"Baienfurt","zh-CN":"拜恩富特","tr":"Bayenfurt","ru":"Байенфурт","uk":"Байєнфурт","pl":"Baienfurt","hi":"बैएनफ़र्ट","ar":"باينفورت","hy":"Բայենֆուրտ"}},{"name":"Baiersbronn","latitude":"48.50318000","longitude":"8.37699000","native":"Baiersbronn","translations":{"br":"Baiersbronn","ko":"바이어스브론","pt-BR":"Baiersbronn","pt":"Baiersbronn","nl":"Baiersbronn","hr":"Baiersbronn","fa":"بایرزبورن","de":"Baiersbronn","es":"Baiersbronn","fr":"Baiersbronn","ja":"バイアースブロン","it":"Baiersbronn","zh-CN":"拜尔斯布龙","tr":"Baiersbronn","ru":"Байерсбронн","uk":"Байєрсбронн","pl":"Baiersbronn","hi":"बैयर्सब्रॉन","ar":"بايرسبرون","hy":"Բայերսբրոն"}},{"name":"Baindt","latitude":"47.85000000","longitude":"9.66667000","native":"BAINDT","translations":{"br":"Baindt","ko":"바인트","pt-BR":"Baindt","pt":"Baindt","nl":"Baindt","hr":"Baindt","fa":"بینت","de":"Baindt","es":"Baindt","fr":"Baindt","ja":"ベインド","it":"Baindt","zh-CN":"贝恩特","tr":"Baindt","ru":"Байндт","uk":"Бейндт","pl":"Baindt","hi":"बैंड्ट","ar":"بايندت","hy":"Բայնդտ"}},{"name":"Balingen","latitude":"48.27525000","longitude":"8.85464000","native":"Balingen","translations":{"br":"Balingen","ko":"발링겐","pt-BR":"Balingen","pt":"Balingen","nl":"Balingen","hr":"Balingen","fa":"بالینگن","de":"Balingen","es":"Balingen","fr":"Balingen","ja":"バリンゲン","it":"Balingen","zh-CN":"巴林根","tr":"Balingen","ru":"Балинген","uk":"Балінген","pl":"Balingen","hi":"बालिंगेन","ar":"بالينجن","hy":"Բալինգեն"}},{"name":"Baltmannsweiler","latitude":"48.74215000","longitude":"9.44940000","native":"BaltmannsWeiler","translations":{"br":"Baltmannsweiler","ko":"발트만스바일러","pt-BR":"Baltmannsweiler","pt":"Baltmannsweiler","nl":"Baltmannsweiler","hr":"Baltmannsweiler","fa":"بالتمانسویلر","de":"Baltmannsweiler","es":"Baltmannsweiler","fr":"Baltmannsweiler","ja":"バルトマンスヴァイラー","it":"Baltmannsweiler","zh-CN":"巴尔特曼斯魏勒","tr":"Baltmannsweiler","ru":"Бальтманнсвайлер","uk":"Балтманнсвайлер","pl":"Baltmannsweiler","hi":"Baltmannsweiler","ar":"بالتمانسويلر","hy":"Բալտմաննսվայլեր"}},{"name":"Balzfeld","latitude":"49.26892000","longitude":"8.78919000","native":"Balzfeld","translations":{"br":"Balzfeld","ko":"발츠펠트","pt-BR":"Balzfeld","pt":"Balzfeld","nl":"Balzfeld","hr":"Balzfeld","fa":"بالزفلد","de":"Balzfeld","es":"Balzfeld","fr":"Balzfeld","ja":"バルツフェルト","it":"Balzfeld","zh-CN":"巴尔茨费尔德","tr":"Balzfeld","ru":"Бальцфельд","uk":"Бальцфельд","pl":"Balzfeld","hi":"बाल्ज़फेल्ड","ar":"بالزفيلد","hy":"Բալցֆելդ"}},{"name":"Bammental","latitude":"49.35611000","longitude":"8.77944000","native":"BAMMENTAL","translations":{"br":"Bammental","ko":"밤멘탈","pt-BR":"Bammental","pt":"Bammental","nl":"Bammental","hr":"Bammental","fa":"بامنتال","de":"Bammental","es":"Bammental","fr":"Bammental","ja":"バンメンタル","it":"Bamental","zh-CN":"巴门塔尔","tr":"Bammental","ru":"Бамменталь","uk":"Бамменталь","pl":"Bammental","hi":"बामेंटल","ar":"بامينتال","hy":"Բամմենտալ"}},{"name":"Bartholomä","latitude":"48.75350000","longitude":"9.98752000","native":"Bartholomä","translations":{"br":"Bartholomä","ko":"바르톨로매","pt-BR":"Bartolomeu","pt":"Bartolomeu","nl":"Bartholomä","hr":"Bartholomä","fa":"بارتولومه","de":"Bartholomä","es":"Bartolomé","fr":"Barthélemy","ja":"バルトロメ","it":"Bartolomeo","zh-CN":"巴托洛梅","tr":"Bartholomä","ru":"Варфоломей","uk":"Бартоломя","pl":"Bartłomiej","hi":"बार्थोलोमा","ar":"بارثولوما","hy":"Բարտոլոմե"}},{"name":"Beilstein","latitude":"49.04140000","longitude":"9.31370000","native":"Beilstein","translations":{"br":"Beilstein","ko":"바일슈타인","pt-BR":"Beilstein","pt":"Beilstein","nl":"Beilstein","hr":"Beilstein","fa":"بیلشتاین","de":"Beilstein","es":"Beilstein","fr":"Beilstein","ja":"バイルシュタイン","it":"Beilstein","zh-CN":"贝尔斯坦","tr":"Beilstein","ru":"Байльштейн","uk":"Байльштайн","pl":"Beilstein","hi":"बेइलस्टीन","ar":"بيلشتاين","hy":"Բայլշտայն"}},{"name":"Beimerstetten","latitude":"48.48333000","longitude":"9.98333000","native":"Beimstetten","translations":{"br":"Beimerstetten","ko":"바이머슈테텐","pt-BR":"Beimerstetten","pt":"Beimerstetten","nl":"Beimerstetten","hr":"Beimerstetten","fa":"بایمراشتتن","de":"Beimerstetten","es":"Beimerstetten","fr":"Beimerstetten","ja":"バイマーシュテッテン","it":"Beimerstetten","zh-CN":"拜默施泰滕","tr":"Beimerstetten","ru":"Баймерштеттен","uk":"Баймерштеттен","pl":"Beimerstetten","hi":"बेइमरस्टेटन","ar":"بايمرستيتن","hy":"Բայմերստետեն"}},{"name":"Bempflingen","latitude":"48.57178000","longitude":"9.26834000","native":"Bempflingen","translations":{"br":"Bempflingen","ko":"벰플링겐","pt-BR":"Bempflingen","pt":"Bempflingen","nl":"Bempflingen","hr":"Bempflingen","fa":"بمپفلینگن","de":"Bempflingen","es":"Bempflingen","fr":"Bempflingen","ja":"ベンプフリンゲン","it":"Bempflingen","zh-CN":"本普弗林根","tr":"Bempflingen","ru":"Бемпфлинген","uk":"Бемпфлінген","pl":"Bempflingen","hi":"बेम्पफ्लिंगेन","ar":"بيمبفلينجن","hy":"Բեմպֆլինգեն"}},{"name":"Benningen am Neckar","latitude":"48.94672000","longitude":"9.24212000","native":"Der Benning Am Neckar","translations":{"br":"Benningen am Neckar","ko":"베닝겐 암 네카르","pt-BR":"Benningen am Neckar","pt":"Benningen am Neckar","nl":"Benningen am Neckar","hr":"Benningen am Neckar","fa":"بنینگن آم نکار","de":"Benningen am Neckar","es":"Benningen am Neckar","fr":"Benningen am Neckar","ja":"ベンニンゲン・アム・ネッカー","it":"Benningen am Neckar","zh-CN":"内卡河畔贝宁根","tr":"Benningen am Neckar","ru":"Беннинген-на-Неккаре","uk":"Беннінген-на-Неккарі","pl":"Benningen am Neckar","hi":"बेनिंगेन एम नेकर","ar":"بينينجن أم نيكار","hy":"Բեննինգեն ամ Նեկար"}},{"name":"Bergatreute","latitude":"47.85000000","longitude":"9.75000000","native":"BergatReuche","translations":{"br":"Bergatreute","ko":"베르가트로이테","pt-BR":"Bergatreute","pt":"Bergatreute","nl":"Bergatreute","hr":"Bergatreute","fa":"برگاتروت","de":"Bergatreute","es":"Bergatreute","fr":"Bergatreute","ja":"ベルガトロイテ","it":"Bergatreute","zh-CN":"贝尔加特鲁特","tr":"Bergatreute","ru":"Бергатройте","uk":"Берґатройт","pl":"Bergatreute","hi":"बर्गट्रेउटे","ar":"بيرغاتريوت","hy":"Բերգատրաուտե"}},{"name":"Berghaupten","latitude":"48.40602000","longitude":"7.98672000","native":"Berghähde","translations":{"br":"Berghaupten","ko":"베르크하우프텐","pt-BR":"Berghaupten","pt":"Berghaupten","nl":"Berghaupten","hr":"Berghaupten","fa":"برگهاوپتن","de":"Berghaupten","es":"Berghaupten","fr":"Berghaupten","ja":"ベルクハウプテン","it":"Berghaupten","zh-CN":"贝格豪普滕","tr":"Berghaupten","ru":"Бергхауптен","uk":"Бергхауптен","pl":"Góry","hi":"बर्गहॉप्टेन","ar":"بيرغهاوبتن","hy":"Բերգհաուպտեն"}},{"name":"Berghülen","latitude":"48.46399000","longitude":"9.76110000","native":"Berghülen","translations":{"br":"Berghülen","ko":"베르굴렌","pt-BR":"Berghülen","pt":"Berghülen","nl":"Berghülen","hr":"Berghülen","fa":"برگولن","de":"Berghülen","es":"Berghülen","fr":"Berghülen","ja":"ベルグーレン","it":"Berghülen","zh-CN":"伯格胡伦","tr":"Berghülen","ru":"Бергюлен","uk":"Бергюлен","pl":"Berghülen","hi":"बर्घुलेन","ar":"بيرغولين","hy":"Բերղհյուլեն"}},{"name":"Berkheim","latitude":"48.04263000","longitude":"10.08227000","native":"Ast","translations":{"br":"Berkheim","ko":"베르크하임","pt-BR":"Berkheim","pt":"Berkheim","nl":"Berkheim","hr":"Berkheim","fa":"برکهایم","de":"Berkheim","es":"Berkheim","fr":"Berkheim","ja":"ベルクハイム","it":"Berkheim","zh-CN":"伯克海姆","tr":"Berkheim","ru":"Беркхайм","uk":"Беркхайм","pl":"Berkheim","hi":"बर्कहेम","ar":"بيركهايم","hy":"Բերկհայմ"}},{"name":"Bermatingen","latitude":"47.73333000","longitude":"9.35000000","native":"Bermatoren","translations":{"br":"Bermatingen","ko":"베르마팅겐","pt-BR":"Bermatingen","pt":"Bermatingen","nl":"Bermatingen","hr":"Bermatingen","fa":"برماتینگن","de":"Bermatingen","es":"Bermatingen","fr":"Bermatingen","ja":"ベルマティンゲン","it":"Bermatingen","zh-CN":"贝马廷根","tr":"Bermatingen","ru":"Берматинген","uk":"Берматінген","pl":"Bermatingen","hi":"बर्माटिंगेन","ar":"بيرماتينجن","hy":"Բերմատինգեն"}},{"name":"Bernau","latitude":"47.80018000","longitude":"8.03830000","native":"Bernau","translations":{"br":"Bernau","ko":"베르나우","pt-BR":"Bernau","pt":"Bernau","nl":"Bernau","hr":"Bernau","fa":"برناو","de":"Bernau","es":"Bernau","fr":"Bernau","ja":"ベルナウ","it":"Bernau","zh-CN":"贝尔瑙","tr":"Bernau","ru":"Бернау","uk":"Бернау","pl":"Bernau","hi":"बर्नौ","ar":"بيرناو","hy":"Բերնաու"}},{"name":"Bernstadt","latitude":"48.49957000","longitude":"10.02575000","native":"Bernstadt","translations":{"br":"Bernstadt","ko":"베른슈타트","pt-BR":"Bernstadt","pt":"Bernstadt","nl":"Bernstadt","hr":"Bernstadt","fa":"برنشتات","de":"Bernstadt","es":"Bernstadt","fr":"Bernstadt","ja":"ベルンシュタット","it":"Bernstadt","zh-CN":"伯恩施塔特","tr":"Bernstadt","ru":"Бернштадт","uk":"Бернштадт","pl":"Bernstadt","hi":"बर्नस्टेड","ar":"بيرنشتات","hy":"Բերնշտադտ"}},{"name":"Besigheim","latitude":"48.99797000","longitude":"9.14268000","native":"Besigheim","translations":{"br":"Besigheim","ko":"베시그하임","pt-BR":"Besigheim","pt":"Besigheim","nl":"Besigheim","hr":"Besigheim","fa":"بسیگهایم","de":"Besigheim","es":"Besigheim","fr":"Besigheim","ja":"ベジハイム","it":"Besigheim","zh-CN":"贝西格海姆","tr":"Besigheim","ru":"Безигхайм","uk":"Безіггайм","pl":"Besigheim","hi":"बेसिगहेम","ar":"بيسيغهايم","hy":"Բեսիղհայմ"}},{"name":"Beuren","latitude":"48.56927000","longitude":"9.40406000","native":"Pfund","translations":{"br":"Beuren","ko":"보이렌","pt-BR":"Beuren","pt":"Beuren","nl":"Beuren","hr":"Beuren","fa":"بوئرن","de":"Beuren","es":"Beuren","fr":"Beuren","ja":"ビューレン","it":"Beuren","zh-CN":"博伊伦","tr":"Beuren","ru":"Бойрен","uk":"Бойрен","pl":"Beuren","hi":"ब्यूरेन","ar":"بيورين","hy":"Բաուրեն"}},{"name":"Biberach","latitude":"48.61008000","longitude":"8.27704000","native":"Biberach","translations":{"br":"Biberach","ko":"비베라흐","pt-BR":"Biberach","pt":"Biberach","nl":"Biberach","hr":"Biberach","fa":"بیبرهاخ","de":"Biberach","es":"Biberach","fr":"Biberach","ja":"ビーベラッハ","it":"Biberach","zh-CN":"比伯拉赫","tr":"Biberach","ru":"Биберах","uk":"Біберах","pl":"Biberach","hi":"बिबेरच","ar":"بيبراخ","hy":"Բիբերախ"}},{"name":"Biberach an der Riß","latitude":"48.09345000","longitude":"9.79053000","native":"Biberach an der Riß","translations":{"br":"Biberach an der Riß","ko":"비베라흐 안 데르 리스","pt-BR":"Biberach an der Riß","pt":"Biberach an der Riß","nl":"Biberach an der Riß","hr":"Biberach an der Riß","fa":"بیبرهاخ آن در ریس","de":"Biberach an der Riß","es":"Biberach an der Riß","fr":"Biberach an der Riß","ja":"ビーベラッハ・アン・デア・リス","it":"Biberach an der Riß","zh-CN":"里斯河畔比贝拉赫","tr":"Biberach an der Riß","ru":"Biberach an der Riß","uk":"Біберах-ан-дер-Ріс","pl":"Biberach an der Riß","hi":"Biberach an der Riß","ar":"Biberach an der Riß","hy":"Բիբերախ ան դեր Ռիս"}},{"name":"Bietigheim","latitude":"48.90919000","longitude":"8.25202000","native":"Bietigheim","translations":{"br":"Bietigheim","ko":"비에티히하임","pt-BR":"Bietigheim","pt":"Bietigheim","nl":"Bietigheim","hr":"Bietigheim","fa":"بیتیگهایم","de":"Bietigheim","es":"Bietigheim","fr":"Bietigheim","ja":"ビーティッヒハイム","it":"Bietigheim","zh-CN":"比蒂格海姆","tr":"Bietigheim","ru":"Битигхайм","uk":"Бітігхайм","pl":"Bietigheim","hi":"बिएटिघेम","ar":"بيتيغهايم","hy":"Բիետիղհայմ"}},{"name":"Bietigheim-Bissingen","latitude":"48.94407000","longitude":"9.11755000","native":"Bietigheim-Bissingen","translations":{"br":"Bietigheim-Bissingen","ko":"비티히하임-비싱겐","pt-BR":"Bietigheim-Bissingen","pt":"Bietigheim-Bissingen","nl":"Bietigheim-Bissingen","hr":"Bietigheim-Bissingen","fa":"بیتیگهایم-بیسینگن","de":"Bietigheim-Bissingen","es":"Bietigheim-Bissingen","fr":"Bietigheim-Bissingen","ja":"ビーティッヒハイム＝ビッシンゲン","it":"Bietigheim-Bissingen","zh-CN":"比蒂格海姆-比辛根","tr":"Bietigheim-Bissingen","ru":"Битигхайм-Биссинген","uk":"Бітігхайм-Біссінген","pl":"Bietigheim-Bissingen","hi":"बिएटीघेम-बिस्सिंगन","ar":"بيتيغهايم-بيسينجن","hy":"Բիետիղհայմ-Բիսինգեն"}},{"name":"Billigheim","latitude":"49.34861000","longitude":"9.25389000","native":"Billiges Zuhause","translations":{"br":"Billigheim","ko":"빌리하임","pt-BR":"Billigheim","pt":"Billigheim","nl":"Billigheim","hr":"Billigheim","fa":"بیلیگهایم","de":"Billigheim","es":"Billigheim","fr":"Billigheim","ja":"ビリヒハイム","it":"Billigheim","zh-CN":"比利格海姆","tr":"Billigheim","ru":"Биллигхайм","uk":"Біллігхайм","pl":"Billigheim","hi":"बिलिगहेम","ar":"بيليغهايم","hy":"Բիղիղհայմ"}},{"name":"Binau","latitude":"49.36833000","longitude":"9.05806000","native":"Binha","translations":{"br":"Binau","ko":"비나우","pt-BR":"Binau","pt":"Binau","nl":"Binau","hr":"Binau","fa":"بیناو","de":"Binau","es":"Binau","fr":"Binau","ja":"ビナウ","it":"Binau","zh-CN":"比瑙","tr":"Binau","ru":"Бинау","uk":"Бінау","pl":"Binau","hi":"बिनौ","ar":"بيناو","hy":"Բինաու"}},{"name":"Bingen","latitude":"48.11127000","longitude":"9.27238000","native":"Bing","translations":{"br":"Bingen","ko":"빙겐","pt-BR":"Bingen","pt":"Bingen","nl":"Bingen","hr":"Bingen","fa":"بینگن","de":"Bingen","es":"Bingen","fr":"Bingen","ja":"ビンゲン","it":"Bingen","zh-CN":"宾根","tr":"Bingen","ru":"Бинген","uk":"Бінген","pl":"Bingen","hi":"बिंजेन","ar":"بينجن","hy":"Բինգեն"}},{"name":"Binzen","latitude":"47.63333000","longitude":"7.61667000","native":"Binzen","translations":{"br":"Binzen","ko":"빈젠","pt-BR":"Binzen","pt":"Binzen","nl":"Binzen","hr":"Binzen","fa":"بینزن","de":"Binzen","es":"Binzen","fr":"Binzen","ja":"備前","it":"Binzen","zh-CN":"宾曾","tr":"Binzen","ru":"Бинзен","uk":"Бінзен","pl":"Binzena","hi":"बिनज़ेन","ar":"بينزن","hy":"Բինցեն"}},{"name":"Birenbach","latitude":"48.74732000","longitude":"9.66115000","native":"Birenbach","translations":{"br":"Birenbach","ko":"비렌바흐","pt-BR":"Birenbach","pt":"Birenbach","nl":"Birenbach","hr":"Birenbach","fa":"بیرنباخ","de":"Birenbach","es":"Birenbach","fr":"Birenbach","ja":"ビレンバッハ","it":"Birenbach","zh-CN":"比伦巴赫","tr":"Birenbach","ru":"Биренбах","uk":"Біренбах","pl":"Birenbach","hi":"बिरेनबाख","ar":"بيرينباخ","hy":"Բիրենբախ"}},{"name":"Birkenfeld","latitude":"48.86667000","longitude":"8.63333000","native":"Birkenfeld","translations":{"br":"Birkenfeld","ko":"버켄펠트","pt-BR":"Birkenfeld","pt":"Birkenfeld","nl":"Birkenfeld","hr":"Birkenfeld","fa":"بیرکنفلد","de":"Birkenfeld","es":"Birkenfeld","fr":"Birkenfeld","ja":"ビルケンフェルト","it":"Birkenfeld","zh-CN":"比肯费尔德","tr":"Birkenfeld","ru":"Биркенфельд","uk":"Біркенфельд","pl":"Birkenfeld","hi":"बिरकेनफेल्ड","ar":"بيركنفيلد","hy":"Բիրկենֆելդ"}},{"name":"Bischweier","latitude":"48.83766000","longitude":"8.28412000","native":"Bischweier","translations":{"br":"Bischweier","ko":"비슈바이어","pt-BR":"Bischweier","pt":"Bischweier","nl":"Bischweier","hr":"Bischweier","fa":"بیشویر","de":"Bischweier","es":"Bischweier","fr":"Bischweier","ja":"ビシュヴァイアー","it":"Bischweier","zh-CN":"比施魏尔","tr":"Bischweier","ru":"Бишвайер","uk":"Бішвайєр","pl":"Bischweier","hi":"बिश्वेयर","ar":"بيشفاير","hy":"Բիշվայեր"}},{"name":"Bisingen","latitude":"48.31012000","longitude":"8.91738000","native":"Bisingen","translations":{"br":"Bisingen","ko":"비싱겐","pt-BR":"Bisingen","pt":"Bisingen","nl":"Bisingen","hr":"Bisingen","fa":"بیسینگن","de":"Bisingen","es":"Bisingen","fr":"Bisingen","ja":"ビジンゲン","it":"Bisingen","zh-CN":"比辛根","tr":"Bisingen","ru":"Бизинген","uk":"Бізінген","pl":"Bisingen","hi":"बिसिंगेन","ar":"بيسينجن","hy":"Բիզինգեն"}},{"name":"Bissingen an der Teck","latitude":"48.59915000","longitude":"9.49146000","native":"Bissingen an der Teck","translations":{"br":"Bissingen an der Teck","ko":"비싱겐 안 데르 테크","pt-BR":"Bissingen an der Teck","pt":"Bissingen an der Teck","nl":"Bissingen an der Teck","hr":"Bissingen an der Teck","fa":"بیسینگن آن در تک","de":"Bissingen an der Teck","es":"Bissingen an der Teck","fr":"Bissingen an der Teck","ja":"ビッシンゲン・アン・デア・テック","it":"Bissingen an der Teck","zh-CN":"泰克河畔比辛根","tr":"Bissingen an der Teck","ru":"Bissingen an der Teck","uk":"Біссінген-ан-дер-Тек","pl":"Bissingen an der Teck","hi":"बिसिंगेन एन डेर टेक","ar":"Bissingen an der Teck","hy":"Բիսինգեն ան դեր Տեկ"}},{"name":"Bitz","latitude":"48.24400000","longitude":"9.09144000","native":"Bitz","translations":{"br":"Bitz","ko":"비츠","pt-BR":"Bitz","pt":"Bitz","nl":"Bitz","hr":"Bitz","fa":"بیتز","de":"Bitz","es":"Bitz","fr":"Bitz","ja":"ビッツ","it":"Bitz","zh-CN":"比茨","tr":"Bitz","ru":"Битц","uk":"Бітц","pl":"Bitz","hi":"बिट्ज़","ar":"بتز","hy":"Բից"}},{"name":"Blaubeuren","latitude":"48.41215000","longitude":"9.78427000","native":"Blaubeuren","translations":{"br":"Blaubeuren","ko":"블라우보이렌","pt-BR":"Blaubeuren","pt":"Blaubeuren","nl":"Blaubeuren","hr":"Blaubeuren","fa":"بلوبورن","de":"Blaubeuren","es":"Blaubeuren","fr":"Blaubeuren","ja":"ブラウボイレン","it":"Blaubeuren","zh-CN":"布劳博伊伦","tr":"Blaubeuren","ru":"Блаубойрен","uk":"Блаубойрен","pl":"Blaubeuren","hi":"ब्लाउबुरेन","ar":"بلاوبورن","hy":"Բլաուբաուրեն"}},{"name":"Blaufelden","latitude":"49.29778000","longitude":"9.97389000","native":"Blaufelden","translations":{"br":"Blaufelden","ko":"블라우펠덴","pt-BR":"Blaufelden","pt":"Blaufelden","nl":"Blaufelden","hr":"Blaufelden","fa":"بلوفلدن","de":"Blaufelden","es":"Blaufelden","fr":"Blaufelden","ja":"ブラウフェルデン","it":"Blaufelden","zh-CN":"布劳费尔登","tr":"Blaufelden","ru":"Блауфельден","uk":"Блауфельден","pl":"Blaufelden","hi":"ब्लौफेल्डेन","ar":"بلاوفيلدن","hy":"Բլաուֆելդեն"}},{"name":"Blumberg","latitude":"47.84058000","longitude":"8.53329000","native":"Blumberg","translations":{"br":"Blumberg","ko":"블룸버그","pt-BR":"Blumberg","pt":"Blumberg","nl":"Blumberg","hr":"Blumberg","fa":"بلومبرگ","de":"Blumberg","es":"Blumberg","fr":"Blumberg","ja":"ブルームバーグ","it":"Blumberg","zh-CN":"布隆伯格","tr":"Blumberg","ru":"Блумберг","uk":"Блумберг","pl":"Blumberg","hi":"ब्लमबर्ग","ar":"بلومبرج","hy":"Բլումբերգ"}},{"name":"Böbingen an der Rems","latitude":"48.81955000","longitude":"9.92130000","native":"Böbings in den Remots","translations":{"br":"Böbingen an der Rems","ko":"뵈빙겐 안 데르 렘스","pt-BR":"Böbingen an der Rems","pt":"Böbingen an der Rems","nl":"Böbingen an der Rems","hr":"Böbingen an der Rems","fa":"بوبینگن آن در رمس","de":"Böbingen an der Rems","es":"Böbingen an der Rems","fr":"Böbingen an der Rems","ja":"ベービンゲン・アン・デア・レムス","it":"Böbingen an der Rems","zh-CN":"雷姆斯河畔伯宾根","tr":"Böbingen an der Rems","ru":"Бёбинген-ан-дер-Ремс","uk":"Бебінген-ан-дер-Ремс","pl":"Böbingen an der Rems","hi":"बोबिंगन एन डेर रेम्स","ar":"بوبينجن آن دير ريمس","hy":"Բյոբինգեն ան դեր Ռեմս"}},{"name":"Böblingen","latitude":"48.68212000","longitude":"9.01171000","native":"Böblingen","translations":{"br":"Böblingen","ko":"뵈블링겐","pt-BR":"Böblingen","pt":"Böblingen","nl":"Böblingen","hr":"Böblingen","fa":"بوبلینگن","de":"Böblingen","es":"Böblingen","fr":"Böblingen","ja":"ベーブリンゲン","it":"Böblingen","zh-CN":"伯布林根","tr":"Böblingen","ru":"Бёблинген","uk":"Беблінген","pl":"Böblingen","hi":"बोब्लिंगन","ar":"بوبلينغن","hy":"Բյոբլինգեն"}},{"name":"Bodelshausen","latitude":"48.38886000","longitude":"8.97703000","native":"Bodelshhausen","translations":{"br":"Bodelshausen","ko":"보델스하우젠","pt-BR":"Bodelshausen","pt":"Bodelshausen","nl":"Bodelshausen","hr":"Bodelshausen","fa":"بودلسهاوزن","de":"Bodelshausen","es":"Bodelshausen","fr":"Bodelshausen","ja":"ボーデルハウゼン","it":"Bodelshausen","zh-CN":"博德尔斯豪森","tr":"Bodelshausen","ru":"Бодельсхаузен","uk":"Бодельсхаузен","pl":"Bodelshausen","hi":"बोडेलशौसेन","ar":"بودلسهاوزن","hy":"Բոդելշաուսեն"}},{"name":"Bodman-Ludwigshafen","latitude":"47.81817000","longitude":"9.05540000","native":"Bodman-Ludwigshafen","translations":{"br":"Bodman-Ludwigshafen","ko":"보드만-루트비히스하펜","pt-BR":"Bodman-Ludwigshafen","pt":"Bodman-Ludwigshafen","nl":"Bodman-Ludwigshafen","hr":"Bodman-Ludwigshafen","fa":"بودمن-لودویگهافن","de":"Bodman-Ludwigshafen","es":"Bodman-Ludwigshafen","fr":"Bodman-Ludwigshafen","ja":"ボドマン＝ルートヴィヒスハーフェン","it":"Bodman-Ludwigshafen","zh-CN":"博德曼-路德维希港","tr":"Bodman-Ludwigshafen","ru":"Бодман-Людвигсхафен","uk":"Бодман-Людвігсгафен","pl":"Bodman-Ludwigshafen","hi":"बोडमैन-लुडविगशाफेन","ar":"بودمان-لودفيغشافن","hy":"Բոդման-Լուդվիգսհաֆեն"}},{"name":"Bodnegg","latitude":"47.71014000","longitude":"9.68841000","native":"Bodnegg","translations":{"br":"Bodnegg","ko":"보드네그","pt-BR":"Bodnegg","pt":"Bodnegg","nl":"Bodnegg","hr":"Bodnegg","fa":"بودنگ","de":"Bodnegg","es":"Bodnegg","fr":"Bodnegg","ja":"ボドネッグ","it":"Bodnegg","zh-CN":"博德内格","tr":"Bodnegg","ru":"Боднегг","uk":"Боднегг","pl":"Bodnegg","hi":"बोडनेग","ar":"بودنيج","hy":"Բոդնեգ"}},{"name":"Böhmenkirch","latitude":"48.68333000","longitude":"9.93333000","native":"Böhmenkirch","translations":{"br":"Böhmenkirch","ko":"뵈멘키르히","pt-BR":"Böhmenkirch","pt":"Böhmenkirch","nl":"Böhmenkirch","hr":"Böhmenkirch","fa":"بوهمنکیرش","de":"Böhmenkirch","es":"Böhmenkirch","fr":"Böhmenkirch","ja":"ベーメン教会","it":"Böhmenkirch","zh-CN":"伯门基希","tr":"Böhmenkirch","ru":"Бёменкирх","uk":"Беменкірх","pl":"Kościół Böhmenkirch","hi":"बोहमेनकिर्च","ar":"بوهمينكيرش","hy":"Բյոմենկիրխ"}},{"name":"Bolheim","latitude":"48.63141000","longitude":"10.14995000","native":"Bolheim","translations":{"br":"Bolheim","ko":"볼하임","pt-BR":"Bolheim","pt":"Bolheim","nl":"Bolheim","hr":"Bolheim","fa":"بولهایم","de":"Bolheim","es":"Bolheim","fr":"Bolheim","ja":"ボルハイム","it":"Bolheim","zh-CN":"博尔海姆","tr":"Bolheim","ru":"Болхейм","uk":"Болгейм","pl":"Bolheim","hi":"बोलहेम","ar":"بولهايم","hy":"Բոլհայմ"}},{"name":"Boll","latitude":"48.64357000","longitude":"9.61295000","native":"Boll","translations":{"br":"Boll","ko":"볼","pt-BR":"Cápsula","pt":"Cápsula","nl":"Bol","hr":"Boll","fa":"بول","de":"Boll","es":"Cápsula","fr":"Capsule","ja":"ボル","it":"Capsula","zh-CN":"铃","tr":"Koza","ru":"Болл","uk":"Болл","pl":"Torebka","hi":"बोल","ar":"بول","hy":"Բող"}},{"name":"Bollschweil","latitude":"47.92143000","longitude":"7.78986000","native":"Bollschweil","translations":{"br":"Bollschweil","ko":"볼슈바일","pt-BR":"Bollschweil","pt":"Bollschweil","nl":"Bollschweil","hr":"Bollschweil","fa":"بولشویل","de":"Bollschweil","es":"Bollschweil","fr":"Bollschweil","ja":"ボルシュヴァイル","it":"Bollschweil","zh-CN":"博尔施韦尔","tr":"Bollschweil","ru":"Большвайль","uk":"Болльшвайл","pl":"Bollschweil","hi":"बोल्शवील","ar":"بولشويل","hy":"Բողշվայլ"}},{"name":"Bondorf","latitude":"48.52064000","longitude":"8.83704000","native":"Bondorf","translations":{"br":"Bondorf","ko":"본도르프","pt-BR":"Bondorf","pt":"Bondorf","nl":"Bondorf","hr":"Bondorf","fa":"باندورف","de":"Bondorf","es":"Bondorf","fr":"Bondorf","ja":"ボンドルフ","it":"Bondorf","zh-CN":"邦多夫","tr":"Bondorf","ru":"Бондорф","uk":"Бондорф","pl":"Bondorf","hi":"बॉन्डोर्फ","ar":"بوندورف","hy":"Բոնդորֆ"}},{"name":"Bonndorf","latitude":"47.81863000","longitude":"8.34139000","native":"Bonndorf","translations":{"br":"Bonndorf","ko":"본도르프","pt-BR":"Bonndorf","pt":"Bonndorf","nl":"Bonndorf","hr":"Bonndorf","fa":"بوندورف","de":"Bonndorf","es":"Bonndorf","fr":"Bonndorf","ja":"ボンドルフ","it":"Bonndorf","zh-CN":"邦多夫","tr":"Bonndorf","ru":"Бонндорф","uk":"Бонндорф","pl":"Bonndorf","hi":"बोनडॉर्फ","ar":"بوندورف","hy":"Բոնդորֆ"}},{"name":"Bönnigheim","latitude":"49.04018000","longitude":"9.09386000","native":"Bennigheim","translations":{"br":"Bönnigheim","ko":"뵈니히하임","pt-BR":"Bönnigheim","pt":"Bönnigheim","nl":"Bönnigheim","hr":"Bönnigheim","fa":"بونیگهایم","de":"Bönnigheim","es":"Bönnigheim","fr":"Bönnigheim","ja":"ボンニヒハイム","it":"Bönnigheim","zh-CN":"伯尼希海姆","tr":"Bönnigheim","ru":"Бённигхайм","uk":"Беннігхайм","pl":"Bönnigheim","hi":"बोन्निगहेम","ar":"بونيغهايم","hy":"Բյոննիղհայմ"}},{"name":"Bopfingen","latitude":"48.85847000","longitude":"10.35417000","native":"Bopfingen","translations":{"br":"Bopfingen","ko":"보핑겐","pt-BR":"Bopfingen","pt":"Bopfingen","nl":"Bopfingen","hr":"Bopfingen","fa":"بوپفینگن","de":"Bopfingen","es":"Bopfingen","fr":"Bopfingen","ja":"ボプフィンゲン","it":"Bopfingen","zh-CN":"博普芬根","tr":"Bopfingen","ru":"Бопфинген","uk":"Бопфінген","pl":"Bopfingen","hi":"बोफिंगन","ar":"بوبفينجن","hy":"Բոպֆինգեն"}},{"name":"Börtlingen","latitude":"48.75376000","longitude":"9.63181000","native":"Bethaling","translations":{"br":"Börtlingen","ko":"뵈르트링겐","pt-BR":"Börtlingen","pt":"Börtlingen","nl":"Börtlingen","hr":"Börtlingen","fa":"بورتلینگن","de":"Börtlingen","es":"Börtlingen","fr":"Börtlingen","ja":"ベルトリンゲン","it":"Börtlingen","zh-CN":"伯特林根","tr":"Börtlingen","ru":"Бёртлинген","uk":"Бертлінген","pl":"Börtlingen","hi":"बोर्टलिंगन","ar":"بورتلينجن","hy":"Բյորտլինգեն"}},{"name":"Bösingen","latitude":"48.23333000","longitude":"8.55000000","native":"Bösingen","translations":{"br":"Bösingen","ko":"뵈싱겐","pt-BR":"Bösingen","pt":"Bösingen","nl":"Bösingen","hr":"Bösingen","fa":"بوسینگن","de":"Bösingen","es":"Bösingen","fr":"Bösingen","ja":"ベージンゲン","it":"Bösingen","zh-CN":"伯辛根","tr":"Bösingen","ru":"Бёзинген","uk":"Безінген","pl":"Bösingen","hi":"बोसिंगेन","ar":"بوسينجن","hy":"Բյոզինգեն"}},{"name":"Böttingen","latitude":"48.10000000","longitude":"8.80000000","native":"Böttingen","translations":{"br":"Böttingen","ko":"보팅겐","pt-BR":"Böttingen","pt":"Böttingen","nl":"Böttingen","hr":"Böttingen","fa":"بوتینگن","de":"Böttingen","es":"Böttingen","fr":"Böttingen","ja":"ボッティンゲン","it":"Böttingen","zh-CN":"伯廷根","tr":"Böttingen","ru":"Бёттинген","uk":"Бьоттінген","pl":"Böttingen","hi":"बोटिंगेन","ar":"بوتينغن","hy":"Բյոտինգեն"}},{"name":"Bötzingen","latitude":"48.07642000","longitude":"7.72485000","native":"Bötzingen","translations":{"br":"Bötzingen","ko":"뵈칭겐","pt-BR":"Bötzingen","pt":"Bötzingen","nl":"Bötzingen","hr":"Bötzingen","fa":"بوتزینگن","de":"Bötzingen","es":"Bötzingen","fr":"Bötzingen","ja":"ベッツィンゲン","it":"Bötzingen","zh-CN":"伯青根","tr":"Bötzingen","ru":"Бётцинген","uk":"Бьотцінген","pl":"Bötzingen","hi":"बोट्ज़िंगन","ar":"بوتزينجن","hy":"Բյոցինգեն"}},{"name":"Boxberg","latitude":"49.47965000","longitude":"9.64006000","native":"Boxberg","translations":{"br":"Boxberg","ko":"박스버그","pt-BR":"Boxberg","pt":"Boxberg","nl":"Boxberg","hr":"Boxberg","fa":"باکسبرگ","de":"Boxberg","es":"Boxberg","fr":"Boxberg","ja":"ボックスバーグ","it":"Boxberg","zh-CN":"博克斯伯格","tr":"Boxberg","ru":"Боксберг","uk":"Боксберг","pl":"Boxberg","hi":"बॉक्सबर्ग","ar":"بوكسبيرج","hy":"Բոքսբերգ"}},{"name":"Brackenheim","latitude":"49.07787000","longitude":"9.06601000","native":"Brackenheim","translations":{"br":"Brackenheim","ko":"브라켄하임","pt-BR":"Brackenheim","pt":"Brackenheim","nl":"Brackenheim","hr":"Brackenheim","fa":"براکنهایم","de":"Brackenheim","es":"Brackenheim","fr":"Brackenheim","ja":"ブラッケンハイム","it":"Brackenheim","zh-CN":"布拉肯海姆","tr":"Brackenheim","ru":"Бракенхайм","uk":"Брекенхайм","pl":"Brackenheim","hi":"ब्रैकेनहाइम","ar":"براكنهايم","hy":"Բրակենհայմ"}},{"name":"Bräunlingen","latitude":"47.92957000","longitude":"8.44806000","native":"Bräunlingen","translations":{"br":"Bräunlingen","ko":"브라운링겐","pt-BR":"Bräunlingen","pt":"Bräunlingen","nl":"Bräunlingen","hr":"Bräunlingen","fa":"برانلینگن","de":"Bräunlingen","es":"Bräunlingen","fr":"Bräunlingen","ja":"ブラウンリンゲン","it":"Bräunlingen","zh-CN":"布劳恩林根","tr":"Bräunlingen","ru":"Бройнлинген","uk":"Браунлінген","pl":"Bräunlingen","hi":"Braunlingen","ar":"براونلينجن","hy":"Բրաունլինգեն"}},{"name":"Braunsbach","latitude":"49.19917000","longitude":"9.79056000","native":"Braunsbach","translations":{"br":"Braunsbach","ko":"브라운스바흐","pt-BR":"Braunsbach","pt":"Braunsbach","nl":"Braunsbach","hr":"Braunsbach","fa":"براونزباخ","de":"Braunsbach","es":"Braunsbach","fr":"Braunsbach","ja":"ブラウンスバッハ","it":"Braunsbach","zh-CN":"布劳恩斯巴赫","tr":"Braunsbach","ru":"Браунсбах","uk":"Браунсбах","pl":"Brunszwik","hi":"ब्राउन्सबाख","ar":"براونزباخ","hy":"Բրաունսբախ"}},{"name":"Breisach am Rhein","latitude":"48.03279000","longitude":"7.58294000","native":"Breisach am Rhein","translations":{"br":"Breisach ar Rhein","ko":"브라이자흐 암 라인","pt-BR":"Breisach no Reno","pt":"Breisach no Reno","nl":"Breisach am Rhein","hr":"Breisach na Rajni","fa":"برایزاخ آم راین","de":"Breisach am Rhein","es":"Breisach am Rhein","fr":"Breisach-sur-le-Rhin","ja":"ブライザッハ・アム・ライン","it":"Breisach am Rhein","zh-CN":"莱茵河畔布赖萨赫","tr":"Breisach am Rhein","ru":"Брайзах-на-Рейне","uk":"Брайзах-на-Рейні","pl":"Breisach nad Renem","hi":"ब्रीसाच एम राइन","ar":"برايساش أم راين","hy":"Բրայզախ ամ Ռայն"}},{"name":"Breitnau","latitude":"47.93333000","longitude":"8.08333000","native":"Breitnau","translations":{"br":"Breizh","ko":"브라이트나우","pt-BR":"Breitnau","pt":"Breitnau","nl":"Breitnau","hr":"Breitnau","fa":"بریتناو","de":"Breitnau","es":"Breitnau","fr":"Breitnau","ja":"ブライトナウ","it":"Breitnau","zh-CN":"布赖特瑙","tr":"Breitnau","ru":"Брайтнау","uk":"Брайтнау","pl":"Breitnau","hi":"ब्रेइटनाऊ","ar":"بريتناو","hy":"Բրայտնաու"}},{"name":"Bretten","latitude":"49.03685000","longitude":"8.70745000","native":"Bretten","translations":{"br":"Bretten","ko":"브레텐","pt-BR":"Bretten","pt":"Bretten","nl":"Bretten","hr":"Bretten","fa":"برتن","de":"Bretten","es":"Bretten","fr":"Bretten","ja":"ブレッテン","it":"Bretten","zh-CN":"布雷滕","tr":"Bretten","ru":"Бреттен","uk":"Бреттен","pl":"Bretten","hi":"ब्रेटन","ar":"بريتن","hy":"Բրետեն"}},{"name":"Bretzfeld","latitude":"49.17944000","longitude":"9.43833000","native":"Bretzfeld","translations":{"br":"Bretzfeld","ko":"브레츠펠트","pt-BR":"Bretzfeld","pt":"Bretzfeld","nl":"Bretzfeld","hr":"Bretzfeld","fa":"برتزفلد","de":"Bretzfeld","es":"Bretzfeld","fr":"Bretzfeld","ja":"ブレッツフェルト","it":"Bretzfeld","zh-CN":"布雷茨菲尔德","tr":"Bretzfeld","ru":"Бретцфельд","uk":"Бретцфельд","pl":"Bretzfeld","hi":"ब्रेट्ज़फेल्ड","ar":"بريتزفيلد","hy":"Բրեցֆելդ"}},{"name":"Bruchsal","latitude":"49.12426000","longitude":"8.59804000","native":"Bruchsal","translations":{"br":"Bruchal","ko":"브루흐잘","pt-BR":"Bruchsal","pt":"Bruchsal","nl":"Bruchsal","hr":"Bruchsal","fa":"بروخسال","de":"Bruchsal","es":"Bruchsal","fr":"Bruchsal","ja":"ブルッフザール","it":"Bruchsal","zh-CN":"布鲁赫萨尔","tr":"Bruchsal","ru":"Брухзаль","uk":"Брухзаль","pl":"Bruchsal","hi":"ब्रुक्सल","ar":"بروخسال","hy":"Բրուխսալ"}},{"name":"Brühl","latitude":"49.39722000","longitude":"8.53361000","native":"Brühl","translations":{"br":"Brühl","ko":"브륄","pt-BR":"Brühl","pt":"Brühl","nl":"Brühl","hr":"Brühl","fa":"برول","de":"Brühl","es":"Brühl","fr":"Brühl","ja":"ブリュール","it":"Brühl","zh-CN":"布吕尔","tr":"Brühl","ru":"Брюль","uk":"Брюль","pl":"Brühl","hi":"ब्रुहल","ar":"برول","hy":"Բրյուղ"}},{"name":"Bubsheim","latitude":"48.11667000","longitude":"8.83333000","native":"Bubsheim","translations":{"br":"Bubsheim","ko":"부브스하임","pt-BR":"Bubsheim","pt":"Bubsheim","nl":"Bubsheim","hr":"Bubsheim","fa":"بوبسهایم","de":"Bubsheim","es":"Bubsheim","fr":"Bubsheim","ja":"バブスハイム","it":"Bubsheim","zh-CN":"布布斯海姆","tr":"Bubsheim","ru":"Бубсхайм","uk":"Бубсгайм","pl":"Bubsheim","hi":"बुब्सहेम","ar":"بوبسهايم","hy":"Բուբշհայմ"}},{"name":"Buch am Ahorn","latitude":"49.53909000","longitude":"9.55560000","native":"Buch am Ahorn","translations":{"br":"Buch am Ahorn","ko":"책 암 아혼","pt-BR":"Livro no Ahorn","pt":"Livro no Ahorn","nl":"Buch am Ahorn","hr":"Buch am Ahorn","fa":"بوخ آم آهورن","de":"Buch am Ahorn","es":"Buch am Ahorn","fr":"Livre sur Ahorn","ja":"ブック・アム・アホルン","it":"Buch am Ahorn","zh-CN":"阿霍恩书店","tr":"Buch am Ahorn","ru":"Бух-ам-Ахорн","uk":"Бух-ам-Агорн","pl":"Książka na Ahorn","hi":"बुच एम अहॉर्न","ar":"بوخ أم أهورن","hy":"Բուխ ամ Ահորն"}},{"name":"Buchen in Odenwald","latitude":"49.52416000","longitude":"9.32293000","translations":{"ru":"Бухен","hy":"Բուխեն ին Օդենվալդ"}},{"name":"Buchenbach","latitude":"47.96138000","longitude":"8.00909000","native":"Buchenbach","translations":{"br":"Buchenbach","ko":"부헨바흐","pt-BR":"Buchenbach","pt":"Buchenbach","nl":"Buchenbach","hr":"Buchenbach","fa":"بوخنباخ","de":"Buchenbach","es":"Buchenbach","fr":"Buchenbach","ja":"ブーヘンバッハ","it":"Buchenbach","zh-CN":"布亨巴赫","tr":"Buchenbach","ru":"Бухенбах","uk":"Бухенбах","pl":"Buchenbach","hi":"बुचेनबाख","ar":"بوخنباخ","hy":"Բուխենբախ"}},{"name":"Buggingen","latitude":"47.84750000","longitude":"7.63799000","native":"Buggingen","translations":{"br":"Buggingen","ko":"부깅겐","pt-BR":"Buggingen","pt":"Buggingen","nl":"Buggingen","hr":"Büggingen","fa":"بوگینگن","de":"Buggingen","es":"Buggingen","fr":"Buggingen","ja":"ブッギンゲン","it":"Buggingen","zh-CN":"布金根","tr":"Buggingen","ru":"Буггинген","uk":"Буггінген","pl":"Buggingen","hi":"बुगिंगेन","ar":"بوجينجن","hy":"Բուգինգեն"}},{"name":"Bühl","latitude":"48.69676000","longitude":"8.13523000","native":"Bühl","translations":{"br":"Bühl","ko":"뷜","pt-BR":"Bühl","pt":"Bühl","nl":"Bühl","hr":"Bühl","fa":"بول","de":"Bühl","es":"Bühl","fr":"Bühl","ja":"ビュール","it":"Bühl","zh-CN":"布尔","tr":"Bühl","ru":"Бюль","uk":"Бюль","pl":"Bühl","hi":"बुहल","ar":"بوهل","hy":"Բյուղ"}},{"name":"Bühlertal","latitude":"48.68569000","longitude":"8.18876000","native":"Bühlertal","translations":{"br":"Bühlertal","ko":"뷜러탈","pt-BR":"Bühlertal","pt":"Bühlertal","nl":"Bühlertal","hr":"Bühlertal","fa":"بوهلرتال","de":"Bühlertal","es":"Bühlertal","fr":"Bühlertal","ja":"ビューラータール","it":"Bühlertal","zh-CN":"比勒塔尔","tr":"Bühlertal","ru":"Бюлерталь","uk":"Бюлерталь","pl":"Bühlertal","hi":"बुहलर्टल","ar":"بوهلرتال","hy":"Բյուղերտալ"}},{"name":"Bühlertann","latitude":"49.04167000","longitude":"9.90861000","native":"Bühlertann","translations":{"br":"Bühlertann","ko":"부엘러탄","pt-BR":"Bühlertann","pt":"Bühlertann","nl":"Bühlertann","hr":"Bühlertann","fa":"بوهلرتان","de":"Bühlertann","es":"Bühlertann","fr":"Bühlertann","ja":"ビューラータン","it":"Bühlertann","zh-CN":"布勒坦","tr":"Bühlertann","ru":"Бюлертанн","uk":"Бюлертанн","pl":"Bühlertann","hi":"बुहलरटैन","ar":"بوهلرتان","hy":"Բյուղերտան"}},{"name":"Bühlerzell","latitude":"49.00333000","longitude":"9.92056000","native":"Buhlerzell","translations":{"br":"Bühlerzell","ko":"뷜러첼","pt-BR":"Bühlerzell","pt":"Bühlerzell","nl":"Bühlerzell","hr":"Bühlerzell","fa":"بوهلرزل","de":"Bühlerzell","es":"Bühlerzell","fr":"Bühlerzell","ja":"ビューラーツェル","it":"Bühlerzell","zh-CN":"比勒策尔","tr":"Bühlerzell","ru":"Бюлерцелль","uk":"Бюлерцель","pl":"Bühlerzell","hi":"बुहलरज़ेल","ar":"بوهلرزيل","hy":"Բյուղերցեղ"}},{"name":"Burgrieden","latitude":"48.23333000","longitude":"9.93333000","native":"Burgen","translations":{"br":"Burgrieden","ko":"부르그리덴","pt-BR":"Burgrieden","pt":"Burgrieden","nl":"Burgrieden","hr":"Burgrieden","fa":"بورگریدِن","de":"Burgrieden","es":"Burgrieden","fr":"Burgrieden","ja":"ブルクリーデン","it":"Burgrieden","zh-CN":"布格里登","tr":"Burgrieden","ru":"Бургриден","uk":"Бургріден","pl":"Burgrieden","hi":"बर्ग्रीडेन","ar":"بورغريدن","hy":"Բուրգրիեդեն"}},{"name":"Burgstetten","latitude":"48.92805000","longitude":"9.37239000","native":"Burgstetten","translations":{"br":"Burgstetten","ko":"부르크슈테텐","pt-BR":"Burgstetten","pt":"Burgstetten","nl":"Burgstetten","hr":"Burgstetten","fa":"بورگشتتن","de":"Burgstetten","es":"Burgstetten","fr":"Burgstetten","ja":"ブルクシュテッテン","it":"Burgstetten","zh-CN":"布格施泰滕","tr":"Burgstetten","ru":"Бургштеттен","uk":"Бургштеттен","pl":"Burgstetten","hi":"बर्गस्टेटन","ar":"بورغشتيتن","hy":"Բուրգստետեն"}},{"name":"Burladingen","latitude":"48.29111000","longitude":"9.11286000","native":"Burladingen","translations":{"br":"Burladingen","ko":"부르라딩겐","pt-BR":"Burladingen","pt":"Burladingen","nl":"Burladingen","hr":"Burladingen","fa":"بورلادینگن","de":"Burladingen","es":"Burladingen","fr":"Burladingen","ja":"ブルラディンゲン","it":"Burladingen","zh-CN":"布拉丁根","tr":"Burladingen","ru":"Бурладинген","uk":"Бурладінген","pl":"Burladingen","hi":"बर्लाडिंगेन","ar":"بورلادينجن","hy":"Բուրլադինգեն"}},{"name":"Büsingen","latitude":"47.69638000","longitude":"8.68759000","native":"Büsingen","translations":{"br":"Büsingen","ko":"뷔징겐","pt-BR":"Büsingen","pt":"Büsingen","nl":"Busingen","hr":"Büsingen","fa":"بوسینگن","de":"Büsingen","es":"Büsingen","fr":"Büsingen","ja":"ビュージンゲン","it":"Büsingen","zh-CN":"比辛根","tr":"Büsingen","ru":"Бюзинген","uk":"Бюзінген","pl":"Büsingen","hi":"Busingen","ar":"بوزنجن","hy":"Բյուզինգեն"}},{"name":"Calw","latitude":"48.71419000","longitude":"8.74031000","native":"Calw","translations":{"br":"Calw","ko":"칼우","pt-BR":"Calw","pt":"Calw","nl":"Calw","hr":"Calw","fa":"کالو","de":"Calw","es":"Calw","fr":"Calw","ja":"カルフ","it":"Calw","zh-CN":"卡尔夫","tr":"Calw","ru":"Кальв","uk":"Кальв","pl":"Calw","hi":"काल्व","ar":"كالف","hy":"Կալվ"}},{"name":"Cleebronn","latitude":"49.04500000","longitude":"9.03694000","native":"Cleebronn","translations":{"br":"Cleebronn","ko":"클레브론","pt-BR":"Cleebronn","pt":"Cleebronn","nl":"Cleebronn","hr":"Cleebronn","fa":"کلیبرون","de":"Cleebronn","es":"Cleebronn","fr":"Cleebronn","ja":"クリーブロン","it":"Cleebronn","zh-CN":"克莱布龙","tr":"Cleebronn","ru":"Клебронн","uk":"Клебронн","pl":"Cleebronn","hi":"क्लीब्रॉन","ar":"كليبرون","hy":"Կլեբրոն"}},{"name":"Crailsheim","latitude":"49.13444000","longitude":"10.07193000","native":"Crailsheim","translations":{"br":"Crailsheim","ko":"크레일샤임","pt-BR":"Crailsheim","pt":"Crailsheim","nl":"Crailsheim","hr":"Crailsheim","fa":"کریلزهایم","de":"Crailsheim","es":"Crailsheim","fr":"Crailsheim","ja":"クライルスハイム","it":"Crailsheim","zh-CN":"克赖尔斯海姆","tr":"Crailsheim","ru":"Крайльсхайм","uk":"Крайльсгайм","pl":"Crailsheim","hi":"क्रेल्सहेम","ar":"كرايلسهايم","hy":"Կրայլշհայմ"}},{"name":"Creglingen","latitude":"49.46937000","longitude":"10.03119000","native":"CREGLINGEN","translations":{"br":"Creglingen","ko":"크레글링겐","pt-BR":"Creglingen","pt":"Creglingen","nl":"Creglingen","hr":"Creglingen","fa":"کرگلینگن","de":"Creglingen","es":"Creglingen","fr":"Creglingen","ja":"クレグリンゲン","it":"Creglingen","zh-CN":"克雷格林根","tr":"Creglingen","ru":"Креглинген","uk":"Креглінген","pl":"Creglingen","hi":"क्रेग्लिंगन","ar":"كريغلينغن","hy":"Կրեղլինգեն"}},{"name":"Daisendorf","latitude":"47.71265000","longitude":"9.26783000","native":"Daisendorf","translations":{"br":"Daisendorf","ko":"다이센도르프","pt-BR":"Daisendorf","pt":"Daisendorf","nl":"Daisendorf","hr":"Daisendorf","fa":"دایزندورف","de":"Daisendorf","es":"Daisendorf","fr":"Daisendorf","ja":"ダイゼンドルフ","it":"Daisendorf","zh-CN":"戴森多夫","tr":"Daisendorf","ru":"Дайзендорф","uk":"Дайзендорф","pl":"Daisendorf","hi":"डाइसेनडॉर्फ","ar":"دايسندورف","hy":"Դայզենդորֆ"}},{"name":"Dauchingen","latitude":"48.08993000","longitude":"8.55011000","native":"Dauchingen","translations":{"br":"Dauchingen","ko":"다우힝겐","pt-BR":"Dauchingen","pt":"Dauchingen","nl":"Dauchingen","hr":"Dauchingen","fa":"دوشینگن","de":"Dauchingen","es":"Dauchingen","fr":"Dauchingen","ja":"ダウヒンゲン","it":"Dauchingen","zh-CN":"多欣根","tr":"Dauchingen","ru":"Даухинген","uk":"Даухінген","pl":"Dauchingen","hi":"डाउचिंगन","ar":"دوشينغن","hy":"Դաուխինգեն"}},{"name":"Deckenpfronn","latitude":"48.65128000","longitude":"8.82417000","native":"Deckenpfronn","translations":{"br":"Deckenpfronn","ko":"데켄프론","pt-BR":"Deque Pfronn","pt":"Deque Pfronn","nl":"Deckenpfronn","hr":"Deckenpfronn","fa":"دکنپفرون","de":"Deckenpfronn","es":"Deckenpronn","fr":"Couverture","ja":"デッケンプフロン","it":"Deckenpfronn","zh-CN":"德肯普弗龙","tr":"Deckenpfronn","ru":"Декенпфронн","uk":"Декенпфронн","pl":"Deckenpfronn","hi":"डेकेनपफ्रोन","ar":"ديكنبفرون","hy":"Դեկենպֆրոն"}},{"name":"Deggingen","latitude":"48.59710000","longitude":"9.71891000","native":"Deggings","translations":{"br":"Degggingen","ko":"데깅겐","pt-BR":"Deggingen","pt":"Deggingen","nl":"Deggingen","hr":"Deggingen","fa":"دگینگن","de":"Deggingen","es":"Deggingen","fr":"Deggingen","ja":"デギンゲン","it":"Deggingen","zh-CN":"德金根","tr":"Deggingen","ru":"Деггинген","uk":"Деггінген","pl":"Deggingen","hi":"डेगिंगेन","ar":"ديجينجن","hy":"Դեգգինգեն"}},{"name":"Deilingen","latitude":"48.17410000","longitude":"8.78533000","native":"Deilieren","translations":{"br":"Deilingen","ko":"델링겐","pt-BR":"Deilingen","pt":"Deilingen","nl":"Deilingen","hr":"Deilingen","fa":"دیلینگن","de":"Deilingen","es":"Deilingen","fr":"Deilingen","ja":"ダイリンゲン","it":"Deilingen","zh-CN":"戴林根","tr":"Deilingen","ru":"Дайлинген","uk":"Дейлінген","pl":"Deilingen","hi":"डीलिंगेन","ar":"ديلينجن","hy":"Դեյլինգեն"}},{"name":"Deißlingen","latitude":"48.11230000","longitude":"8.60736000","native":"Decesses","translations":{"br":"Deißlingen","ko":"다이슬링겐","pt-BR":"Deißlingen","pt":"Deißlingen","nl":"Deißlingen","hr":"Deißlingen","fa":"دایسلینگن","de":"Deißlingen","es":"Deißlingen","fr":"Deisslingen","ja":"デイスリンゲン","it":"Deißlingen","zh-CN":"戴斯林根","tr":"Deißlingen","ru":"Дайслинген","uk":"Дайслінген","pl":"Deißlingen","hi":"डेइस्लिंगेन","ar":"دايسلينجن","hy":"Դեյսլինգեն"}},{"name":"Deizisau","latitude":"48.71220000","longitude":"9.38610000","native":"Deizau","translations":{"br":"Deizisau","ko":"데이지사우","pt-BR":"Deizisau","pt":"Deizisau","nl":"Deizisau","hr":"Deizisau","fa":"دیزیسو","de":"Deizisau","es":"Deizisau","fr":"Deizisau","ja":"デイジザウ","it":"Deizisau","zh-CN":"戴齐绍","tr":"Deizisau","ru":"Дейзисау","uk":"Дейзізау","pl":"Deizisau","hi":"डेइज़िसौ","ar":"ديزيساو","hy":"Դեյզիզաու"}},{"name":"Denkendorf","latitude":"48.69555000","longitude":"9.31675000","native":"Denkendorf","translations":{"br":"Denkendorf","ko":"덴켄도르프","pt-BR":"Denkendorf","pt":"Denkendorf","nl":"Denkendorf","hr":"Denkendorf","fa":"دنکندورف","de":"Denkendorf","es":"Denkendorf","fr":"Denkendorf","ja":"デンケンドルフ","it":"Denkendorf","zh-CN":"登肯多夫","tr":"Denkendorf","ru":"Денкендорф","uk":"Денкендорф","pl":"Denkendorf","hi":"डेन्केंडोर्फ","ar":"دينكندورف","hy":"Դենկենդորֆ"}},{"name":"Denkingen","latitude":"48.11110000","longitude":"8.73820000","native":"Kommentare","translations":{"br":"Denkingen","ko":"덴킹겐","pt-BR":"Denkingen","pt":"Denkingen","nl":"Denken","hr":"Denkingen","fa":"دنکینگن","de":"Denkeningen","es":"Denkingen","fr":"Denkingen","ja":"デンキンゲン","it":"Denkingen","zh-CN":"登金根","tr":"Denkingen","ru":"Денкинген","uk":"Денкінген","pl":"Denkingen","hi":"डेन्किंगेन","ar":"دينكينجن","hy":"Դենկինգեն"}},{"name":"Denzlingen","latitude":"48.06667000","longitude":"7.88333000","native":"Denzlingen","translations":{"br":"Denzlingen","ko":"덴츠링겐","pt-BR":"Denzlingen","pt":"Denzlingen","nl":"Denzlingen","hr":"Denzlingen","fa":"دنزلینگن","de":"Denzlingen","es":"Denzlingen","fr":"Denzlingen","ja":"デンツリンゲン","it":"Denzlingen","zh-CN":"登茨林根","tr":"Denzlingen","ru":"Денцлинген","uk":"Дензлінген","pl":"Denzlingen","hi":"डेन्ज़लिंगन","ar":"دينزلينجن","hy":"Դենցլինգեն"}},{"name":"Dettenhausen","latitude":"48.60758000","longitude":"9.10041000","native":"Dettenhausen","translations":{"br":"Dettenhausen","ko":"데텐하우젠","pt-BR":"Dettenhausen","pt":"Dettenhausen","nl":"Dettenhausen","hr":"Dettenhausen","fa":"دتنهاوزن","de":"Dettenhausen","es":"Dettenhausen","fr":"Dettenhausen","ja":"デッテンハウゼン","it":"Dettenhausen","zh-CN":"德滕豪森","tr":"Dettenhausen","ru":"Деттенхаузен","uk":"Деттенхаузен","pl":"Dettenhausen","hi":"डेटेनहौसेन","ar":"ديتنهاوزن","hy":"Դետտենհաուզեն"}},{"name":"Dettighofen","latitude":"47.62333000","longitude":"8.48512000","native":"Dettigighofen","translations":{"br":"Dettihofen","ko":"데티히호펜","pt-BR":"Dettighofen","pt":"Dettighofen","nl":"Dettighofen","hr":"Dettighofen","fa":"دتیگوفن","de":"Dettighofen","es":"Dettighofen","fr":"Dettighofen","ja":"デッティゴフェン","it":"Dettighofen","zh-CN":"德蒂格霍芬","tr":"Dettighofen","ru":"Деттигхофен","uk":"Деттіггофен","pl":"Dettigofen","hi":"डेटीघोफेन","ar":"ديتيغوفن","hy":"Դետտիղհոֆեն"}},{"name":"Dettingen","latitude":"48.26246000","longitude":"9.72161000","native":"Dettingen","translations":{"br":"Dettingen","ko":"데팅겐","pt-BR":"Dettingen","pt":"Dettingen","nl":"Dettingen","hr":"Dettingen","fa":"دتینگن","de":"Dettingen","es":"Dettingen","fr":"Dettingen","ja":"デッティンゲン","it":"Dettingen","zh-CN":"德廷根","tr":"Dettingen","ru":"Деттинген","uk":"Деттінген","pl":"Dettingen","hi":"डेटिंगेन","ar":"ديتينجن","hy":"Դետտինգեն"}},{"name":"Dettingen an der Erms","latitude":"48.53077000","longitude":"9.34458000","native":"Dettingen an der Erms","translations":{"br":"Dettingen an der Erms","ko":"데팅겐 안 데르 에름스","pt-BR":"Dettingen an der Erms","pt":"Dettingen an der Erms","nl":"Dettingen an der Erms","hr":"Dettingen an der Erms","fa":"دتینگن آن در ارمز","de":"Dettingen an der Erms","es":"Dettingen an der Erms","fr":"Dettingen an der Erms","ja":"デッティンゲン・アン・デア・エルムス","it":"Dettingen an der Erms","zh-CN":"埃尔姆斯河畔德廷根","tr":"Dettingen an der Erms","ru":"Деттинген-ан-дер-Эрмс","uk":"Деттінген-ан-дер-Ермс","pl":"Dettingen an der Erms","hi":"Dettingen an der Erms","ar":"Dettingen an der Erms","hy":"Դեattorneyտինգեն ան դեր Էրմս"}},{"name":"Dettingen unter Teck","latitude":"48.61667000","longitude":"9.45000000","native":"Dettingen unter Teck","translations":{"br":"Dettingen unter Teck","ko":"데팅겐 운터 테크","pt-BR":"Dettingen sob Teck","pt":"Dettingen sob Teck","nl":"Dettingen unter Teck","hr":"Dettingen unter Tecku","fa":"دتینگن آنتر تک","de":"Dettingen unter Teck","es":"Dettingen bajo Teck","fr":"Dettingen sous Teck","ja":"デッティンゲン・ウンター・テック","it":"Dettingen unter Teck","zh-CN":"泰克山下的德廷根","tr":"Dettingen unter Teck","ru":"Деттинген-унтер-Тек","uk":"Деттінген-унтер-Тек","pl":"Dettingen unter Teck","hi":"Dettingen unter Teck","ar":"Dettingen unter Teck","hy":"Դետտինգեն ունտեր Տեկ"}},{"name":"Dielheim","latitude":"49.28417000","longitude":"8.73806000","native":"Dielheim","translations":{"br":"Dielheim","ko":"디엘하임","pt-BR":"Dielheim","pt":"Dielheim","nl":"Dielheim","hr":"Dielheim","fa":"دیلهایم","de":"Dielheim","es":"Dielheim","fr":"Dielheim","ja":"ディルハイム","it":"Dielheim","zh-CN":"迪尔海姆","tr":"Dielheim","ru":"Дильхайм","uk":"Дільхайм","pl":"Dielheim","hi":"डाइलहेम","ar":"ديلهايم","hy":"Դիելհեյմ"}},{"name":"Dietenheim","latitude":"48.21072000","longitude":"10.07163000","native":"Diatenheim","translations":{"br":"Dietenheim","ko":"디텐하임","pt-BR":"Dietenheim","pt":"Dietenheim","nl":"Dietenheim","hr":"Dietenheim","fa":"دیتنهایم","de":"Dietenheim","es":"Dietenheim","fr":"Dietenheim","ja":"ディーテンハイム","it":"Teodone","zh-CN":"迪滕海姆","tr":"Dietenheim","ru":"Дитенхайм","uk":"Дітенхайм","pl":"Dietenheim","hi":"डायटेनहाइम","ar":"ديتنهايم","hy":"Դիետենհեյմ"}},{"name":"Dietingen","latitude":"48.20480000","longitude":"8.64864000","native":"Diät","translations":{"br":"Dietingen","ko":"다이어트겐","pt-BR":"Dietingen","pt":"Dietingen","nl":"Dietingen","hr":"Dietingen","fa":"دیتینگن","de":"Dietingen","es":"Dietingen","fr":"Dietingen","ja":"ディーティンゲン","it":"Dietingen","zh-CN":"迪廷根","tr":"Diyetingen","ru":"Дитинген","uk":"Дітінген","pl":"Dietingen","hi":"डाइटिंगेन","ar":"دايتينجن","hy":"Դիետինգեն"}},{"name":"Dischingen","latitude":"48.70000000","longitude":"10.36667000","native":"Dischingen","translations":{"br":"Dischingen","ko":"디싱겐","pt-BR":"Dischingen","pt":"Dischingen","nl":"Dischingen","hr":"Dischingen","fa":"دیشینگن","de":"Dischingen","es":"Dischingen","fr":"Dischingen","ja":"ディッシンゲン","it":"Dischingen","zh-CN":"迪欣根","tr":"Dischingen","ru":"Дишинген","uk":"Дішинген","pl":"Dischingen","hi":"डिस्किंगेन","ar":"ديشينغن","hy":"Դիշինգեն"}},{"name":"Ditzingen","latitude":"48.82672000","longitude":"9.06703000","native":"Ditzingen","translations":{"br":"Ditzingen","ko":"디칭겐","pt-BR":"Ditzingen","pt":"Ditzingen","nl":"Ditzingen","hr":"Ditzingen","fa":"دیتزینگن","de":"Ditzingen","es":"Ditzingen","fr":"Ditzingen","ja":"ディツィンゲン","it":"Ditzingen","zh-CN":"迪琴根","tr":"Ditzingen","ru":"Дитцинген","uk":"Дітцінген","pl":"Ditzingen","hi":"डिट्ज़िंगन","ar":"ديتزينجن","hy":"Դիցինգեն"}},{"name":"Dobel","latitude":"48.80000000","longitude":"8.50000000","native":"Doppelt","translations":{"br":"Dobel","ko":"도벨","pt-BR":"Dobel","pt":"Dobel","nl":"Dobel","hr":"Dobel","fa":"دوبل","de":"Dobel","es":"Dobel","fr":"Dobel","ja":"ドーベル","it":"Dobel","zh-CN":"多贝尔","tr":"Dobel","ru":"Добель","uk":"Добель","pl":"Dobel","hi":"डोबेल","ar":"دوبل","hy":"Դոբել"}},{"name":"Dogern","latitude":"47.60952000","longitude":"8.16713000","native":"Dogern","translations":{"br":"Dogern","ko":"도게른","pt-BR":"Dogern","pt":"Dogern","nl":"Dogern","hr":"Dogern","fa":"دوگرن","de":"Dogern","es":"Dogern","fr":"Dogern","ja":"ドゲルン","it":"Dogern","zh-CN":"多根","tr":"Dogern","ru":"Догерн","uk":"Догерн","pl":"Dogern","hi":"डोगर्न","ar":"دوجيرن","hy":"Դոգերն"}},{"name":"Donaueschingen","latitude":"47.95514000","longitude":"8.49707000","native":"Donaueschingen","translations":{"br":"Donaueschingen","ko":"도나우에싱겐","pt-BR":"Donaueschingen","pt":"Donaueschingen","nl":"Donaueschingen","hr":"Donaueschingen","fa":"دوناشینگن","de":"Donaueschingen","es":"Donaueschingen","fr":"Donaueschingen","ja":"ドナウエッシンゲン","it":"Donaueschingen","zh-CN":"多瑙艾辛根","tr":"Donaueschingen","ru":"Донауэшинген","uk":"Донаушинген","pl":"Donaueschingen","hi":"डोनौशिंगेन","ar":"دوناوشينغن","hy":"Դոնաուեշինգեն"}},{"name":"Donzdorf","latitude":"48.68544000","longitude":"9.81053000","native":"Donzdorf","translations":{"br":"Donzdorf","ko":"돈츠도르프","pt-BR":"Donzdorf","pt":"Donzdorf","nl":"Donzdorf","hr":"Dönzdorf","fa":"دونزدورف","de":"Donzdorf","es":"Donzdorf","fr":"Donzdorf","ja":"ドンツドルフ","it":"Donzdorf","zh-CN":"东兹多夫","tr":"Donzdorf","ru":"Донцдорф","uk":"Донцдорф","pl":"Donzdorf","hi":"डोंज़डॉर्फ","ar":"دونزدورف","hy":"Դոնցդորֆ"}},{"name":"Dormettingen","latitude":"48.23688000","longitude":"8.77327000","native":"Dormettieren","translations":{"br":"Dormettingen","ko":"도르메팅겐","pt-BR":"Dormettingen","pt":"Dormettingen","nl":"Dormettingen","hr":"Dormettingen","fa":"دورمتینگن","de":"Dormettingen","es":"Dormettingen","fr":"Dormettingen","ja":"ドルメッティンゲン","it":"Dormettingen","zh-CN":"多梅廷根","tr":"Dormettingen","ru":"Дорметтинген","uk":"Дорметтінген","pl":"Dormettingen","hi":"डॉर्मेटिंगेन","ar":"دورميتينجن","hy":"Դորմետտինգեն"}},{"name":"Dornhan","latitude":"48.35008000","longitude":"8.50901000","native":"Dornhan","translations":{"br":"Dornhan","ko":"도른한","pt-BR":"Dornhan","pt":"Dornhan","nl":"Dornhan","hr":"Dornhan","fa":"دورنهان","de":"Dornhan","es":"Dornhan","fr":"Dornhan","ja":"ドルンハン","it":"Dornhan","zh-CN":"多恩汉","tr":"Dornhan","ru":"Дорнхан","uk":"Дорнхан","pl":"Dornhan","hi":"डोर्नहान","ar":"دورنهان","hy":"Դորնհան"}},{"name":"Dornstadt","latitude":"48.46697000","longitude":"9.94434000","native":"Dornstadt","translations":{"br":"Dornstadt","ko":"도른슈타트","pt-BR":"Dornstadt","pt":"Dornstadt","nl":"Dornstadt","hr":"Dornstadt","fa":"دورنشتات","de":"Dornstadt","es":"Dornstadt","fr":"Dornstadt","ja":"ドルンシュタット","it":"Dornstadt","zh-CN":"多恩施塔特","tr":"Dornstadt","ru":"Дорнштадт","uk":"Дорнштадт","pl":"Dornstadt","hi":"डोर्नस्टाट","ar":"دورنشتات","hy":"Դորնշտատ"}},{"name":"Dornstetten","latitude":"48.47198000","longitude":"8.49817000","native":"Dornsteten","translations":{"br":"Dornstetten","ko":"도른슈테텐","pt-BR":"Dornstetten","pt":"Dornstetten","nl":"Dornstetten","hr":"Dornstetten","fa":"دورنشتن","de":"Dornstetten","es":"Dornstetten","fr":"Dornstetten","ja":"ドルンシュテッテン","it":"Dornstetten","zh-CN":"多恩施泰滕","tr":"Dornstetten","ru":"Дорнштеттен","uk":"Дорнштеттен","pl":"Dornstetten","hi":"डोर्नस्टेटन","ar":"دورنشتيتن","hy":"Դորնշտետտեն"}},{"name":"Dörzbach","latitude":"49.38355000","longitude":"9.70732000","native":"Dörzbach","translations":{"br":"Dörzbach","ko":"되르츠바흐","pt-BR":"Dörzbach","pt":"Dörzbach","nl":"Dörzbach","hr":"Dörzbach","fa":"دورتسباخ","de":"Dörzbach","es":"Dörzbach","fr":"Dörzbach","ja":"ドルツバッハ","it":"Dörzbach","zh-CN":"德尔茨巴赫","tr":"Dörzbach","ru":"Дёрцбах","uk":"Дерцбах","pl":"Dörzbach","hi":"डोर्ज़बाक","ar":"دورزباخ","hy":"Դյորցբախ"}},{"name":"Dossenheim","latitude":"49.45028000","longitude":"8.67472000","native":"Dossenheim","translations":{"br":"Dossenheim","ko":"도센하임","pt-BR":"Dossenheim","pt":"Dossenheim","nl":"Dossenheim","hr":"Dossenheim","fa":"دوسنهایم","de":"Dossenheim","es":"Dossenheim","fr":"Dossenheim","ja":"ドッセンハイム","it":"Dossenheim","zh-CN":"多森海姆","tr":"Dossenheim","ru":"Доссенхайм","uk":"Доссенхайм","pl":"Dossenheim","hi":"डोसेनहाइम","ar":"دوسنهايم","hy":"Դոսենհեյմ"}},{"name":"Dotternhausen","latitude":"48.22848000","longitude":"8.79228000","native":"Die Tochter","translations":{"br":"Dotternhausen","ko":"도테른하우젠","pt-BR":"Dotternhausen","pt":"Dotternhausen","nl":"Dotternhausen","hr":"Dotternhausen","fa":"دوترنهاوزن","de":"Dotternhausen","es":"Dotternhausen","fr":"Dotternhausen","ja":"ドッテルンハウゼン","it":"Dotternhausen","zh-CN":"多特恩豪森","tr":"Dotternhausen","ru":"Доттернхаузен","uk":"Доттернхаузен","pl":"Dotternhausen","hi":"डॉटर्नहौसेन","ar":"دوترنهاوزن","hy":"Դոտեռնհաուզեն"}},{"name":"Dunningen","latitude":"48.21242000","longitude":"8.50619000","native":"Dunning","translations":{"br":"Dunningen","ko":"더닝겐","pt-BR":"Dunningen","pt":"Dunningen","nl":"Dunningen","hr":"Dunningen","fa":"دانینگن","de":"Dunningen","es":"Dunningen","fr":"Dunningen","ja":"ダニンゲン","it":"Dunningen","zh-CN":"邓宁根","tr":"Dunningen","ru":"Даннинген","uk":"Даннінген","pl":"Dunningen","hi":"डनिंगन","ar":"دونينجن","hy":"Դունինգեն"}},{"name":"Durbach","latitude":"48.49352000","longitude":"8.01736000","native":"Durbach","translations":{"br":"Durbach","ko":"두르바흐","pt-BR":"Durbach","pt":"Durbach","nl":"Durbach","hr":"Durbach","fa":"دورباخ","de":"Durbach","es":"Durbach","fr":"Durbach","ja":"ダーバッハ","it":"Durbach","zh-CN":"杜尔巴赫","tr":"Durbach","ru":"Дурбах","uk":"Дурбах","pl":"Durbach","hi":"डर्बाच","ar":"دورباخ","hy":"Դուրբախ"}},{"name":"Dürbheim","latitude":"48.05623000","longitude":"8.79344000","native":"Dürbheim","translations":{"br":"Dürbheim","ko":"뒤르브하임","pt-BR":"Dürbheim","pt":"Dürbheim","nl":"Dürbheim","hr":"Dürbheim","fa":"دوربهایم","de":"Dürbheim","es":"Dürbheim","fr":"Dürbheim","ja":"デュルプハイム","it":"Dürbheim","zh-CN":"杜尔布海姆","tr":"Dürbheim","ru":"Дюрбхайм","uk":"Дюрбхайм","pl":"Dürbheim","hi":"डर्बहेम","ar":"دوربهايم","hy":"Դյուրբհեյմ"}},{"name":"Durlangen","latitude":"48.85632000","longitude":"9.79654000","native":"Durlangen","translations":{"br":"Durlangen","ko":"듀를랑겐","pt-BR":"Durlangen","pt":"Durlangen","nl":"Durlangen","hr":"Dürlangen","fa":"دورلانگن","de":"Durlangen","es":"Durlangen","fr":"Dürlangen","ja":"デュランゲン","it":"Durlangen","zh-CN":"杜尔朗根","tr":"Durlangen","ru":"Дурланген","uk":"Дюрланген","pl":"Durlangen","hi":"डुरलांगेन","ar":"دورلانجن","hy":"Դուրլանգեն"}},{"name":"Dürmentingen","latitude":"48.11667000","longitude":"9.53333000","native":"Dürmentingen","translations":{"br":"Dürmentengen","ko":"뒤르멘팅겐","pt-BR":"Dürmentingen","pt":"Dürmentingen","nl":"Dürmentingen","hr":"Dürmentingen","fa":"دورمنتینگن","de":"Dürmentingen","es":"Dürmentingen","fr":"Dürmentingen","ja":"デュルメンティンゲン","it":"Dürmentingen","zh-CN":"迪尔门廷根","tr":"Dürmentingen","ru":"Дюрментинген","uk":"Дюрментінген","pl":"Dürmentingen","hi":"ड्यूरमेंटिंगेन","ar":"دورمنتينجن","hy":"Դյուրմենտինգեն"}},{"name":"Durmersheim","latitude":"48.93333000","longitude":"8.26667000","native":"Durmersheim","translations":{"br":"Durmersheim","ko":"뒤르머스하임","pt-BR":"Durmersheim","pt":"Durmersheim","nl":"Durmersheim","hr":"Dürmersheim","fa":"دورمرهایم","de":"Durmersheim","es":"Durmersheim","fr":"Dürmersheim","ja":"ドゥルマースハイム","it":"Dürmersheim","zh-CN":"杜尔默斯海姆","tr":"Durmersheim","ru":"Дурмерсхайм","uk":"Дюрмерсхайм","pl":"Durmersheim","hi":"डर्मर्सहाइम","ar":"دورميرسهايم","hy":"Դուրմեռսհեյմ"}},{"name":"Dürnau","latitude":"48.64079000","longitude":"9.63544000","native":"Dürnau","translations":{"br":"Dürnau","ko":"뒤르나우","pt-BR":"Dürnau","pt":"Dürnau","nl":"Dürnau","hr":"Dürnau","fa":"دورناو","de":"Dürnau","es":"Dürnau","fr":"Dürnau","ja":"デュルナウ","it":"Dürnau","zh-CN":"杜尔瑙","tr":"Dürnau","ru":"Дюрнау","uk":"Дюрнау","pl":"Dürnau","hi":"डर्नौ","ar":"دورناو","hy":"Դյուռնաու"}},{"name":"Dußlingen","latitude":"48.45357000","longitude":"9.05552000","native":"Dußlingen","translations":{"br":"Dußlingen","ko":"뒤스링겐","pt-BR":"Dußlingen","pt":"Dußlingen","nl":"Düsseldorf","hr":"Dußlingen","fa":"دوسلینگن","de":"Dußlingen","es":"Dußlingen","fr":"Düsslingen","ja":"デュスリンゲン","it":"Dußlingen","zh-CN":"杜斯林根","tr":"Düslingen","ru":"Дуслинген","uk":"Дюслінген","pl":"Düsslingen","hi":"डुस्लिंगेन","ar":"دوسلينجن","hy":"Դուսլինգեն"}},{"name":"Ebenweiler","latitude":"47.90000000","longitude":"9.51667000","native":"Ebenweiler","translations":{"br":"Ebenweiler","ko":"에벤바일러","pt-BR":"Ebenweiler","pt":"Ebenweiler","nl":"Ebenweiler","hr":"Ebenweiler","fa":"ابنوایلر","de":"Ebenweiler","es":"Ebenweiler","fr":"Ebenweiler","ja":"エベンヴァイラー","it":"Ebenweiler","zh-CN":"埃本韦勒","tr":"Ebenweiler","ru":"Эбенвайлер","uk":"Ебенвайлер","pl":"Ebenweiler","hi":"एबेनवीलर","ar":"إبينويلر","hy":"Էբենվայլեր"}},{"name":"Eberbach","latitude":"49.46680000","longitude":"8.99016000","native":"Eberbach","translations":{"br":"Eberbach","ko":"에버바흐","pt-BR":"Eberbach","pt":"Eberbach","nl":"Eberbach","hr":"Eberbach","fa":"ابرباخ","de":"Eberbach","es":"Eberbach","fr":"Eberbach","ja":"エーベルバッハ","it":"Eberbach","zh-CN":"埃伯巴赫","tr":"Eberbach","ru":"Эбербах","uk":"Ебербах","pl":"Eberbach","hi":"एबरबैक","ar":"إيبرباخ","hy":"Էբերբախ"}},{"name":"Eberdingen","latitude":"48.87942000","longitude":"8.96502000","native":"Eberding","translations":{"br":"Eberdingen","ko":"에버딩겐","pt-BR":"Eberdingen","pt":"Eberdingen","nl":"Eberdingen","hr":"Eberdingen","fa":"ابردینگن","de":"Eberdingen","es":"Eberdingen","fr":"Eberdingen","ja":"エバーディンゲン","it":"Eberdingen","zh-CN":"埃伯丁根","tr":"Eberdingen","ru":"Эбердинген","uk":"Ебердінген","pl":"Eberdingen","hi":"एबरडिंगेन","ar":"إيبردينجن","hy":"Էբերդինգեն"}},{"name":"Eberhardzell","latitude":"48.00000000","longitude":"9.81667000","native":"Eberhardzell","translations":{"br":"Eberhardzell","ko":"에버하르젤","pt-BR":"Eberhardzell","pt":"Eberhardzell","nl":"Eberhardzell","hr":"Eberhardzell","fa":"ابرهاردزل","de":"Eberhardzell","es":"Eberhardzell","fr":"Eberhardzell","ja":"エバーハルツェル","it":"Eberhardzell","zh-CN":"埃伯哈泽尔","tr":"Eberhardzell","ru":"Эберхардцелль","uk":"Ебергардцелль","pl":"Eberhardzell","hi":"एबरहार्डज़ेल","ar":"إيبرهاردزيل","hy":"Էբերհարցցել"}},{"name":"Ebersbach an der Fils","latitude":"48.71600000","longitude":"9.52360000","native":"Ebersbach an der Fils","translations":{"br":"Ebersbach an der Fils","ko":"에버스바흐 안 데르 필스","pt-BR":"Ebersbach an der Fils","pt":"Ebersbach an der Fils","nl":"Ebersbach an der Fils","hr":"Ebersbach an der Fils","fa":"ابرسباخ آن در فیلس","de":"Ebersbach an der Fils","es":"Ebersbach an der Fils","fr":"Ebersbach an der Fils","ja":"エーバースバッハ・アン・デア・フィルス","it":"Ebersbach an der Fils","zh-CN":"埃伯斯巴赫","tr":"Ebersbach an der Fils","ru":"Эберсбах-ан-дер-Фильс","uk":"Еберсбах-ан-дер-Фільс","pl":"Ebersbach an der Fils","hi":"एबरस्बैक एन डेर फिल्स","ar":"إيبرسباخ آن دير فيلس","hy":"Էբերսբախ ան դեր Ֆիլս"}},{"name":"Ebersbach-Musbach","latitude":"47.96667000","longitude":"9.58333000","native":"Ebersbach-Musbach","translations":{"br":"Ebersbach-Musbach","ko":"에버스바흐-무스바흐","pt-BR":"Ebersbach-Musbach","pt":"Ebersbach-Musbach","nl":"Ebersbach-Musbach","hr":"Ebersbach-Musbach","fa":"ابرسباخ-موزباخ","de":"Ebersbach-Musbach","es":"Ebersbach-Musbach","fr":"Ebersbach-Musbach","ja":"エーバースバッハ＝ムスバッハ","it":"Ebersbach-Musbach","zh-CN":"埃伯斯巴赫-穆斯巴赫","tr":"Ebersbach-Musbach","ru":"Эберсбах-Мусбах","uk":"Еберсбах-Мусбах","pl":"Ebersbach-Musbach","hi":"एबर्सबाक-मुस्बाक","ar":"إيبرسباخ-موسباخ","hy":"Էբերսբախ-Մուսբախ"}},{"name":"Eberstadt","latitude":"49.18028000","longitude":"9.32111000","native":"Eberstadt","translations":{"br":"Eberstadt","ko":"에버슈타트","pt-BR":"Eberstadt","pt":"Eberstadt","nl":"Eberstadt","hr":"Eberstadt","fa":"ابراشتات","de":"Eberstadt","es":"Eberstadt","fr":"Eberstadt","ja":"エーバーシュタット","it":"Eberstadt","zh-CN":"埃伯施塔特","tr":"Eberstadt","ru":"Эберштадт","uk":"Еберштадт","pl":"Eberstadt","hi":"एबरस्टेड","ar":"إيبرستادت","hy":"Էբերշտատ"}},{"name":"Ebhausen","latitude":"48.58333000","longitude":"8.68333000","native":"Ebhausen","translations":{"br":"Ebhausen","ko":"에브하우젠","pt-BR":"Ebhausen","pt":"Ebhausen","nl":"Ebhausen","hr":"Ebhausen","fa":"ابهاوزن","de":"Ebhausen","es":"Ebhausen","fr":"Ebhausen","ja":"エブハウゼン","it":"Ebhausen","zh-CN":"埃布豪森","tr":"Ebhausen","ru":"Эбхаузен","uk":"Ебхаузен","pl":"Ebhausen","hi":"एभौसेन","ar":"إبهاوزن","hy":"Էբհաուզեն"}},{"name":"Ebringen","latitude":"47.95780000","longitude":"7.77652000","native":"Ebring","translations":{"br":"Ebringen","ko":"에브링겐","pt-BR":"Ebringen","pt":"Ebringen","nl":"Ebringen","hr":"Ebringen","fa":"ابرینگن","de":"Ebringen","es":"Ebringen","fr":"Ebringen","ja":"エブリンゲン","it":"Ebringen","zh-CN":"埃布林根","tr":"Ebringen","ru":"Эбринген","uk":"Ебрінген","pl":"Ebringen","hi":"एब्रिंगन","ar":"إبرينجن","hy":"Էբրինգեն"}},{"name":"Edingen-Neckarhausen","latitude":"49.45722000","longitude":"8.60639000","native":"Edingen-Neckarhausen","translations":{"br":"Edingen-Neckarhausen","ko":"에딩겐-네카르하우젠","pt-BR":"Edingen-Neckarhausen","pt":"Edingen-Neckarhausen","nl":"Edingen-Neckarhausen","hr":"Edingen-Neckarhausen","fa":"ادینگن-نکارهاوزن","de":"Edingen-Neckarhausen","es":"Edingen-Neckarhausen","fr":"Edingen-Neckarhausen","ja":"エーディンゲン＝ネッカーハウゼン","it":"Edingen-Neckarhausen","zh-CN":"埃丁根-内卡豪森","tr":"Edingen-Neckarhausen","ru":"Эдинген-Неккархаузен","uk":"Единґен-Неккархаузен","pl":"Edingen-Neckarhausen","hi":"एडिंगन-नेकरहौसेन","ar":"إيدينجن-نيكارهاوزن","hy":"Էդինգեն-Նեկարհաուզեն"}},{"name":"Efringen-Kirchen","latitude":"47.65000000","longitude":"7.56667000","native":"Efringen-Kirchen","translations":{"br":"Efringen-Kirchen","ko":"에프린겐-키르헨","pt-BR":"Igreja Efringen","pt":"Igreja Efringen","nl":"Efringen-Kirchen","hr":"Efringen-Kirchen","fa":"افرینگن-کیرشن","de":"Efringen-Kirchen","es":"Iglesia de Efringen","fr":"Église d'Efringen","ja":"エフリンゲン＝キルヒェン","it":"Chiesa di Efringen","zh-CN":"埃夫林根基兴","tr":"Efringen-Kirchen","ru":"Эфринген-Кирхен","uk":"Ефрінген-Кірхен","pl":"Kościół Efringen","hi":"एफ़्रिंगन-किर्चेन","ar":"إيفرينجن-كيرشن","hy":"Էֆրինգեն-Կիրխեն"}},{"name":"Egenhausen","latitude":"48.56667000","longitude":"8.61667000","native":"Egenhausen","translations":{"br":"Egenhausen","ko":"에게하우젠","pt-BR":"Egenhausen","pt":"Egenhausen","nl":"Egenhausen","hr":"Egenhausen","fa":"اگنهاوزن","de":"Egenhausen","es":"Egenhausen","fr":"Egenhausen","ja":"エーゲンハウゼン","it":"Egenhausen","zh-CN":"埃根豪森","tr":"Egenhausen","ru":"Эгенхаузен","uk":"Егенхаузен","pl":"Egenhausen","hi":"एगेनहौसेन","ar":"إيجنهاوزن","hy":"Էգենհաուզեն"}},{"name":"Eggenstein-Leopoldshafen","latitude":"49.09006000","longitude":"8.39879000","native":"Eggenstein-Leopoldshafen","translations":{"br":"Eggenstein-Leopoldshafen","ko":"에겐슈타인-레오폴트샤펜","pt-BR":"Eggenstein-Leopoldshafen","pt":"Eggenstein-Leopoldshafen","nl":"Eggenstein-Leopoldshafen","hr":"Eggenstein-Leopoldshafen","fa":"اگنشتاین-لئوپولدزهافن","de":"Eggenstein-Leopoldshafen","es":"Eggenstein-Leopoldshafen","fr":"Eggenstein-Léopoldshafen","ja":"エッゲンシュタイン＝レオポルトスハーフェン","it":"Eggenstein-Leopoldshafen","zh-CN":"埃根施泰因-利奥波德港","tr":"Eggenstein-Leopoldshafen","ru":"Эггенштайн-Леопольдсхафен","uk":"Еггенштайн-Леопольдсхафен","pl":"Eggenstein-Leopoldshafen","hi":"एगेनस्टीन-लियोपोल्डशाफेन","ar":"إيغينشتاين-ليوبولدشافن","hy":"Էգենշտայն-Լեոպոլդսհաֆեն"}},{"name":"Eggingen","latitude":"47.70000000","longitude":"8.40000000","native":"Eggingen","translations":{"br":"Eggingen","ko":"에깅겐","pt-BR":"Eggingen","pt":"Eggingen","nl":"Eggingen","hr":"Eggingen","fa":"اگینگن","de":"Eggingen","es":"Eggingen","fr":"Eggingen","ja":"エギンゲン","it":"Eggingen","zh-CN":"埃金根","tr":"Eggingen","ru":"Эггинген","uk":"Еггінген","pl":"Eggingen","hi":"एगिंगेन","ar":"إيجينجن","hy":"Էգինգեն"}},{"name":"Ehingen","latitude":"48.28259000","longitude":"9.72749000","native":"Ehingen","translations":{"br":"Ehingen","ko":"에힝겐","pt-BR":"Ehingen","pt":"Ehingen","nl":"Ehingen","hr":"Ehingen","fa":"اهینگن","de":"Ehingen","es":"Ehingen","fr":"Ehingen","ja":"エーヒンゲン","it":"Ehingen","zh-CN":"埃欣根","tr":"Ehingen","ru":"Эхинген","uk":"Ехінген","pl":"Ehingen","hi":"एहिंगेन","ar":"إهينجن","hy":"Էհինգեն"}},{"name":"Ehningen","latitude":"48.65882000","longitude":"8.94124000","native":"Ehningen","translations":{"br":"Ehningen","ko":"에닝겐","pt-BR":"Ehningen","pt":"Ehningen","nl":"Ehningen","hr":"Ehningen","fa":"انینگن","de":"Ehningen","es":"Ehningen","fr":"Ehningen","ja":"エーニンゲン","it":"Ehningen","zh-CN":"埃宁根","tr":"Ehningen","ru":"Энинген","uk":"Енінген","pl":"Ehningen","hi":"एहिंगेन","ar":"إهنينجن","hy":"Էհնինգեն"}},{"name":"Eichstetten","latitude":"48.09427000","longitude":"7.74244000","native":"Eichstetten","translations":{"br":"Eichstetten","ko":"아이히슈테텐","pt-BR":"Eichstetten","pt":"Eichstetten","nl":"Eichstetten","hr":"Eichstetten","fa":"آیشتتن","de":"Eichstetten","es":"Eichstetten","fr":"Eichstetten","ja":"アイヒシュテッテン","it":"Eichstetten","zh-CN":"艾希施泰滕","tr":"Eichstetten","ru":"Айхштеттен","uk":"Айхштеттен","pl":"Eichstetten","hi":"आइचस्टेटन","ar":"إيشستيتن","hy":"Այխշտետտեն"}},{"name":"Eigeltingen","latitude":"47.85802000","longitude":"8.89784000","native":"Eigeltingen","translations":{"br":"Eigeltingen","ko":"아이겔팅겐","pt-BR":"Eigeltingen","pt":"Eigeltingen","nl":"Eigeltingen","hr":"Eigeltingen","fa":"ایگلتینگن","de":"Eigeltingen","es":"Eigeltingen","fr":"Propriétés","ja":"アイゲルティンゲン","it":"Eigeltingen","zh-CN":"艾格尔廷根","tr":"Özgeçmişler","ru":"Эйгельтинген","uk":"Айгельтінген","pl":"Eigeltingen","hi":"आइगेलटिंगेन","ar":"إيجلتينجن","hy":"Այգելտինգեն"}},{"name":"Eimeldingen","latitude":"47.63333000","longitude":"7.60000000","native":"Die Vereinfachung","translations":{"br":"Eimeldingen","ko":"아이멜딩겐","pt-BR":"Eimeldingen","pt":"Eimeldingen","nl":"Eimeldingen","hr":"Eimeldingen","fa":"ایملدینگن","de":"Eimeldingen","es":"Eimeldingen","fr":"Eimeldingen","ja":"アイメルディンゲン","it":"Eimeldingen","zh-CN":"艾默尔丁根","tr":"Eimeldingen","ru":"Эймельдинген","uk":"Аймельдінген","pl":"Eimeldingen","hi":"एइमेलडिंगेन","ar":"إيملدينجن","hy":"Այմելդինգեն"}},{"name":"Eisenbach","latitude":"47.96117000","longitude":"8.26802000","native":"Eisenbach","translations":{"br":"Eisenbach","ko":"아이젠바흐","pt-BR":"Eisenbach","pt":"Eisenbach","nl":"Eisenbach","hr":"Eisenbach","fa":"آیزنباخ","de":"Eisenbach","es":"Eisenbach","fr":"Eisenbach","ja":"アイゼンバッハ","it":"Eisenbach","zh-CN":"艾森巴赫","tr":"Eisenbach","ru":"Айзенбах","uk":"Айзенбах","pl":"Eisenbach","hi":"आइज़नबाख","ar":"آيزنباخ","hy":"Այզենբախ"}},{"name":"Eisingen","latitude":"48.95000000","longitude":"8.66667000","native":"Eising","translations":{"br":"Eisingen","ko":"아이징겐","pt-BR":"Eisingen","pt":"Eisingen","nl":"Eisingen","hr":"Eisingen","fa":"آیزینگن","de":"Eisingen","es":"Eisingen","fr":"Eisingen","ja":"アイジンゲン","it":"Eisingen","zh-CN":"艾辛根","tr":"Eisingen","ru":"Айзинген","uk":"Айзінген","pl":"Eisingen","hi":"आइसिंगन","ar":"آيزنجن","hy":"Այզինգեն"}},{"name":"Eislingen","latitude":"48.69515000","longitude":"9.70676000","native":"Eislingen","translations":{"br":"Eislingen","ko":"아이슬링겐","pt-BR":"Eislingen","pt":"Eislingen","nl":"Eislingen","hr":"Eislingen","fa":"آیشلینگن","de":"Eislingen","es":"Eislingen","fr":"Eislingen","ja":"アイスリンゲン","it":"Eislingen","zh-CN":"艾斯林根","tr":"Eislingen","ru":"Айслинген","uk":"Айслінген","pl":"Eislingen","hi":"आइस्लिंगेन","ar":"آيسلينجن","hy":"Այսլինգեն"}},{"name":"Ellenberg","latitude":"49.01667000","longitude":"10.21667000","native":"Ellenberg","translations":{"br":"Ellenberg","ko":"엘렌버그","pt-BR":"Ellenberg","pt":"Ellenberg","nl":"Ellenberg","hr":"Ellenberg","fa":"النبرگ","de":"Ellenberg","es":"Ellenberg","fr":"Ellenberg","ja":"エレンバーグ","it":"Ellenberg","zh-CN":"艾伦伯格","tr":"Ellenberg","ru":"Элленберг","uk":"Елленберг","pl":"Ellenberg","hi":"एलेनबर्ग","ar":"إلينبرغ","hy":"Էլենբերգ"}},{"name":"Ellhofen","latitude":"49.14667000","longitude":"9.32194000","native":"Ellhofen","translations":{"br":"Ellhofen","ko":"엘호펜","pt-BR":"Ellhofen","pt":"Ellhofen","nl":"Ellhofen","hr":"Ellhofen","fa":"الهوفن","de":"Ellhofen","es":"Ellhofen","fr":"Ellhofen","ja":"エルホーフェン","it":"Ellhofen","zh-CN":"埃尔霍芬","tr":"Ellhofen","ru":"Эльхофен","uk":"Елльгофен","pl":"Ellhofen","hi":"एल्होफेन","ar":"إلهوفن","hy":"Էլհոֆեն"}},{"name":"Ellwangen","latitude":"48.96164000","longitude":"10.13173000","native":"Ellwangen","translations":{"br":"Ellwangen","ko":"엘왕겐","pt-BR":"Ellwangen","pt":"Ellwangen","nl":"Ellwangen","hr":"Ellwangen","fa":"الوانگن","de":"Ellwangen","es":"Ellwangen","fr":"Ellwangen","ja":"エルヴァンゲン","it":"Ellwangen","zh-CN":"埃尔旺根","tr":"Ellwangen","ru":"Эльванген","uk":"Елльванген","pl":"Ellwangen","hi":"एल्वांगेन","ar":"إلوانجن","hy":"Էլվանգեն"}},{"name":"Elzach","latitude":"48.17247000","longitude":"8.06992000","native":"Elzach","translations":{"br":"Elzach","ko":"엘자흐","pt-BR":"Elzach","pt":"Elzach","nl":"Elzach","hr":"Elzach","fa":"الزاک","de":"Elzach","es":"Elzach","fr":"Elzach","ja":"エルザック","it":"Elzach","zh-CN":"埃尔扎克","tr":"Elzah","ru":"Эльзах","uk":"Елзах","pl":"Elzach","hi":"एल्ज़ाक","ar":"إلزاك","hy":"Էլցախ"}},