{"code":"DM","states":[{"name":"Saint Andrew Parish","state_code":"02","latitude":null,"longitude":null,"cities":[{"name":"Calibishie","latitude":"15.59297000","longitude":"-61.34901000","native":"Calibishie","translations":{"br":"Calibishie","ko":"칼리비시","pt-BR":"Calibishie","pt":"Calibishie","nl":"Calibishie","hr":"Kalibiši","fa":"کالیبشی","de":"Calibishie","es":"Calibishie","fr":"Calibishie","ja":"カリビシー","it":"Calibishie","zh-CN":"卡利比什","tr":"Calibishie","ru":"Калибиши","uk":"Калібіші","pl":"Calibishie","hi":"कैलिबिशी","ar":"كاليبيشي"}},{"name":"Marigot","latitude":"15.53886000","longitude":"-61.28375000","native":"Husband","translations":{"br":"Marigot","ko":"마리고","pt-BR":"Marigot","pt":"Marigot","nl":"Marigot","hr":"Marigot","fa":"ماریگوت","de":"Marigot","es":"Marigot","fr":"Marigot","ja":"マリゴ","it":"Marigot","zh-CN":"马里戈特","tr":"Marigot","ru":"Мариго","uk":"Маріго","pl":"Marigot","hi":"मैरीगोट","ar":"ماريجوت"}},{"name":"Wesley","latitude":"15.56667000","longitude":"-61.31667000","native":"Wesley","translations":{"br":"Wesley","ko":"웨슬리","pt-BR":"Wesley","pt":"Wesley","nl":"Wesley","hr":"Wesley","fa":"وسلی","de":"Wesley","es":"Wesley","fr":"Wesley","ja":"ウェズリー","it":"Wesley","zh-CN":"韦斯利","tr":"Wesley","ru":"Уэсли","uk":"Веслі","pl":"Wesley","hi":"वेस्ली","ar":"ويسلي"}},{"name":"Woodford Hill","latitude":"15.58093000","longitude":"-61.33149000","native":"Woodford Hill","translations":{"br":"Woodford Hill","ko":"우드포드 힐","pt-BR":"Colina de Woodford","pt":"Colina de Woodford","nl":"Woodford Hill","hr":"Woodford Hill","fa":"وودفورد هیل","de":"Woodford Hill","es":"Colina Woodford","fr":"Woodford Hill","ja":"ウッドフォードヒル","it":"Woodford Hill","zh-CN":"伍德福德山","tr":"Woodford Tepesi","ru":"Вудфорд-Хилл","uk":"Вудфорд-Гілл","pl":"Wzgórze Woodford","hi":"वुडफोर्ड हिल","ar":"وودفورد هيل"}}]},{"name":"Saint David Parish","state_code":"03","latitude":null,"longitude":null,"cities":[{"name":"Castle Bruce","latitude":"15.44397000","longitude":"-61.25723000","native":"Castle Bruce","translations":{"br":"Kastell Bruce","ko":"캐슬 브루스","pt-BR":"Castelo Bruce","pt":"Castelo Bruce","nl":"Kasteel Bruce","hr":"Dvorac Bruce","fa":"قلعه بروس","de":"Schloss Bruce","es":"Castillo Bruce","fr":"Château Bruce","ja":"キャッスル・ブルース","it":"Castello Bruce","zh-CN":"布鲁斯城堡","tr":"Bruce Kalesi","ru":"Замок Брюс","uk":"Замок Брюс","pl":"Zamek Bruce","hi":"कैसल ब्रूस","ar":"قلعة بروس"}},{"name":"Rosalie","latitude":"15.36667000","longitude":"-61.26667000","native":"Rosalie","translations":{"br":"Rosalie","ko":"로잘리","pt-BR":"Rosália","pt":"Rosália","nl":"Rosalie","hr":"Rosalie","fa":"روزالی","de":"Rosalie","es":"Rosalía","fr":"Rosalie","ja":"ロザリー","it":"Rosalia","zh-CN":"罗莎莉","tr":"Rosalie","ru":"Розали","uk":"Розалі","pl":"Rozalia","hi":"रोज़ली","ar":"روزالي"}}]},{"name":"Saint George Parish","state_code":"04","latitude":null,"longitude":null,"cities":[{"name":"Roseau","latitude":"15.30174000","longitude":"-61.38808000","native":"Reed","translations":{"br":"Roseau","ko":"로조","pt-BR":"Roseau","pt":"Roseau","nl":"Roseau","hr":"Roseau","fa":"روسو","de":"Roseau","es":"Roseau","fr":"Roseau","ja":"ロゾー","it":"Roseau","zh-CN":"罗索","tr":"Roseau","ru":"Розо","uk":"Розо","pl":"Roseau","hi":"रोसो","ar":"روزو"}}]},{"name":"Saint John Parish","state_code":"05","latitude":null,"longitude":null,"cities":[{"name":"Portsmouth","latitude":"15.58333000","longitude":"-61.46667000","native":"Portsmouth","translations":{"br":"Portsmouth","ko":"포츠머스","pt-BR":"Portsmouth","pt":"Portsmouth","nl":"Portsmouth","hr":"Portsmouth","fa":"پورتسموث","de":"Portsmouth","es":"Portsmouth","fr":"Portsmouth","ja":"ポーツマス","it":"Portsmouth","zh-CN":"朴茨茅斯","tr":"Portsmouth","ru":"Портсмут","uk":"Портсмут","pl":"Portsmouth","hi":"पोर्ट्समाउथ","ar":"بورتسموث"}}]},{"name":"Saint Joseph Parish","state_code":"06","latitude":"39.02227120","longitude":"-94.71765040","cities":[{"name":"Saint Joseph","latitude":"15.40000000","longitude":"-61.43333000","native":"Saint Joseph","translations":{"br":"Sant Jozef","ko":"성 요셉","pt-BR":"São José","pt":"São José","nl":"Sint Jozef","hr":"Sveti Josip","fa":"سنت جوزف","de":"Heiliger Josef","es":"San José","fr":"Saint Joseph","ja":"聖ヨセフ","it":"San Giuseppe","zh-CN":"圣约瑟夫","tr":"Aziz Joseph","ru":"Святой Иосиф","uk":"Святий Йосип","pl":"Święty Józef","hi":"सेंट जोसेफ","ar":"القديس يوسف"}},{"name":"Salisbury","latitude":"15.43689000","longitude":"-61.43637000","native":"Salisbury","translations":{"br":"Salisbury","ko":"솔즈베리","pt-BR":"Salisbury","pt":"Salisbury","nl":"Salisbury","hr":"Salisbury","fa":"سالزبری","de":"Salisbury","es":"Salisbury","fr":"Salisbury","ja":"ソールズベリー","it":"Salisbury","zh-CN":"索尔兹伯里","tr":"Salisbury","ru":"Солсбери","uk":"Солсбері","pl":"Salisbury","hi":"सेलिसबरी","ar":"سالزبوري"}}]},{"name":"Saint Luke Parish","state_code":"07","latitude":"42.10513630","longitude":"-80.05707220","cities":[{"name":"Pointe Michel","latitude":"15.25976000","longitude":"-61.37452000","native":"Michel Pointe","translations":{"br":"Poent Michel","ko":"푸앵트 미셸","pt-BR":"Ponta Michel","pt":"Ponta Michel","nl":"Pointe Michel","hr":"Pointe Michel","fa":"پوینت میشل","de":"Pointe Michel","es":"Punta Michel","fr":"Pointe Michel","ja":"ポワント・ミッシェル","it":"Punta Michel","zh-CN":"米歇尔角","tr":"Pointe Michel","ru":"Пуэнт-Мишель","uk":"Пуент-Мішель","pl":"Pointe Michel","hi":"पॉइंट मिशेल","ar":"بوانت ميشيل"}}]},{"name":"Saint Mark Parish","state_code":"08","latitude":null,"longitude":null,"cities":[{"name":"Soufrière","latitude":"15.23374000","longitude":"-61.35881000","native":"Sulfur","translations":{"br":"Soufrière","ko":"수프리에르","pt-BR":"Soufrière","pt":"Soufrière","nl":"Soufrière","hr":"Soufrière","fa":"سوفیر","de":"Soufrière","es":"Soufrière","fr":"Soufrière","ja":"スーフリエール","it":"Soufrière","zh-CN":"苏弗里耶尔","tr":"Soufrière","ru":"Суфриер","uk":"Суфрієр","pl":"Soufrière","hi":"सौफ़्रीयर","ar":"سوفريير"}}]},{"name":"Saint Patrick Parish","state_code":"09","latitude":null,"longitude":null,"cities":[{"name":"Berekua","latitude":"15.23333000","longitude":"-61.31667000","native":"Berejahua","translations":{"br":"Berekua","ko":"베레쿠아","pt-BR":"Berekua","pt":"Berekua","nl":"Berekua","hr":"Berekua","fa":"برکوا","de":"Berekua","es":"Berekua","fr":"Berekua","ja":"ベレクア","it":"Berekua","zh-CN":"贝雷库阿","tr":"Berekua","ru":"Берекуа","uk":"Берекуа","pl":"Berekua","hi":"बेरेकुआ","ar":"بيريكوا"}},{"name":"La Plaine","latitude":"15.32768000","longitude":"-61.24753000","native":"The plain","translations":{"br":"La Plaine","ko":"라 플레인","pt-BR":"La Plaine","pt":"La Plaine","nl":"De vlakte","hr":"La Plaine","fa":"لا پلین","de":"La Plaine","es":"La llanura","fr":"La Plaine","ja":"ラ・プレーヌ","it":"La Plaine","zh-CN":"拉普兰","tr":"La Plaine","ru":"Ла Плен","uk":"Ла-Плен","pl":"La Plaine","hi":"ला प्लेन","ar":"لا بلين"}}]},{"name":"Saint Paul Parish","state_code":"10","latitude":"38.86146000","longitude":"-90.74356190","cities":[{"name":"Mahaut","latitude":"15.36357000","longitude":"-61.39701000","native":"Mahaut","translations":{"br":"Mahaut","ko":"마호트","pt-BR":"Mahaut","pt":"Mahaut","nl":"Mahaut","hr":"Mahaut","fa":"ماهوت","de":"Mahaut","es":"Mahaut","fr":"Mahaut","ja":"マオー","it":"Mahaut","zh-CN":"马豪特","tr":"Mahaut","ru":"Махаут","uk":"Махаут","pl":"Mahaut","hi":"महाउत","ar":"ماهاوت"}},{"name":"Pont Cassé","latitude":"15.36667000","longitude":"-61.35000000","native":"Broken bridge","translations":{"br":"Pont Kassé","ko":"퐁 카세","pt-BR":"Ponte Cassé","pt":"Ponte Cassé","nl":"Pont Cassé","hr":"Pont Cassé","fa":"پونت کاسِه","de":"Pont Cassé","es":"Puente Cassé","fr":"Pont Cassé","ja":"ポン・カッセ","it":"Pont Cassé","zh-CN":"卡塞桥","tr":"Cassé Köprüsü","ru":"Пон-Кассе","uk":"Понт-Кассе","pl":"Pont Cassé","hi":"पोंट कैसे","ar":"جسر كاسي"}}]},{"name":"Saint Peter Parish","state_code":"11","latitude":"40.45241940","longitude":"-80.00850560","cities":[{"name":"Colihaut","latitude":"15.48478000","longitude":"-61.46215000","native":"Colihaut","translations":{"br":"Colihaut","ko":"콜리하우트","pt-BR":"Colihaut","pt":"Colihaut","nl":"Colihaut","hr":"Colihaut","fa":"کولیهوت","de":"Colihaut","es":"Colihaut","fr":"Colihaut","ja":"コリオー","it":"Colihaut","zh-CN":"科利豪特","tr":"Colihaut","ru":"Колихаут","uk":"Коліхаут","pl":"Colihaut","hi":"कोलिहौत","ar":"كوليهوت"}}]}]}