{"code":"EG","states":[{"name":"Alexandria Governorate","state_code":"ALX","latitude":"30.87605680","longitude":"29.74260400","cities":[{"name":"Alexandria","latitude":"31.20176000","longitude":"29.91582000","native":"الإسكندرية","translations":{"br":"Aleksandria","ko":"알렉산드리아","pt-BR":"Alexandria","pt":"Alexandria","nl":"Alexandrië","hr":"Aleksandrija","fa":"اسکندریه","de":"Alexandria","es":"Alejandría","fr":"Alexandrie","ja":"アレクサンドリア","it":"Alessandria","zh-CN":"亚历山大","tr":"İskenderiye","ru":"Александрия","uk":"Александрія","pl":"Aleksandria","hi":"सिकंदरिया","ar":"الإسكندرية","hy":"Ալեքսանդրիա"}}]},{"name":"Aswan Governorate","state_code":"ASN","latitude":"23.69664980","longitude":"32.71813750","cities":[{"name":"Abu Simbel","latitude":"22.34570000","longitude":"31.61624000","native":"أبو سمبل","translations":{"br":"Abu Simbel","ko":"아부 심벨","pt-BR":"Abu Simbel","pt":"Abu Simbel","nl":"Aboe Simbel","hr":"Abu Simbel","fa":"ابو سیمبل","de":"Abu Simbel","es":"Abu Simbel","fr":"Abou Simbel","ja":"アブ・シンベル","it":"Abu Simbel","zh-CN":"阿布辛贝勒","tr":"Ebu Simbel","ru":"Абу-Симбел","uk":"Абу-Сімбел","pl":"Abu Simbel","hi":"अबू सिंबल","ar":"أبو سمبل","hy":"Աբու Սիմբել"}},{"name":"Aswan","latitude":"24.09082000","longitude":"32.89942000","native":"أسوان","translations":{"br":"Asowan","ko":"아스완","pt-BR":"Assuão","pt":"Assuão","nl":"Aswan","hr":"Asuan","fa":"آسوان","de":"Assuan","es":"Asuán","fr":"Assouan","ja":"アスワン","it":"Assuan","zh-CN":"阿斯旺","tr":"Asvan","ru":"Асуан","uk":"Асуан","pl":"Asuan","hi":"असवान","ar":"أسوان","hy":"Ասուան"}},{"name":"Idfū","latitude":"24.97916000","longitude":"32.87722000","native":"إدفو","translations":{"br":"Idfū","ko":"이드푸","pt-BR":"Idfu","pt":"Idfu","nl":"Idfū","hr":"Idfu","fa":"ایدفو","de":"Edfu","es":"Eid al-Adha","fr":"Idfu","ja":"イドフー","it":"Idfū","zh-CN":"伊德富","tr":"İdfu","ru":"Идфу","uk":"Ідфу","pl":"Idfu","hi":"इदफू","ar":"إدفو","hy":"Իդֆու"}},{"name":"Kawm Umbū","latitude":"24.47669000","longitude":"32.94626000","native":"كوم أمبو","translations":{"br":"Kawm Umbū","ko":"카움 움부","pt-BR":"Kawm Umbū","pt":"Kawm Umbū","nl":"Kawm Umbū","hr":"Kawm Umbū","fa":"کام اومبو","de":"Kawm Umbū","es":"Kawm Umbū","fr":"Kawm Umbū","ja":"カム・ウンブー","it":"Kawm Umbū","zh-CN":"考姆·翁布","tr":"Kawm Umbū","ru":"Kawm Umbū","uk":"Кавм Умбу","pl":"Kawm Umbū","hi":"कावम उम्बू","ar":"كوم أمبو","hy":"Կաում Ումբու"}}]},{"name":"Asyut Governorate","state_code":"AST","latitude":"27.21338310","longitude":"31.44561790","cities":[{"name":"Abnūb","latitude":"27.26960000","longitude":"31.15105000","native":"أبنوب","translations":{"br":"Abnūb","ko":"아브누브","pt-BR":"Abnūb","pt":"Abnūb","nl":"Abnūb","hr":"Abnūb","fa":"ابنوب","de":"Abnūb","es":"Abnub","fr":"Abnūb","ja":"アブヌーブ","it":"Abnūb","zh-CN":"阿布努布","tr":"Abnûb","ru":"Абнуб","uk":"Абнуб","pl":"Abnūb","hi":"अब्नूब","ar":"أبنوب","hy":"Աբնուբ"}},{"name":"Abū Tīj","latitude":"27.04411000","longitude":"31.31897000","native":"أبو تيج","translations":{"br":"Abū Tīj","ko":"아부 티지","pt-BR":"Abū Tīj","pt":"Abū Tīj","nl":"Abū Tīj","hr":"Abu Tidž","fa":"ابو تیج","de":"Abū Tīj","es":"Abu Tīj","fr":"Abū Tīj","ja":"アブー・ティジ","it":"Abū Tīj","zh-CN":"阿布·提吉","tr":"Ebu Tîj","ru":"Абу Тидж","uk":"Абу Тідж","pl":"Abū Tīj","hi":"अबू तिज","ar":"أبو تيج","hy":"Աբու Տիջ"}},{"name":"Al Badārī","latitude":"26.99257000","longitude":"31.41554000","native":"البداري","translations":{"br":"Al Badārī","ko":"알 바다리","pt-BR":"Al Badārī","pt":"Al Badārī","nl":"Al Badārī","hr":"Al Badārī","fa":"البداری","de":"Al Badārī","es":"Al Badārī","fr":"Al Badari","ja":"アル・バダリー","it":"Al Badārī","zh-CN":"巴达里","tr":"Al Badārī","ru":"Аль-Бадари","uk":"Аль-Бадарі","pl":"Al Badārī","hi":"अल बदारी","ar":"البداري","hy":"Ալ Բադարի"}},{"name":"Al Qūşīyah","latitude":"27.44020000","longitude":"30.81841000","native":"القوصية","translations":{"br":"Al Qūşīyah","ko":"알 쿠시야","pt-BR":"Al Qūşīyah","pt":"Al Qūşīyah","nl":"Al Qūşīyah","hr":"Al-Kušija","fa":"القوشیه","de":"Al Qūşīyah","es":"Al Qūşīyah","fr":"Al Qūşīyah","ja":"アル・クシュヤ","it":"Al Qūşīyah","zh-CN":"库希亚","tr":"Al Qūşīyah","ru":"Аль-Кушия","uk":"Аль-Кусія","pl":"Al Qūşīyah","hi":"अल क़ुशिया","ar":"القوصية","hy":"Ալ Քուսիյա"}},{"name":"Asyūţ","latitude":"27.18096000","longitude":"31.18368000","native":"أسيوط","translations":{"br":"Asyūţ","ko":"아시우트","pt-BR":"Asyūţ","pt":"Asyūţ","nl":"Asyūţ","hr":"Asyūt","fa":"آسیوت","de":"Asyūţ","es":"Asyūţ","fr":"Asyūţ","ja":"アシューツ","it":"Asyūţ","zh-CN":"阿斯尤特","tr":"Asyūţ","ru":"Асьют","uk":"Асьют","pl":"Asyūţ","hi":"अस्युत","ar":"أسيوط","hy":"Ասիութ"}},{"name":"Dayrūţ","latitude":"27.55602000","longitude":"30.80764000","native":"ديروط","translations":{"br":"Dayrūţ","ko":"다이루트","pt-BR":"Dayrūţ","pt":"Dayrūţ","nl":"Dayrūţ","hr":"Dajrut","fa":"روز","de":"Dayrūţ","es":"Dayrūt","fr":"Dayrūţ","ja":"デイルーツ","it":"Dayrūţ","zh-CN":"戴鲁特","tr":"Dayrūţ","ru":"Дайрут","uk":"Дайрут","pl":"Dayrūţ","hi":"दयारूट","ar":"ديروط","hy":"Դայրուտ"}},{"name":"Manfalūţ","latitude":"27.31040000","longitude":"30.97004000","native":"منفلوط","translations":{"br":"Manfalūţ","ko":"만팔루트","pt-BR":"Manfalūţ","pt":"Manfalūţ","nl":"Manfalūţ","hr":"Manfalūt","fa":"منفلوط","de":"Manfalūţ","es":"Manfalūţ","fr":"Manfalūţ","ja":"マンファルーツ","it":"Manfalūţ","zh-CN":"曼法卢特","tr":"Manfalūţ","ru":"Манфалут","uk":"Манфалуц","pl":"Manfalūţ","hi":"मनफालूत","ar":"منفلوط","hy":"Մանֆալուտ"}}]},{"name":"Beheira Governorate","state_code":"BH","latitude":"30.84809860","longitude":"30.34355060","cities":[{"name":"Abū al Maţāmīr","latitude":"30.91018000","longitude":"30.17438000","native":"أبو المطامير","translations":{"br":"Abū al Maţāmīr","ko":"아부 알 마타미르","pt-BR":"Abu al Maţāmīr","pt":"Abu al Maţāmīr","nl":"Abū al Maţāmīr","hr":"Abu al-Maţamir","fa":"ابو المطامیر","de":"Abū al Maţāmīr","es":"Abu al Matamir","fr":"Abū al Maţāmīr","ja":"アブー・アル・マツァミール","it":"Abū al Maţāmīr","zh-CN":"阿布·马塔米尔","tr":"Abū al Maţāmīr","ru":"Abū al Maţāmīr","uk":"Абу аль-Матамір","pl":"Abū al Maţāmīr","hi":"अबू अल मातमीर","ar":"أبو المطامير","hy":"Աբու ալ Մատամիր"}},{"name":"Ad Dilinjāt","latitude":"30.82796000","longitude":"30.53552000","native":"أد دلنجات","translations":{"br":"Ad Dilinjāt","ko":"아드 딜린자트","pt-BR":"Ad Dilinjat","pt":"Ad Dilinjat","nl":"Ad Dilinjāt","hr":"Ad Dilinjāt","fa":"آد دیلینجات","de":"Ad Dilinjāt","es":"Ad Dilinjāt","fr":"Ad Dilinjāt","ja":"Ad Dilinjāt","it":"Ad Dilinjāt","zh-CN":"迪林贾特","tr":"Ad Dilinjāt","ru":"Ad Dilinjāt","uk":"Ад Ділінджат","pl":"Ad Dilinjāt","hi":"अद दिलिनजत","ar":"أد دلنجات","hy":"Ադ Դիլինջատ"}},{"name":"Damanhūr","latitude":"31.03408000","longitude":"30.46823000","native":"دمنهور","translations":{"br":"Damanhūr","ko":"다만후르","pt-BR":"Damanhur","pt":"Damanhur","nl":"Damanhūr","hr":"Damanhūr","fa":"دامانهور","de":"Damanhur","es":"Damanhur","fr":"Damanhur","ja":"ダマンフール","it":"Damanhūr","zh-CN":"达曼胡尔","tr":"Damanhur","ru":"Даманхур","uk":"Даманхур","pl":"Damanhūr","hi":"दमनहुर","ar":"دمنهور","hy":"Դամանհուր"}},{"name":"Ḩawsh ‘Īsá","latitude":"30.91280000","longitude":"30.29019000","native":"حووش عيسى","translations":{"br":"Ḩawsh ‘Īsá","ko":"하우쉬 ‘이사","pt-BR":"Ḩawsh ‘Īsá","pt":"Ḩawsh ‘Īsá","nl":"Ḩawsh ‘Īsá","hr":"Havš Isa","fa":"هوش عیسی","de":"Ḩawsh ‘Īsá","es":"Hawsh ‘Isá","fr":"Ḩawsh ‘Īsá","ja":"ハウシュ・イサー","it":"Ḩawsh ‘Īsá","zh-CN":"Ḩawsh ‘Īsá","tr":"Ḩawsh ‘Īsá","ru":"Ḩawsh ‘Īsá","uk":"Хавш Іса","pl":"Ḩawsh ‘Īsá","hi":"Ḩawsh ‘Īsá","ar":"حووش عيسى"}},{"name":"Idkū","latitude":"31.30730000","longitude":"30.29810000","native":"إيدكو","translations":{"br":"Idkū","ko":"이드쿠","pt-BR":"Idku","pt":"Idku","nl":"Idkū","hr":"Idkū","fa":"ایدکو","de":"Idkū","es":"No lo sé","fr":"Je ne sais pas","ja":"イドクー","it":"Idkū","zh-CN":"伊德库","tr":"İdku","ru":"Идку","uk":"Ідку","pl":"Idkū","hi":"इदकू","ar":"إيدكو","hy":"Իդկու"}},{"name":"Kafr ad Dawwār","latitude":"31.13379000","longitude":"30.12969000","native":"كفر الدوار","translations":{"br":"Kafr ad Dawwār","ko":"카프르 아드 다와르","pt-BR":"Kafr ad Dawwar","pt":"Kafr ad Dawwar","nl":"Kafr ad Dawwār","hr":"Kafr ad Dawwār","fa":"کفر و دوار","de":"Kafr ad Dawwār","es":"Kafr ad Dawwar","fr":"Kafr ad Dawwār","ja":"カフル・アド・ダウワール","it":"Kafr ad Dawwār","zh-CN":"卡夫尔·阿德·达瓦尔","tr":"Kafr ad Dawwār","ru":"Кафр ад Даввар","uk":"Кафр-ад-Даувар","pl":"Kafr ad Dawwār","hi":"Kafr ad Dawwār","ar":"كفر الدوار","hy":"Կաֆր ադ Դաուար"}},{"name":"Kawm Ḩamādah","latitude":"30.76128000","longitude":"30.69972000","native":"كوم حمادة","translations":{"br":"Kawm Ḩamādah","ko":"카움 하마다","pt-BR":"Kawm Ḩamādah","pt":"Kawm Ḩamādah","nl":"Kawm Ḩamādah","hr":"Kawm Hamadah","fa":"کَوْم حَمّادَه","de":"Kawm Ḩamādah","es":"Kawm Hamadah","fr":"Kawm Hamadah","ja":"Kawm Ḩamādah","it":"Kawm Ḩamādah","zh-CN":"Kawm Ḩamādah","tr":"Kavm Ḩamādah","ru":"Kawm Ḩamādah","uk":"Каум Хамада","pl":"Kawm Ḩamādah","hi":"Kawm Ḩamādah","ar":"كوم حمادة","hy":"Կաում Համադա"}},{"name":"Rosetta","latitude":"31.39951000","longitude":"30.41718000","native":"روزيتا","translations":{"br":"Rozenn","ko":"로제타","pt-BR":"Roseta","pt":"Roseta","nl":"Rosetta","hr":"Rosetta","fa":"روزتا","de":"Rosetta","es":"Rosetta","fr":"Rosetta","ja":"ロゼッタ","it":"Rosetta","zh-CN":"罗塞塔","tr":"Rosetta","ru":"Розетта","uk":"Розетта","pl":"Rosetta","hi":"Rosetta","ar":"روزيتا","hy":"Ռոսետտա"}}]},{"name":"Beni Suef Governorate","state_code":"BNS","latitude":"28.89388370","longitude":"31.44561790","cities":[{"name":"Al Fashn","latitude":"28.82431000","longitude":"30.89948000","native":"الفشن","translations":{"br":"Al Fashn","ko":"알 파신","pt-BR":"Al Fashn","pt":"Al Fashn","nl":"Al Fashn","hr":"Al Fašn","fa":"الفشن","de":"Al Fashn","es":"Al Fashn","fr":"Al Fashn","ja":"アル・ファシュン","it":"Al Fashn","zh-CN":"法什恩","tr":"El Fashn","ru":"Аль-Фашн","uk":"Аль-Фашн","pl":"Al Fashn","hi":"अल फ़शन","ar":"الفشن","hy":"Ալ Ֆաշն"}},{"name":"Banī Suwayf","latitude":"29.07441000","longitude":"31.09785000","native":"بني سويف","translations":{"br":"Banī Suwayf","ko":"바니 수와이프","pt-BR":"Banī Suwayf","pt":"Banī Suwayf","nl":"Banī Suwayf","hr":"Bani Suwayf","fa":"بنی سویف","de":"Banī Suwayf","es":"Banī Suwayf","fr":"Banī Suwayf","ja":"バニ・スワイフ","it":"Banī Suwayf","zh-CN":"巴尼苏韦夫","tr":"Banī Suwayf","ru":"Бани Сувайф","uk":"Бані Сувайф","pl":"Banī Suwayf","hi":"बानी सुवायफ़","ar":"بني سويف","hy":"Բանի Սուայֆ"}},{"name":"Būsh","latitude":"29.14816000","longitude":"31.12733000","native":"شجيرة","translations":{"br":"Bod","ko":"부시","pt-BR":"Arbusto","pt":"Arbusto","nl":"Struik","hr":"Grm","fa":"بوش","de":"Busch","es":"Arbusto","fr":"Buisson","ja":"ブッシュ","it":"Cespuglio","zh-CN":"衬套","tr":"Çalı","ru":"Куст","uk":"Буш","pl":"Krzak","hi":"झाड़ी","ar":"شجيرة","hy":"Բուշ"}},{"name":"Sumusţā as Sulţānī","latitude":"28.91667000","longitude":"30.85000000","native":"سوموستّا سلطاني","translations":{"br":"Sumusţā evel Sulţānī","ko":"술타니로서의 수무스타","pt-BR":"Sumusţā como Sulţānī","pt":"Sumusţā como Sulţānī","nl":"Sumusţā as Sulţānī","hr":"Sumušta kao Sultani","fa":"سوموشتا در نقش سلطانی","de":"Sumusţā als Sulţānī","es":"Sumusţā como Sulţānī","fr":"Sumusţā comme Sulţānī","ja":"Sumusţā を Sulţānī として","it":"Sumusţā as Sulţānī","zh-CN":"苏穆斯塔·阿·苏丹尼","tr":"Sumusţā as Sulţānī","ru":"Sumusţā as Sulţānī","uk":"Сумуста як Султани","pl":"Sumusţā as Sulţānī","hi":"Sumusţā as Sulţānī","ar":"سوموستّا سلطاني","hy":"Սումուստա աս Սուլտանի"}}]},{"name":"Cairo Governorate","state_code":"C","latitude":"29.95375640","longitude":"31.53700030","cities":[{"name":"Cairo","latitude":"30.06263000","longitude":"31.24967000","native":"القاهرة","translations":{"br":"Kaero","ko":"카이로","pt-BR":"Cairo","pt":"Cairo","nl":"Cairo","hr":"Kairo","fa":"قاهره","de":"Kairo","es":"El Cairo","fr":"Caire","ja":"カイロ","it":"Cairo","zh-CN":"开罗","tr":"Kahire","ru":"Каир","uk":"Каїр","pl":"Kair","hi":"काहिरा","ar":"القاهرة","hy":"Կաիրո"}},{"name":"Ḩalwān","latitude":"29.84144000","longitude":"31.30084000","translations":{"ru":"Халван","hy":"Հալուան"}},{"name":"New Cairo","latitude":"30.03000000","longitude":"31.47000000","native":"القاهرة الجديدة","translations":{"ar":"القاهرة الجديدة","bn":"নতুন কায়রো","de":"Neu-Kairo","es":"Nuevo Cairo","fr":"Nouveau Caire","id":"Kairo Baru","it":"Nuovo Cairo","ja":"ニューカイロ","ko":"뉴카이로","pl":"Nowy Kair","pt":"Novo Cairo","ru":"Новый Каир","tr":"Yeni Kahire","zh":"新开罗","hy":"Նոր Կաիրո"}}]},{"name":"Dakahlia Governorate","state_code":"DK","latitude":"31.16560440","longitude":"31.49131820","cities":[{"name":"‘Izbat al Burj","latitude":"31.50840000","longitude":"31.84106000","native":"عزبة البرج","translations":{"br":"Izbat al Burj","ko":"이즈바트 알 부르즈","pt-BR":"‘Izbat al Burj","pt":"‘Izbat al Burj","nl":"‘Izbat al Burj","hr":"Izbat al-Burdž","fa":"ازبت البرج","de":"‘Izbat al Burj","es":"‘Izbat al Burj","fr":"‘Izbat al Burj","ja":"イズバト・アル・ブルジュ","it":"‘Izbat al Burj","zh-CN":"伊兹巴特·阿尔·布尔吉","tr":"‘Izbat al Burj","ru":"‘Избат аль Бурдж","uk":"Ізбат аль-Бурдж","pl":"Izbat al Burj","hi":"इज़्बत अल बुर्ज","ar":"عزبة البرج"}},{"name":"Ajā","latitude":"30.94162000","longitude":"31.29039000","native":"أجا","translations":{"br":"Ajā","ko":"아자","pt-BR":"Aja","pt":"Aja","nl":"Aja","hr":"Ajā","fa":"آجا","de":"Ajā","es":"Ajā","fr":"Aja","ja":"アジャ","it":"Ajā","zh-CN":"阿贾","tr":"Aja","ru":"Аджа","uk":"Аджа","pl":"Aja","hi":"AJA","ar":"أجا","hy":"Աջա"}},{"name":"Al Jammālīyah","latitude":"31.18065000","longitude":"31.86497000","native":"الجمالية","translations":{"br":"Al Jammālīyah","ko":"알 잠말리야","pt-BR":"Al Jammālīyah","pt":"Al Jammālīyah","nl":"Al Jammālīyah","hr":"Al Jammālīyah","fa":"الجمالیه","de":"Al Jammālīyah","es":"Al Jammālīyah","fr":"Al Jammālīyah","ja":"アル・ジャムリーヤ","it":"Al Jammālīyah","zh-CN":"阿尔贾马利亚","tr":"Al Jammālīyah","ru":"Аль-Джаммалия","uk":"Аль-Джаммалія","pl":"Al Jammālīyah","hi":"अल जम्मालियाह","ar":"الجمالية","hy":"Ալ Ջաամալիյա"}},{"name":"Al Manşūrah","latitude":"31.03637000","longitude":"31.38069000","native":"المنصورة","translations":{"br":"Al Manşūrah","ko":"알 만수라","pt-BR":"Al Manşūrah","pt":"Al Manşūrah","nl":"Al Manşūrah","hr":"Al Mansurah","fa":"المنشوره","de":"Al Manşūrah","es":"Al Manşūrah","fr":"Al Manşūrah","ja":"アル・マンシュラ","it":"Al Manşūrah","zh-CN":"曼苏拉","tr":"Al Manşura","ru":"Аль-Мансура","uk":"Аль-Маншура","pl":"Al Manşūrah","hi":"अल मनसूरा","ar":"المنصورة","hy":"Ալ Մանսուրա"}},{"name":"Al Manzalah","latitude":"31.15823000","longitude":"31.93600000","native":"المنزلة","translations":{"br":"Al Manzalah","ko":"알 만잘라","pt-BR":"Al Manzalah","pt":"Al Manzalah","nl":"Al Manzalah","hr":"Al Manzalah","fa":"المنزله","de":"Al Manzalah","es":"Al Manzalah","fr":"Al Manzalah","ja":"アル・マンザラ","it":"Al Manzalah","zh-CN":"曼扎拉","tr":"El Menzalah","ru":"Аль-Манзала","uk":"Аль-Манзала","pl":"Al Manzalah","hi":"अल मंज़ला","ar":"المنزلة","hy":"Ալ Մանզալա"}},{"name":"Al Maţarīyah","latitude":"31.18287000","longitude":"32.03108000","native":"المطرية","translations":{"br":"Al Maţarīyah","ko":"알 마타리야","pt-BR":"Al Maţarīyah","pt":"Al Maţarīyah","nl":"Al Maţarīyah","hr":"Al Matariyah","fa":"المطریه","de":"Al Maţarīyah","es":"Al Matariyah","fr":"Al Matariyah","ja":"アル・マツァリーヤ","it":"Al Maţarīyah","zh-CN":"玛塔里亚","tr":"Al Maţarīyah","ru":"Аль-Матария","uk":"Аль-Матарія","pl":"Al Maţarīyah","hi":"अल मातरियाह","ar":"المطرية","hy":"Ալ Մատարիյա"}},{"name":"Bilqās","latitude":"31.21452000","longitude":"31.35798000","native":"بلقيس","translations":{"br":"Bilqās","ko":"빌카스","pt-BR":"Bilqās","pt":"Bilqās","nl":"Bilqās","hr":"Bilqās","fa":"بلقاس","de":"Bilqās","es":"Bilqas","fr":"Bilqas","ja":"ビルカス","it":"Bilqās","zh-CN":"比尔卡斯","tr":"Bilkās","ru":"Билькас","uk":"Бількас","pl":"Bilqās","hi":"बिल्कास","ar":"بلقيس","hy":"Բիլքաս"}},{"name":"Dikirnis","latitude":"31.08898000","longitude":"31.59478000","native":"دكرنس","translations":{"br":"Dikirnis","ko":"디키르니스","pt-BR":"Dikirnis","pt":"Dikirnis","nl":"Dikirnis","hr":"Dikirnis","fa":"دیکرنیس","de":"Dikirnis","es":"Dikirnis","fr":"Dikirnis","ja":"ディキルニス","it":"Dikirnis","zh-CN":"迪克尔尼斯","tr":"Dikirnis","ru":"Дикирнис","uk":"Дікірніс","pl":"Dikirnis","hi":"डिकिर्निस","ar":"دكرنس","hy":"Դիկիրնիս"}},{"name":"Minyat an Naşr","latitude":"31.12624000","longitude":"31.64313000","native":"منية النصر","translations":{"br":"Minyat an Naşr","ko":"미니야트 안 나스르","pt-BR":"Minyat e Naşr","pt":"Minyat e Naşr","nl":"Minyat an Naşr","hr":"Minyat an Naşr","fa":"منیات و نشر","de":"Minyat an Naşr","es":"Minyat an Naşr","fr":"Minyat an Nasr","ja":"ミニヤト・アン・ナシュル","it":"Minyat an Naşr","zh-CN":"米亚特·纳什尔","tr":"Minyat an Naşr","ru":"Minyat an Naşr","uk":"Мін'ят ан Нашр","pl":"Minyat an Naşr","hi":"मिन्यात एन नासर","ar":"منية النصر","hy":"Մինիատ ան Նասր"}},{"name":"Shirbīn","latitude":"31.19688000","longitude":"31.52430000","native":"شربين","translations":{"br":"Shirbīn","ko":"쉬르빈","pt-BR":"Shirbin","pt":"Shirbin","nl":"Shirbīn","hr":"Širbin","fa":"شیربین","de":"Shirbīn","es":"Shirbin","fr":"Shirbin","ja":"シルビン","it":"Shirbīn","zh-CN":"希尔宾","tr":"Şirbīn","ru":"Ширбин","uk":"Ширбін","pl":"Szirbin","hi":"शिरबीन","ar":"شربين","hy":"Շիրբին"}},{"name":"Ţalkhā","latitude":"31.05390000","longitude":"31.37787000","native":"طالخا","translations":{"br":"Ţalkhā","ko":"탈카","pt-BR":"Ţalkhā","pt":"Ţalkhā","nl":"Ţalkhā","hr":"Ćalkha","fa":"تالخا","de":"Ţalkhā","es":"Talkhā","fr":"Ţalkhā","ja":"タルカー","it":"Ţalkhā","zh-CN":"塔尔卡","tr":"Ţalkhā","ru":"Цалха","uk":"Талха","pl":"Ţalkhā","hi":"Ţalkhā","ar":"طالخا","hy":"Թալխա"}}]},{"name":"Damietta Governorate","state_code":"DT","latitude":"31.36257990","longitude":"31.67393710","cities":[{"name":"Az Zarqā","latitude":"31.20864000","longitude":"31.63528000","native":"الزرقاء","translations":{"br":"Az Zarqā","ko":"아즈 자르카","pt-BR":"Az Zarqā","pt":"Az Zarqā","nl":"Az Zarqā","hr":"Az Zarqā","fa":"از زرقا","de":"Az Zarqā","es":"Az Zarqa","fr":"Az Zarqā","ja":"アズ・ザルカ","it":"Az Zarqā","zh-CN":"阿兹扎尔卡","tr":"Az Zarqā","ru":"Аз Зарка","uk":"Аз-Зарка","pl":"Az Zarqā","hi":"अज़ ज़रक़ा","ar":"الزرقاء","hy":"Ազ Զարքա"}},{"name":"Damietta","latitude":"31.41648000","longitude":"31.81332000","native":"دمياط","translations":{"br":"Damietta","ko":"다미에타","pt-BR":"Damieta","pt":"Damieta","nl":"Damietta","hr":"Damietta","fa":"دمیاط","de":"Damiette","es":"Damieta","fr":"Damiette","ja":"ダミエッタ","it":"Damietta","zh-CN":"达米埃塔","tr":"Dimyat","ru":"Дамиетта","uk":"Дамієтта","pl":"Damieta","hi":"डेमिएटा","ar":"دمياط","hy":"Դամիետտա"}},{"name":"Fāraskūr","latitude":"31.32977000","longitude":"31.71507000","native":"فارسكور","translations":{"br":"Fāraskūr","ko":"파라스쿠르","pt-BR":"Faraskūr","pt":"Faraskūr","nl":"Fāraskūr","hr":"Faraskūr","fa":"فارسکور","de":"Fāraskūr","es":"Faraskur","fr":"Fāraskūr","ja":"ファラスクル","it":"Fāraskūr","zh-CN":"法拉斯库尔","tr":"Fāraskūr","ru":"Фараскур","uk":"Фараскур","pl":"Fāraskūr","hi":"फ़रास्कुर","ar":"فارسكور","hy":"Փարասկուր"}}]},{"name":"Faiyum Governorate","state_code":"FYM","latitude":"29.30840210","longitude":"30.84284970","cities":[{"name":"Al Fayyūm","latitude":"29.30995000","longitude":"30.84180000","native":"الفيوم","translations":{"br":"Al Fayyūm","ko":"알파이윰","pt-BR":"Al Fayyūm","pt":"Al Fayyūm","nl":"Al Fayyūm","hr":"Al-Fayyum","fa":"الفیوم","de":"Al-Fayyum","es":"Al Fayum","fr":"Al Fayyum","ja":"アル・ファイユーム","it":"Al Fayyūm","zh-CN":"法尤姆","tr":"El Feyyûm","ru":"Аль-Файюм","uk":"Аль-Файюм","pl":"Al Fajum","hi":"अल फ़य्यूम","ar":"الفيوم","hy":"Ալ Ֆայուում"}},{"name":"Al Wāsiţah","latitude":"29.33778000","longitude":"31.20556000","native":"الواسطة","translations":{"br":"Al Wāsiţah","ko":"알 와시타","pt-BR":"Al Wāsiţah","pt":"Al Wāsiţah","nl":"Al Wāsiţah","hr":"Al-Wasita","fa":"الواسطه","de":"Al Wāsiţah","es":"Al Wāsiţah","fr":"Al Wāsiţah","ja":"アル・ワシツァ","it":"Al Wāsiţah","zh-CN":"瓦西塔","tr":"Al Wasita","ru":"Аль-Васита","uk":"Аль-Васіта","pl":"Al Wāsiţah","hi":"अल वसीता","ar":"الواسطة","hy":"Ալ Վասիտա"}},{"name":"Ibshawāy","latitude":"29.35896000","longitude":"30.68061000","native":"إبشواي","translations":{"br":"Ibshawāy","ko":"이브샤와이","pt-BR":"Ibshawāy","pt":"Ibshawāy","nl":"Ibshawāy","hr":"Ibshawāy","fa":"ایبشاوی","de":"Ibshawāy","es":"Ibshaway","fr":"Ibshawāy","ja":"イブシャワイ","it":"Ibshawāy","zh-CN":"伊布沙瓦","tr":"Ibshawāy","ru":"Ибшавай","uk":"Ібшавай","pl":"Ibshawāy","hi":"इब्शावे","ar":"إبشواي","hy":"Իբշաուայ"}},{"name":"Iţsā","latitude":"29.23760000","longitude":"30.78944000","native":"إيستسا","translations":{"br":"Iţsā","ko":"이차","pt-BR":"Iţsā","pt":"Iţsā","nl":"Iţsā","hr":"Itsa","fa":"ایتسا","de":"Iţsā","es":"Iţsā","fr":"Iţsā","ja":"イツァ","it":"Iţsā","zh-CN":"伊察","tr":"Iţsā","ru":"Ица","uk":"Іца","pl":"Iţsā","hi":"यह है एक","ar":"إيستسا","hy":"Իծսա"}},{"name":"Ţāmiyah","latitude":"29.47639000","longitude":"30.96119000","native":"طامية","translations":{"br":"Ţāmiyah","ko":"타미야","pt-BR":"Ţāmiyah","pt":"Ţāmiyah","nl":"Ţāmiyah","hr":"Tamija","fa":"طامیه","de":"Ţāmiyah","es":"Tamia","fr":"Tāmiyah","ja":"ターミヤ","it":"Ţāmiyah","zh-CN":"塔米亚","tr":"Ţāmiyah","ru":"Тамия","uk":"Тамія","pl":"Tamija","hi":"Ţāmiyah","ar":"طامية","hy":"Թամիյա"}}]},{"name":"Gharbia Governorate","state_code":"GH","latitude":"30.87535560","longitude":"31.03351000","cities":[{"name":"Al Maḩallah al Kubrá","latitude":"30.97063000","longitude":"31.16690000","native":"المحلة الكبرى","translations":{"br":"Al Maḩallah al Kubrá","ko":"알 마할라 알 쿠브라","pt-BR":"Al Maḩallah al Kubrá","pt":"Al Maḩallah al Kubrá","nl":"Al Maḩallah al Kubrá","hr":"Al-Maḩallah al-Kubra","fa":"المحالله الکبری","de":"Al Maḩallah al Kubrá","es":"Al-Mahallah al-Kubrá","fr":"Al Mahallah al Kubrá","ja":"アル・マハラ・アル・クブラ","it":"Al Maḩallah al Kubrá","zh-CN":"大清真寺","tr":"Al Maḩallah al Kubrá","ru":"Аль Махаллах аль Кубра","uk":"Аль-Махаллах аль-Кубра","pl":"Al Maḩallah al Kubrá","hi":"अल माḩअल्लाह अल कुबरा","ar":"المحلة الكبرى","hy":"Ալ Մահալլա ալ Կուբրա"}},{"name":"Basyūn","latitude":"30.93976000","longitude":"30.81338000","native":"بسيون","translations":{"br":"Basyūn","ko":"바순","pt-BR":"Basyūn","pt":"Basyūn","nl":"Basyūn","hr":"Basyūn","fa":"بسیون","de":"Basyūn","es":"Basyūn","fr":"Basyūn","ja":"バシュン","it":"Basyūn","zh-CN":"巴顺","tr":"Basyun","ru":"Басюн","uk":"Басьюн","pl":"Basyūn","hi":"बस्युन","ar":"بسيون","hy":"Բասիուն"}},{"name":"Kafr az Zayyāt","latitude":"30.82480000","longitude":"30.81805000","native":"كفر الزيات","translations":{"br":"Kafr az Zayyāt","ko":"카프르 아즈 자이야트","pt-BR":"Kafr az Zayyāt","pt":"Kafr az Zayyāt","nl":"Kafr az Zayyāt","hr":"Kafr az Zayyat","fa":"کفر از زیات","de":"Kafr az Zayyāt","es":"Kafr az Zayyāt","fr":"Kafr az Zayyāt","ja":"Kafr az Zayyāt","it":"Kafr az Zayyāt","zh-CN":"卡夫尔·阿兹·扎亚特","tr":"Kafr az Zayyāt","ru":"Kafr az Zayyāt","uk":"Кафр-аз-Зайят","pl":"Kafr az Zayyāt","hi":"कफ़र अज़ ज़य्यात","ar":"كفر الزيات","hy":"Կաֆր ազ Զայիատ"}},{"name":"Quţūr","latitude":"30.97225000","longitude":"30.95614000","native":"قطور","translations":{"br":"Quţūr","ko":"쿠투르","pt-BR":"Quţūr","pt":"Quţūr","nl":"Quţūr","hr":"Kutūr","fa":"قطور","de":"Quţūr","es":"Quţūr","fr":"Quţūr","ja":"クトゥル","it":"Quţūr","zh-CN":"库图尔","tr":"Quţūr","ru":"Кутур","uk":"Кутур","pl":"Quţūr","hi":"क़ुतुर","ar":"قطور","hy":"Քութուր"}},{"name":"Samannūd","latitude":"30.96160000","longitude":"31.24069000","native":"سمنود","translations":{"br":"Samannūd","ko":"사만누드","pt-BR":"Samannūd","pt":"Samannūd","nl":"Samannūd","hr":"Samannud","fa":"سامانود","de":"Samänd","es":"Samannud","fr":"Samannud","ja":"サマンヌード","it":"Samannūd","zh-CN":"萨曼努德","tr":"Samannud","ru":"Саманнуд","uk":"Саманнуд","pl":"Samannūd","hi":"समन्नूद","ar":"سمنود","hy":"Սամաննուդ"}},{"name":"Tanda","latitude":"30.78847000","longitude":"31.00192000","native":"تاندا","translations":{"br":"Tanda","ko":"탄다","pt-BR":"Tanda","pt":"Tanda","nl":"Tanda","hr":"Tanda","fa":"تاندا","de":"Tanda","es":"Tanda","fr":"Tanda","ja":"タンダ","it":"Tanda","zh-CN":"坦达","tr":"Tanda","ru":"Танда","uk":"Танда","pl":"Tanda","hi":"टांडा","ar":"تاندا","hy":"Տանդա"}},{"name":"Zefta","latitude":"30.71420000","longitude":"31.24425000","native":"زفتى","translations":{"br":"Zefta","ko":"제프타","pt-BR":"Zefta","pt":"Zefta","nl":"Zefta","hr":"Žefta","fa":"زفتا","de":"Zefta","es":"Zefta","fr":"Zefta","ja":"ゼフタ","it":"Zefta","zh-CN":"泽夫塔","tr":"Zefta","ru":"Зефта","uk":"Зефта","pl":"Zefta","hi":"ज़ेफ्ता","ar":"زفتى","hy":"Զեֆտա"}}]},{"name":"Giza Governorate","state_code":"GZ","latitude":"28.76662160","longitude":"29.23207840","cities":[{"name":"Al ‘Ayyāţ","latitude":"29.61972000","longitude":"31.25750000","native":"العياط","translations":{"br":"Al ‘Ayyāţ","ko":"알 아이야트","pt-BR":"Al ‘Ayyāţ","pt":"Al ‘Ayyāţ","nl":"Al ‘Ayyāţ","hr":"Al-Ayyāt","fa":"العیاط","de":"Al ‘Ayyāţ","es":"Al ‘Ayyāţ","fr":"Al ‘Ayyāţ","ja":"アル・アヤーツ","it":"Al ‘Ayyāţ","zh-CN":"阿尔阿亚特","tr":"Al ‘Ayyāţ","ru":"Аль-Айят","uk":"Аль-Айят","pl":"Al ‘Ayyāţ","hi":"अल ‘अय्यात","ar":"العياط"}},{"name":"Al Bawīţī","latitude":"28.34919000","longitude":"28.86591000","native":"البويط","translations":{"br":"Al Bawīţī","ko":"알 바위티","pt-BR":"Al Bawīţī","pt":"Al Bawīţī","nl":"Al Bawīţī","hr":"Al Bawiti","fa":"البویطی","de":"Al Bawīţī","es":"Al Bawīţī","fr":"Al Bawīţī","ja":"アル・バウィーツィ","it":"Al Bawīţī","zh-CN":"阿尔巴维蒂","tr":"Al Bawīţī","ru":"Аль-Бавити","uk":"Аль-Бавіці","pl":"Al Bawīţī","hi":"अल बाविती","ar":"البويط","hy":"Ալ Բավիտի"}},{"name":"Al Ḩawāmidīyah","latitude":"29.90000000","longitude":"31.25000000","native":"الحوامدية","translations":{"br":"Al Ḩawāmidīyah","ko":"알 하와미디야","pt-BR":"Al Ḩawāmidīyah","pt":"Al Ḩawāmidīyah","nl":"Al Ḩawāmidīyah","hr":"Al Havamidija","fa":"الحوامیدیه","de":"Al Ḩawāmidīyah","es":"Al-Hawāmidīyah","fr":"Al Hawāmidīyah","ja":"アル・ハワーミディーヤ","it":"Al Ḩawāmidīyah","zh-CN":"阿尔哈瓦米迪耶","tr":"Al Ḩawāmidīyah","ru":"Аль-Хавамидия","uk":"Аль-Хавамідія","pl":"Al Ḩawāmidīyah","hi":"अल Ḩawāmidīyah","ar":"الحوامدية","hy":"Ալ Հաամիդիյա"}},{"name":"Aş Şaff","latitude":"29.56472000","longitude":"31.28111000","native":"آش ساف","translations":{"br":"Aş Şaff","ko":"아시 샤프","pt-BR":"Aş Şaff","pt":"Aş Şaff","nl":"Aş Şaff","hr":"Aš Šaf","fa":"آش شف","de":"Aş Şaff","es":"Aş Şaff","fr":"As-Saff","ja":"アシュ・シャフ","it":"Aş Şaff","zh-CN":"阿什·萨夫","tr":"Aş Şaff","ru":"Аш Шафф","uk":"Аш Шафф","pl":"Aş Şaff","hi":"आस शाफ़","ar":"آش ساف","hy":"Աս Սաֆֆ"}},{"name":"Awsīm","latitude":"30.12303000","longitude":"31.13571000","native":"أوسيم","translations":{"br":"Awsīm","ko":"아심","pt-BR":"Awsīm","pt":"Awsīm","nl":"Awsīm","hr":"Awsim","fa":"آوسیم","de":"Awsīm","es":"Awsim","fr":"Awsīm","ja":"アウシム","it":"Awsīm","zh-CN":"奥西姆","tr":"Avsīm","ru":"Аусим","uk":"Авсім","pl":"Awsīm","hi":"औसिम","ar":"أوسيم","hy":"Աուսիմ"}},{"name":"Giza","latitude":"30.00808000","longitude":"31.21093000","native":"الجيزة","translations":{"br":"Giza","ko":"기자","pt-BR":"Gizé","pt":"Gizé","nl":"Gizeh","hr":"Giza","fa":"جیزه","de":"Gizeh","es":"Giza","fr":"Gizeh","ja":"ギザ","it":"Giza","zh-CN":"吉萨","tr":"Giza","ru":"Гиза","uk":"Гіза","pl":"Giza","hi":"गीज़ा","ar":"الجيزة","hy":"Գիզա"}},{"name":"Madīnat Sittah Uktūbar","latitude":"29.81667000","longitude":"31.05000000","native":"Madīnat Sittah Uktūbar","translations":{"br":"Madīnat Sittah Uktūbar","ko":"마디나트 시타 우크투바르","pt-BR":"Madīnat Sittah Uktūbar","pt":"Madīnat Sittah Uktūbar","nl":"Madīnat Sittah Uktūbar","hr":"Madinat Sittah Uktūbar","fa":"مدینة سیتة اوکتوبار","de":"Madīnat Sittah Uktūbar","es":"Madīnat Sittah Uktūbar","fr":"Madīnat Sittah Uktūbar","ja":"マディーナト・シッタ・ウクトゥバール","it":"Madīnat Sittah Uktūbar","zh-CN":"乌克图巴尔城西塔","tr":"Madīnat Sittah Uktūbar","ru":"Madīnat Sittah Uktūbar","uk":"Мадінат Сіттах Уктубар","pl":"Madīnat Sittah Uktūbar","hi":"Madīnat Sittah Uktūbar","ar":"Madīnat Sittah Uktūbar","hy":"Մադինատ Սիտտա Օկտուբար"}}]},{"name":"Ismailia Governorate","state_code":"IS","latitude":"30.58309340","longitude":"32.26538870","cities":[{"name":"Ismailia","latitude":"30.60427000","longitude":"32.27225000","native":"الإسماعيلية","translations":{"br":"Ismailia","ko":"이스마일리아","pt-BR":"Ismaília","pt":"Ismaília","nl":"Ismailia","hr":"Ismailija","fa":"اسماعیلیه","de":"Ismailia","es":"Ismailía","fr":"Ismaïlia","ja":"イスマイリア","it":"Ismailia","zh-CN":"伊斯梅利亚","tr":"İsmailiye","ru":"Исмаилия","uk":"Ісмаїлія","pl":"Ismailia","hi":"इस्माइलिया","ar":"الإسماعيلية","hy":"Իսմայիլիա"}}]},{"name":"Kafr el-Sheikh Governorate","state_code":"KFS","latitude":"31.30854440","longitude":"30.80394740","cities":[{"name":"Al Ḩāmūl","latitude":"31.31146000","longitude":"31.14766000","native":"الحامول","translations":{"br":"Al Ḩāmūl","ko":"알 하물","pt-BR":"Al Ḩāmūl","pt":"Al Ḩāmūl","nl":"Al Ḩāmūl","hr":"Al Hamul","fa":"آل حمول","de":"Al Ḩāmūl","es":"Al-Hāmūl","fr":"Al-Ḩāmūl","ja":"アル・ハムール","it":"Al Ḩāmūl","zh-CN":"阿尔·哈穆尔","tr":"Al Ḩāmūl","ru":"Аль Хамул","uk":"Аль-Хамул","pl":"Al Ḩāmūl","hi":"अल हामूल","ar":"الحامول","hy":"Ալ Համուլ"}},{"name":"Disūq","latitude":"31.13259000","longitude":"30.64784000","native":"ديسوق","translations":{"br":"Disūq","ko":"디수크","pt-BR":"Disūq","pt":"Disūq","nl":"Disūq","hr":"Disuq","fa":"دیسوق","de":"Disūq","es":"Disūq","fr":"Disūq","ja":"ディスーク","it":"Disūq","zh-CN":"迪苏克","tr":"Disūq","ru":"Дисук","uk":"Дісук","pl":"Disūq","hi":"डिसूक","ar":"ديسوق","hy":"Դիսուք"}},{"name":"Fuwwah","latitude":"31.20365000","longitude":"30.54908000","native":"فوّه","translations":{"br":"Fuwwah","ko":"푸와","pt-BR":"Fuwwah","pt":"Fuwwah","nl":"Fuwwah","hr":"Fuvva","fa":"فوعه","de":"Fuwwah","es":"Fuwwah","fr":"Fuwwah","ja":"ふわぁ","it":"Fuwwah","zh-CN":"富瓦","tr":"Fuwwah","ru":"Фувва","uk":"Фува","pl":"Fuwwah","hi":"फुव्वा","ar":"فوّه","hy":"Ֆուաա"}},{"name":"Kafr ash Shaykh","latitude":"31.11174000","longitude":"30.93991000","native":"كفر الشيخ","translations":{"br":"Kafr ash Shaykh","ko":"카프르 아쉬 셰이크","pt-BR":"Kafr ash Shaykh","pt":"Kafr ash Shaykh","nl":"Kafr ash Shaykh","hr":"Kafr aš-Šejh","fa":"کفر الشیخ","de":"Kafr asch-Schaich","es":"Kafr ash Shaykh","fr":"Kafr ash Shaykh","ja":"カフル・アシュ・シャイフ","it":"Kafr ash Shaykh","zh-CN":"卡夫尔·阿什·谢赫","tr":"Kafr ash Shaykh","ru":"Кафр аш Шейх","uk":"Кафр аш-Шейх","pl":"Kafr asz-Szejch","hi":"कफ़र अश शेख","ar":"كفر الشيخ","hy":"Կաֆր աշ Շայխ"}},{"name":"Markaz Disūq","latitude":"31.14590000","longitude":"30.71609000","native":"مركز دسوق","translations":{"br":"Markaz Disūq","ko":"마르카즈 디수크","pt-BR":"Markaz Disūq","pt":"Markaz Disūq","nl":"Markaz Disūq","hr":"Markaz Disūq","fa":"مرکز دیسوق","de":"Markaz Disūq","es":"Markaz Disūq","fr":"Markaz Disūq","ja":"マルカズ・ディスーク","it":"Markaz Disūq","zh-CN":"马克兹·迪苏克","tr":"Markaz Disūq","ru":"Markaz Disūq","uk":"Марказ Дісук","pl":"Markaz Disūq","hi":"मरकज़ दिसुक","ar":"مركز دسوق","hy":"Մարկազ Դիսուք"}},{"name":"Munshāt ‘Alī Āghā","latitude":"31.15791000","longitude":"30.70177000","native":"منشات علي آغا","translations":{"br":"Munshāt ‘Alī Āghā","ko":"문샤트 알리 아가","pt-BR":"Munshāt ‘Alī Āghā","pt":"Munshāt ‘Alī Āghā","nl":"Munshāt ‘Alī Āghā","hr":"Munšat 'Alī Agha","fa":"منشآت علی آقا","de":"Munshāt ‘Alī Āghā","es":"Munshāt ‘Alī Āghā","fr":"Munshāt ‘Alī Āghā","ja":"ムンシャット・アリー・アーガ","it":"Munshāt ‘Alī Āghā","zh-CN":"蒙沙特·阿里·阿加","tr":"Munshāt ‘Alī Āghā","ru":"Муншат ‘Али Ага","uk":"Муншат Алі Аґха","pl":"Munshāt ‘Alī Āghā","hi":"मुंशात अली आगा","ar":"منشات علي آغا"}},{"name":"Sīdī Sālim","latitude":"31.27133000","longitude":"30.78617000","native":"سيدي سالم","translations":{"br":"Sīdī Sālim","ko":"시디 살림","pt-BR":"Sidi Salim","pt":"Sidi Salim","nl":"Sīdī Sālim","hr":"Sidi Salim","fa":"سیدی سلیم","de":"Sīdī Sālim","es":"Sidi Salim","fr":"Sīdī Sālim","ja":"シディ・サリム","it":"Sīdī Sālim","zh-CN":"西迪·萨利姆","tr":"Sīdī Sālim","ru":"Сиди Салим","uk":"Сіді Салім","pl":"Sīdī Sālim","hi":"सिदी सलीम","ar":"سيدي سالم","hy":"Սիդի Սալիմ"}}]},{"name":"Luxor Governorate","state_code":"LX","latitude":"25.39444440","longitude":"32.49200880","cities":[{"name":"Luxor","latitude":"25.69893000","longitude":"32.64210000","native":"الأقصر","translations":{"br":"Luksor","ko":"룩소르","pt-BR":"Luxor","pt":"Luxor","nl":"Luxor","hr":"Luksor","fa":"لوکسور","de":"Luxor","es":"Luxor","fr":"Louxor","ja":"ルクソール","it":"Luxor","zh-CN":"卢克索","tr":"Luksor","ru":"Луксор","uk":"Луксор","pl":"Luksor","hi":"लक्सर","ar":"الأقصر","hy":"Լուքսոր"}},{"name":"Markaz al Uqşur","latitude":"25.62986000","longitude":"32.59017000","native":"مركز الأقصر","translations":{"br":"Markaz al Uqşur","ko":"마르카즈 알 우크수르","pt-BR":"Markaz al Uqşur","pt":"Markaz al Uqşur","nl":"Markaz al Uqşur","hr":"Markaz al-Uqşur","fa":"مرکز اوقشور","de":"Markaz al Uqşur","es":"Markaz al Uqsur","fr":"Markaz al Uqşur","ja":"マルカズ・アル・ウクシュル","it":"Markaz al Uqşur","zh-CN":"马克兹·阿尔·乌克苏尔","tr":"Markaz al Uqşur","ru":"Markaz al Uqşur","uk":"Марказ аль-Укшур","pl":"Markaz al Uqşur","hi":"मरकज़ अल उक़सूर","ar":"مركز الأقصر","hy":"Մարկազ ալ Ուքսուր"}}]},{"name":"Matrouh Governorate","state_code":"MT","latitude":"29.56963500","longitude":"26.41938900","cities":[{"name":"Al ‘Alamayn","latitude":"30.83007000","longitude":"28.95502000","native":"العلمين","translations":{"br":"Al ‘Alamayn","ko":"알 알라마인","pt-BR":"Al ‘Alamayn","pt":"Al ‘Alamayn","nl":"Al ‘Alamayn","hr":"Al-Alamayn","fa":"العالمین","de":"Al ‘Alamayn","es":"Al-Alamyn","fr":"Al ‘Alamayn","ja":"アル・アラメイン","it":"Al ‘Alamayn","zh-CN":"阿拉曼","tr":"El Alemeyn","ru":"Аль-Аламейн","uk":"Аль-Аламайн","pl":"Al ‘Alamayn","hi":"अल ‘अलमायन","ar":"العلمين"}},{"name":"Mersa Matruh","latitude":"31.35290000","longitude":"27.23725000","native":"مرسى مطروح","translations":{"br":"Mersa Matruh","ko":"메르사 마트루흐","pt-BR":"Mersa Matruh","pt":"Mersa Matruh","nl":"Mersa Matruh","hr":"Mersa Matruh","fa":"مرسی مطروح","de":"Marsa Matruh","es":"Mersa Matruh","fr":"Marsa Matruh","ja":"メルサ・マトルーフ","it":"Mersa Matruh","zh-CN":"马特鲁港","tr":"Mersa Matruh","ru":"Мерса-Матрух","uk":"Мерса-Матрух","pl":"Mersa Matruh","hi":"मेरसा मत्रुह","ar":"مرسى مطروح","hy":"Մերսա Մատրուհ"}},{"name":"Siwa Oasis","latitude":"29.20320000","longitude":"25.51965000","native":"واحة سيوة","translations":{"br":"Oasis Siwa","ko":"시와 오아시스","pt-BR":"Oásis de Siwa","pt":"Oásis de Siwa","nl":"Siwa-oase","hr":"Oaza Siwa","fa":"واحه سیوا","de":"Oase Siwa","es":"Oasis de Siwa","fr":"Oasis de Siwa","ja":"シワオアシス","it":"Oasi di Siwa","zh-CN":"锡瓦绿洲","tr":"Siwa Vahası","ru":"Оазис Сива","uk":"Оазис Сіва","pl":"Oaza Siwa","hi":"सिवा ओएसिस","ar":"واحة سيوة","hy":"Սիվա Օազիս"}}]},{"name":"Minya Governorate","state_code":"MN","latitude":"28.28472900","longitude":"30.52790960","cities":[{"name":"Abū Qurqāş","latitude":"27.93120000","longitude":"30.83841000","native":"أبو قرقاص","translations":{"br":"Abū Qurqāş","ko":"아부 쿠르카스","pt-BR":"Abū Qurqāş","pt":"Abū Qurqāş","nl":"Abū Qurqāş","hr":"Abu Kurkaš","fa":"ابو قرقاش","de":"Abū Qurqāş","es":"Abu Qurqas","fr":"Abū Qurqāş","ja":"アブー・クルカシュ","it":"Abū Qurqāş","zh-CN":"阿布·库尔卡什","tr":"Ebû Kurkâş","ru":"Абу Куркаш","uk":"Абу Куркаш","pl":"Abū Qurqāş","hi":"अबू क़ुरक़ाश","ar":"أبو قرقاص","hy":"Աբու Քուրքաշ"}},{"name":"Al Minyā","latitude":"28.10988000","longitude":"30.75030000","native":"المنيا","translations":{"br":"Al Minyā","ko":"알 미니야","pt-BR":"Al Minya","pt":"Al Minya","nl":"Al Minyā","hr":"Al Minyā","fa":"المنیا","de":"Al Minyā","es":"Al Minyā","fr":"Al Minyā","ja":"アル・ミニヤ","it":"Al Minyā","zh-CN":"阿尔米尼亚","tr":"Al Minyā","ru":"Аль-Минья","uk":"Аль-Мінья","pl":"Al Minyā","hi":"अल मिन्या","ar":"المنيا","hy":"Ալ Մինիա"}},{"name":"Banī Mazār","latitude":"28.50360000","longitude":"30.80040000","native":"بني مزار","translations":{"br":"Banī Mazār","ko":"바니 마자르","pt-BR":"Banī Mazār","pt":"Banī Mazār","nl":"Banī Mazār","hr":"Bani Mazār","fa":"بنی مزار","de":"Banī Mazār","es":"Banī Mazār","fr":"Banī Mazār","ja":"バニー・マザール","it":"Banī Mazār","zh-CN":"巴尼马扎尔","tr":"Banī Mazār","ru":"Бани Мазар","uk":"Бані Мазар","pl":"Banī Mazār","hi":"बानी मज़ार","ar":"بني مزار","hy":"Բանի Մազար"}},{"name":"Dayr Mawās","latitude":"27.64176000","longitude":"30.84662000","native":"دير مواس","translations":{"br":"Dayr Mawās","ko":"다이르 마와스","pt-BR":"Dayr Mawās","pt":"Dayr Mawās","nl":"Dayr Mawās","hr":"Dayr Mawās","fa":"دیر مواس","de":"Dayr Mawās","es":"Dayr Mawās","fr":"Dayr Mawās","ja":"デイル・マワス","it":"Dayr Mawās","zh-CN":"代尔玛瓦斯","tr":"Dayr Mawās","ru":"Дайр Мавас","uk":"Дайр Мавас","pl":"Dayr Mawās","hi":"दयार मावस","ar":"دير مواس","hy":"Դայր Մավաս"}},{"name":"Mallawī","latitude":"27.73140000","longitude":"30.84165000","native":"ملوي","translations":{"br":"Mallawī","ko":"말라위","pt-BR":"Mallawī","pt":"Mallawī","nl":"Mallawī","hr":"Mallawi","fa":"مالاوی","de":"Mallawī","es":"Mallawī","fr":"Mallawi","ja":"マラウィ","it":"Mallawī","zh-CN":"马拉维","tr":"Mallawī","ru":"Маллави","uk":"Маллаві","pl":"Mallawī","hi":"मल्लावी","ar":"ملوي","hy":"Մալլավի"}},{"name":"Maţāy","latitude":"28.41899000","longitude":"30.77924000","native":"ماتاي","translations":{"br":"Maţāy","ko":"마타이","pt-BR":"Maţāy","pt":"Maţāy","nl":"Maţāy","hr":"Matāy","fa":"ماتای","de":"Maţāy","es":"Matay","fr":"Matay","ja":"マツァイ","it":"Maţāy","zh-CN":"马塔伊","tr":"Maţāy","ru":"Матай","uk":"Матай","pl":"Maţāy","hi":"Matay","ar":"ماتاي","hy":"Մատայ"}},{"name":"Samālūţ","latitude":"28.31214000","longitude":"30.71007000","native":"سمالوط","translations":{"br":"Samālūţ","ko":"사말루트","pt-BR":"Samālūţ","pt":"Samālūţ","nl":"Samālūţ","hr":"Samalūt","fa":"سمالوط","de":"Samālūţ","es":"Samālūţ","fr":"Samālūţ","ja":"サマルーツ","it":"Samālūţ","zh-CN":"萨玛卢特","tr":"Samālūţ","ru":"Самалут","uk":"Самалут","pl":"Samālūţ","hi":"समालूत","ar":"سمالوط","hy":"Սամալուտ"}}]},{"name":"Monufia Governorate","state_code":"MNF","latitude":"30.59724550","longitude":"30.98763210","cities":[{"name":"Al Bājūr","latitude":"30.43046000","longitude":"31.03679000","native":"الباجور","translations":{"br":"Al Bājūr","ko":"알 바주르","pt-BR":"Al Bājūr","pt":"Al Bājūr","nl":"Al Bājūr","hr":"Al Bājūr","fa":"الباجور","de":"Al Bājūr","es":"Al Bājūr","fr":"Al Bājūr","ja":"アル・バジュール","it":"Al Bājūr","zh-CN":"阿尔巴朱尔","tr":"Al Bājūr","ru":"Аль-Баджур","uk":"Аль-Баджур","pl":"Al Bajur","hi":"अल बाजुर","ar":"الباجور","hy":"Ալ Բաջուր"}},{"name":"Ash Shuhadā’","latitude":"30.59683000","longitude":"30.89931000","native":"الشهداء","translations":{"br":"Ash Shuhadā'","ko":"아쉬 슈하다","pt-BR":"Ash Shuhadā’","pt":"Ash Shuhadā’","nl":"Ash Shuhadā’","hr":"Aš-Šuhada","fa":"شهدا","de":"Ash Shuhadā’","es":"Ash Shuhadā’","fr":"Ash Shuhadā’","ja":"アッシュ・シュハダ","it":"Ash Shuhadā’","zh-CN":"阿什·舒哈达’","tr":"Eş Şüheda","ru":"Эш Шухада","uk":"Аш-Шухада","pl":"Ash Shuhadā’","hi":"अश शुहादा","ar":"الشهداء"}},{"name":"Ashmūn","latitude":"30.29735000","longitude":"30.97641000","native":"أشمون","translations":{"br":"Ashmūn","ko":"아쉬문","pt-BR":"Ashmūn","pt":"Ashmūn","nl":"Ashmūn","hr":"Ašmun","fa":"اشمون","de":"Ashmūn","es":"Ashmūn","fr":"Ashmun","ja":"アシュムン","it":"Ashmūn","zh-CN":"阿什蒙","tr":"Aşmun","ru":"Ашмун","uk":"Ашмун","pl":"Ashmūn","hi":"ASHMUN","ar":"أشمون","hy":"Ասհմուն"}},{"name":"Munūf","latitude":"30.46597000","longitude":"30.93199000","native":"منوف","translations":{"br":"Munūf","ko":"무누프","pt-BR":"Munūf","pt":"Munūf","nl":"Munūf","hr":"Munūf","fa":"منوف","de":"Munūf","es":"Munuf","fr":"Munuf","ja":"ムヌーフ","it":"Munuf","zh-CN":"穆努夫","tr":"Munuf","ru":"Мунуф","uk":"Мунуф","pl":"Munūf","hi":"मुनूफ़","ar":"منوف","hy":"Մունուֆ"}},{"name":"Quwaysinā","latitude":"30.56482000","longitude":"31.15777000","native":"قويسينة","translations":{"br":"Quwaysinā","ko":"쿠와이시나","pt-BR":"Quwaysina","pt":"Quwaysina","nl":"Quwaysinā","hr":"Kuvajsina","fa":"قويسنا","de":"Quwaysinā","es":"Quwaysina","fr":"Quwaysinā","ja":"クワイシナ","it":"Quwaysinā","zh-CN":"奎维西纳","tr":"Quwaysinā","ru":"Кувайсина","uk":"Кувайсіна","pl":"Quwaysinā","hi":"Quwaysina","ar":"قويسينة","hy":"Քուայսինա"}},{"name":"Shibīn al Kawm","latitude":"30.55258000","longitude":"31.00904000","native":"شبين الكوم","translations":{"br":"Shibīn al Kawm","ko":"시빈 알 카움","pt-BR":"Shibīn al Kawm","pt":"Shibīn al Kawm","nl":"Shibīn al Kawm","hr":"Šibin al-Kavm","fa":"شبین الکوم","de":"Shibīn al Kawm","es":"Shibin al Kawm","fr":"Shibin al Kawm","ja":"シビーン・アル・カウム","it":"Shibīn al Kawm","zh-CN":"希宾·阿尔·考姆","tr":"Shibīn al Kawm","ru":"Шибин аль Каум","uk":"Шибін аль-Каум","pl":"Shibīn al Kawm","hi":"शिबिन अल कौम","ar":"شبين الكوم","hy":"Շիբին ալ Կաում"}},{"name":"Talā","latitude":"30.67980000","longitude":"30.94364000","native":"تالا","translations":{"br":"Talā","ko":"탈라","pt-BR":"Tala","pt":"Tala","nl":"Talā","hr":"Tala","fa":"طلا","de":"Tala","es":"Talā","fr":"Talā","ja":"タラ","it":"Talā","zh-CN":"塔拉","tr":"Talā","ru":"Тала","uk":"Тала","pl":"Talā","hi":"ताला","ar":"تالا","hy":"Թալա"}}]},{"name":"New Valley Governorate","state_code":"WAD","latitude":"24.54556380","longitude":"27.17353160","cities":[{"name":"Al Khārijah","latitude":"25.45141000","longitude":"30.54635000","native":"الخرجة","translations":{"br":"Al Khārijah","ko":"알 카리자","pt-BR":"Al Khārijah","pt":"Al Khārijah","nl":"Al Khārijah","hr":"Al Kharijah","fa":"الخریجه","de":"Al-Kharija","es":"Al Khārijah","fr":"Al Khārijah","ja":"アル・ハリジャ","it":"Al Khārijah","zh-CN":"哈里贾","tr":"Al Harijah","ru":"Аль-Хариджа","uk":"Аль-Харіджа","pl":"Al Khārijah","hi":"अल ख़ारिजाह","ar":"الخرجة","hy":"Ալ Խարիջա"}},{"name":"Qaşr al Farāfirah","latitude":"27.05680000","longitude":"27.96979000","native":"قصر الفرافرة","translations":{"br":"Qaşr al Farāfirah","ko":"카스르 알 파라피라","pt-BR":"Qaşr al Farāfirah","pt":"Qaşr al Farāfirah","nl":"Qaşr al Farāfirah","hr":"Qaşr al-Farāfirah","fa":"قصر فرافره","de":"Qaşr al Farāfirah","es":"Qaşr al Farāfirah","fr":"Qaşr al Farāfirah","ja":"カシュル・アル・ファラーフィラ","it":"Qaşr al Farāfirah","zh-CN":"法拉菲拉宫","tr":"Qaşr al Farāfirah","ru":"Qaşr al Farāfirah","uk":"Каср-аль-Фарафіра","pl":"Qaşr al Farāfirah","hi":"क़सर अल फ़राफ़िरा","ar":"قصر الفرافرة","hy":"Քասր ալ Փարաֆիրա"}}]},{"name":"North Sinai Governorate","state_code":"SIN","latitude":"30.28236500","longitude":"33.61757700","cities":[{"name":"Arish","latitude":"31.13159000","longitude":"33.79844000","native":"العريش","translations":{"br":"Arish","ko":"아리쉬","pt-BR":"Arish","pt":"Arish","nl":"Arish","hr":"Ariš","fa":"آریش","de":"Arisch","es":"Arish","fr":"Arish","ja":"アリシュ","it":"Arish","zh-CN":"阿里什","tr":"Ariş","ru":"Ариш","uk":"Аріш","pl":"Arisz","hi":"एरिश","ar":"العريش","hy":"Արիշ"}}]},{"name":"Port Said Governorate","state_code":"PTS","latitude":"31.07586060","longitude":"32.26538870","cities":[{"name":"Port Said","latitude":"31.25654000","longitude":"32.28411000","native":"بورسعيد","translations":{"br":"Port Said","ko":"포트사이드","pt-BR":"Porto Said","pt":"Porto Said","nl":"Port Said","hr":"Port Said","fa":"پورت سعید","de":"Port Said","es":"Puerto Said","fr":"Port-Saïd","ja":"ポートサイド","it":"Porto Said","zh-CN":"塞得港","tr":"Port Said","ru":"Порт-Саид","uk":"Порт-Саїд","pl":"Port Said","hi":"रंग - ढंग बोलता है","ar":"بورسعيد","hy":"Պորտ Սաիդ"}}]},{"name":"Qalyubia Governorate","state_code":"KB","latitude":"30.32923680","longitude":"31.21684660","cities":[{"name":"Al Khānkah","latitude":"30.21035000","longitude":"31.36812000","native":"الخانكة","translations":{"br":"Al Khankah","ko":"알 칸카","pt-BR":"Al Khankah","pt":"Al Khankah","nl":"Al Khānkah","hr":"Al Khankah","fa":"الخانکه","de":"Al Khānkah","es":"Al Khānkah","fr":"Al Khankah","ja":"アル・ハンカ","it":"Al Khānkah","zh-CN":"艾尔坎卡","tr":"Al Khankah","ru":"Аль-Ханка","uk":"Аль-Ханка","pl":"Al Khānkah","hi":"अल ख़ानका","ar":"الخانكة","hy":"Ալ Խանկա"}},{"name":"Al Qanāţir al Khayrīyah","latitude":"30.19327000","longitude":"31.13703000","native":"القناطر الخيرية","translations":{"br":"Al Qanāţir al Khayrīyah","ko":"알 카나티르 알 카이리야","pt-BR":"Al Qanāţir al Khayrīyah","pt":"Al Qanāţir al Khayrīyah","nl":"Al Qanāţir al Khayrīyah","hr":"Al Qanāthir al-Khayrīyah","fa":"القناطر الخیریه","de":"Al Qanāţir al Khayrīyah","es":"Al Qanāţir al Khayrīyah","fr":"Al Qanāţir al Khayrīyah","ja":"アル・カナーティル・アル・カヒリーヤ","it":"Al Qanāţir al Khayrīyah","zh-CN":"卡纳蒂尔·海里耶","tr":"Al Qanāţir al Khayrīyah","ru":"Аль-Канатир аль-Хайрия","uk":"Аль-Канатір аль-Хайрія","pl":"Al Qanāţir al Khayrīyah","hi":"Al Qanāţir al Khayrīyah","ar":"القناطر الخيرية","hy":"Ալ Քանատիր ալ Խայրիյա"}},{"name":"Banhā","latitude":"30.45977000","longitude":"31.18420000","native":"بنها","translations":{"br":"Banhā","ko":"반하","pt-BR":"Banhā","pt":"Banhā","nl":"Banhā","hr":"Banha","fa":"بانها","de":"Banha","es":"Banhā","fr":"Banha","ja":"バンハー","it":"Banhā","zh-CN":"班哈","tr":"Banhā","ru":"Банха","uk":"Банха","pl":"Banha","hi":"बन्हा","ar":"بنها","hy":"Բանհա"}},{"name":"Qalyūb","latitude":"30.17922000","longitude":"31.20560000","native":"قليوب","translations":{"br":"Qalyūb","ko":"칼류브","pt-BR":"Qalyūb","pt":"Qalyūb","nl":"Qalyūb","hr":"Qalyūb","fa":"قلیوب","de":"Qalyūb","es":"Qalyub","fr":"Qalyūb","ja":"カリューブ","it":"Qalyūb","zh-CN":"卡柳布","tr":"Kalyub","ru":"Кальюб","uk":"Калюб","pl":"Qalyūb","hi":"क़ल्यूब","ar":"قليوب","hy":"Քալիուբ"}},{"name":"Shibīn al Qanāṭir","latitude":"30.31269000","longitude":"31.32018000","native":"شبين القناطر","translations":{"br":"Shibīn al Qanāṭir","ko":"시빈 알 카나티르","pt-BR":"Shibīn al Qanāṭir","pt":"Shibīn al Qanāṭir","nl":"Shibīn al Qanāṭir","hr":"Šibin al-Kanatir","fa":"شبین القناطر","de":"Shibin al Qanāṭir","es":"Shibīn al Qanāṭir","fr":"Shibīn al Qanāṭir","ja":"シビーン・アル・カナーティル","it":"Shibīn al Qanāṭir","zh-CN":"希宾·卡纳蒂尔","tr":"Shibīn al Qanāṭir","ru":"Shibīn al Qanāṭir","uk":"Шибін аль-Канатір","pl":"Shibīn al Qanāṭir","hi":"शिबिन अल क़नातिर","ar":"شبين القناطر","hy":"Շիբին ալ Քանատիր"}},{"name":"Toukh","latitude":"30.35487000","longitude":"31.20105000","native":"طوخ","translations":{"br":"Toukh","ko":"투크","pt-BR":"Toukh","pt":"Toukh","nl":"Toukh","hr":"Toukh","fa":"توخ","de":"Toukh","es":"Toukh","fr":"Toukh","ja":"トゥーク","it":"Toukh","zh-CN":"图克","tr":"Toukh","ru":"Тоух","uk":"Тоух","pl":"Tukh","hi":"तौख","ar":"طوخ","hy":"Տուխ"}}]},{"name":"Qena Governorate","state_code":"KN","latitude":"26.23460330","longitude":"32.98883190","cities":[{"name":"Dishnā","latitude":"26.12467000","longitude":"32.47598000","native":"دشنا","translations":{"br":"Dishnā","ko":"디슈나","pt-BR":"Dishnā","pt":"Dishnā","nl":"Dishnā","hr":"Dišna","fa":"دیشنا","de":"Dishnā","es":"Dishna","fr":"Dishna","ja":"ディシュナー","it":"Dishnā","zh-CN":"迪什纳","tr":"Dishnā","ru":"Дишна","uk":"Дішна","pl":"Dishnā","hi":"दिशाना","ar":"دشنا","hy":"Դիշնա"}},{"name":"Farshūţ","latitude":"26.05494000","longitude":"32.16329000","native":"فرشوط","translations":{"br":"Farshūţ","ko":"파르슈트","pt-BR":"Farshūţ","pt":"Farshūţ","nl":"Farshūţ","hr":"Faršut","fa":"فرشوت","de":"Farshūţ","es":"Farshūţ","fr":"Farshūţ","ja":"ファルシュツ","it":"Farshūţ","zh-CN":"法尔舒特","tr":"Farshūţ","ru":"Фаршут","uk":"Фаршут","pl":"Farshūţ","hi":"फ़ारशूट","ar":"فرشوط","hy":"Փարշուտ"}},{"name":"Isnā","latitude":"25.29336000","longitude":"32.55402000","native":"إسنا","translations":{"br":"Isnā","ko":"이스나","pt-BR":"Isnā","pt":"Isnā","nl":"Isnā","hr":"Isna","fa":"ایسنا","de":"Isnā","es":"Isna","fr":"Isna","ja":"イスナ","it":"Isnā","zh-CN":"伊斯纳","tr":"Isnā","ru":"Исна","uk":"Існа","pl":"Isnā","hi":"इस्ना","ar":"إسنا","hy":"Իսնա"}},{"name":"Kousa","latitude":"25.91407000","longitude":"32.76362000","native":"كوسا","translations":{"br":"Kousa","ko":"코우사","pt-BR":"Kousa","pt":"Kousa","nl":"Kousa","hr":"Kousa","fa":"کوسا","de":"Kousa","es":"Kousa","fr":"Kousa","ja":"コウサ","it":"Kousa","zh-CN":"科萨","tr":"Kousa","ru":"Коуса","uk":"Коуса","pl":"Kousa","hi":"कौसा","ar":"كوسا","hy":"Կուսա"}},{"name":"Naja' Ḥammādī","latitude":"26.04949000","longitude":"32.24142000","native":"نجا حمادي","translations":{"br":"Naja' Ḥammādī","ko":"나자 하마디","pt-BR":"Naja' Ḥammādī","pt":"Naja' Ḥammādī","nl":"Naja' Ḥammādī","hr":"Naja' Hammādī","fa":"نجا حمادی","de":"Naja' Ḥammādī","es":"Naja' Hammadi","fr":"Naja' Ḥammādī","ja":"ナジャ・ハマディー","it":"Naja' Ḥammādī","zh-CN":"纳贾·哈马迪","tr":"Naja' Ḥammādī","ru":"Наджа Хаммади","uk":"Наджа Хаммаді","pl":"Naja' Ḥammādī","hi":"नाजा' हम्मादी","ar":"نجا حمادي","hy":"Նաջա Համադի"}},{"name":"Qinā","latitude":"26.16418000","longitude":"32.72671000","native":"قنا","translations":{"br":"Qinā","ko":"키나","pt-BR":"Qinā","pt":"Qinā","nl":"Qinā","hr":"Qina","fa":"قنا","de":"Qina","es":"Qinā","fr":"Qinā","ja":"キナ","it":"Qinā","zh-CN":"基纳","tr":"Qinā","ru":"Кина","uk":"Кіна","pl":"Qinā","hi":"क़िना","ar":"قنا","hy":"Քինա"}}]},{"name":"Red Sea Governorate","state_code":"BA","latitude":"24.68263160","longitude":"34.15319470","cities":[{"name":"Al Quşayr","latitude":"26.10426000","longitude":"34.27793000","native":"القصير","translations":{"br":"Al Quşayr","ko":"알 쿠사이르","pt-BR":"Al Quşayr","pt":"Al Quşayr","nl":"Al Quşayr","hr":"Al Kusajr","fa":"القشیر","de":"Al Quşayr","es":"Al Quşayr","fr":"Al Quşayr","ja":"アル・クサイル","it":"Al Quşayr","zh-CN":"库赛尔","tr":"El Kuşayr","ru":"Аль-Кушайр","uk":"Аль-Кусайр","pl":"Al Quşayr","hi":"अल कुशायर","ar":"القصير","hy":"Ալ Քուսայր"}},{"name":"El Gouna","latitude":"27.39417000","longitude":"33.67825000","native":"الجونة","translations":{"br":"El Gouna","ko":"엘 구나","pt-BR":"El Gouna","pt":"El Gouna","nl":"El Gouna","hr":"El Gouna","fa":"ال گونا","de":"El Gouna","es":"El Gouna","fr":"El Gouna","ja":"エルグーナ","it":"El Gouna","zh-CN":"艾尔古纳","tr":"El Gouna","ru":"Эль-Гуна","uk":"Ель-Гуна","pl":"El Gouna","hi":"एल गौना","ar":"الجونة","hy":"Էլ Գունա"}},{"name":"Hurghada","latitude":"27.25738000","longitude":"33.81291000","native":"الغردقة","translations":{"br":"Hurghada","ko":"후르가다","pt-BR":"Hurghada","pt":"Hurghada","nl":"Hurghada","hr":"Hurgada","fa":"غردقه","de":"Hurghada","es":"Hurgada","fr":"Hurghada","ja":"ハルガダ","it":"Hurghada","zh-CN":"赫尔格达","tr":"Hurghada","ru":"Хургада","uk":"Хургада","pl":"Hurghada","hi":"हर्गहाडा","ar":"الغردقة","hy":"Հուրղադա"}},{"name":"Makadi Bay","latitude":"26.99123000","longitude":"33.89952000","native":"خليج مكادي","translations":{"br":"Bae Makadi","ko":"마카디 베이","pt-BR":"Baía de Makadi","pt":"Baía de Makadi","nl":"Makadi-baai","hr":"Zaljev Makadi","fa":"خلیج ماکادی","de":"Makadi Bay","es":"Bahía de Makadi","fr":"Baie de Makadi","ja":"マカディ湾","it":"Baia di Makadi","zh-CN":"马卡迪湾","tr":"Makadi Körfezi","ru":"Макади Бэй","uk":"Макаді-Бей","pl":"Zatoka Makadi","hi":"मकाडी खाड़ी","ar":"خليج مكادي","hy":"Մաքադի Բե"}},{"name":"Marsa Alam","latitude":"25.06305000","longitude":"34.89005000","native":"مرسى علم","translations":{"br":"Marsa Alam","ko":"마르사 알람","pt-BR":"Marsa Alam","pt":"Marsa Alam","nl":"Marsa Alam","hr":"Marsa Alam","fa":"مرسی عالم","de":"Marsa Alam","es":"Marsa Alam","fr":"Marsa Alam","ja":"マルサ・アラム","it":"Marsa Alam","zh-CN":"马萨阿拉姆","tr":"Marsa Alam","ru":"Марса Алам","uk":"Марса Алам","pl":"Marsa Alam","hi":"मार्सा आलम","ar":"مرسى علم","hy":"Մերսա Ալամ"}},{"name":"Ras Gharib","latitude":"28.35831000","longitude":"33.07829000","native":"رأس غارب","translations":{"br":"Ras Gharib","ko":"라스 가리브","pt-BR":"Ras Gharib","pt":"Ras Gharib","nl":"Ras Gharib","hr":"Ras Gharib","fa":"رأس غریب","de":"Ras Gharib","es":"Ras Gharib","fr":"Ras Gharib","ja":"ラス・ガリブ","it":"Ras Gharib","zh-CN":"拉斯加里卜","tr":"Ras Garib","ru":"Рас Гариб","uk":"Рас-Гаріб","pl":"Ras Gharib","hi":"रस ग़रीब","ar":"رأس غارب","hy":"Ռաս Գարիբ"}},{"name":"Safaga","latitude":"26.74906000","longitude":"33.93891000","native":"سفاجا","translations":{"br":"Safaga","ko":"사파가","pt-BR":"Safaga","pt":"Safaga","nl":"Safaga","hr":"Safaga","fa":"صفاگا","de":"Safaga","es":"Safaga","fr":"Safaga","ja":"サファガ","it":"Safaga","zh-CN":"萨法加","tr":"Safaga","ru":"Сафага","uk":"Сафага","pl":"Safaga","hi":"सफागा","ar":"سفاجا","hy":"Սաֆաղա"}}]},{"name":"Sohag Governorate","state_code":"SHG","latitude":"26.69383400","longitude":"32.17460500","cities":[{"name":"Akhmīm","latitude":"26.56217000","longitude":"31.74503000","native":"أخميم","translations":{"br":"Akhmīm","ko":"아크밈","pt-BR":"Akhmīm","pt":"Akhmīm","nl":"Akhmīm","hr":"Akhmīm","fa":"اخمیم","de":"Achmīm","es":"Akhmīm","fr":"Akhmim","ja":"アフミーム","it":"Akhmīm","zh-CN":"阿赫米姆","tr":"Ahmīm","ru":"Ахмим","uk":"Ахмім","pl":"Achmim","hi":"Akhmim","ar":"أخميم","hy":"Ախմիմ"}},{"name":"Al Balyanā","latitude":"26.23568000","longitude":"32.00347000","native":"البلينا","translations":{"br":"Al Balyanā","ko":"알 발리아나","pt-BR":"Al Balyanā","pt":"Al Balyanā","nl":"Al Balyanā","hr":"Al Balyanā","fa":"البلیانا","de":"Al Balyanā","es":"Al Balyanā","fr":"Al Balyanā","ja":"アル・バリヤナ","it":"Al Balyanā","zh-CN":"巴利亚纳","tr":"Al Balyanā","ru":"Аль-Баляна","uk":"Аль-Баляна","pl":"Al Balyanā","hi":"अल बलियाना","ar":"البلينا","hy":"Ալ Բալիանա"}},{"name":"Al Manshāh","latitude":"26.47686000","longitude":"31.80350000","native":"المنشاه","translations":{"br":"Al Manshāh","ko":"알 만샤","pt-BR":"Al Manshāh","pt":"Al Manshāh","nl":"Al Manshāh","hr":"Al Manshah","fa":"آل منشا","de":"Al Manschāh","es":"Al Manshāh","fr":"Al Manshāh","ja":"アル・マンシャー","it":"Al Manshāh","zh-CN":"曼沙","tr":"El Manşah","ru":"Аль Маншах","uk":"Аль-Маншах","pl":"Al Manshāh","hi":"अल मनशाह","ar":"المنشاه","hy":"Ալ Մանշա"}},{"name":"Jirjā","latitude":"26.33826000","longitude":"31.89161000","native":"جرجا","translations":{"br":"Jirjā","ko":"지르자","pt-BR":"Jirja","pt":"Jirja","nl":"Jirja","hr":"Jirjā","fa":"جرجا","de":"Jirja","es":"Jirjā","fr":"Jirja","ja":"ジルジャ","it":"Jirjā","zh-CN":"吉尔贾","tr":"Jirjā","ru":"Джирджа","uk":"Джирджа","pl":"Dżirdźa","hi":"जिरजा","ar":"جرجا","hy":"Ջիրջա"}},{"name":"Juhaynah","latitude":"26.67319000","longitude":"31.49760000","native":"جهينة","translations":{"br":"Juhaynah","ko":"주하이나","pt-BR":"Juhaynah","pt":"Juhaynah","nl":"Juhaynah","hr":"Džuhajna","fa":"جهینه","de":"Juhaynah","es":"Juhaynah","fr":"Juhaynah","ja":"ジュハイナ","it":"Juhaynah","zh-CN":"朱海娜","tr":"Cüheyne","ru":"Джухайна","uk":"Джухайна","pl":"Juhaynah","hi":"जुहैना","ar":"جهينة","hy":"Ջուհայնա"}},{"name":"Markaz Jirjā","latitude":"26.30683000","longitude":"31.84574000","native":"مركز جرجا","translations":{"br":"Markaz Jirjā","ko":"마르카즈 지르자","pt-BR":"Markaz Jirja","pt":"Markaz Jirja","nl":"Markaz Jirjā","hr":"Markaz Jirjā","fa":"مرکز جرجا","de":"Markaz Jirjā","es":"Markaz Jirjā","fr":"Markaz Jirja","ja":"マルカズ・ジルジャ","it":"Markaz Jirjā","zh-CN":"马尔卡兹·吉尔贾","tr":"Markaz Jirjā","ru":"Марказ Джирджа","uk":"Марказ Джирджа","pl":"Markaz Jirjā","hi":"मरकज़ जिरजा","ar":"مركز جرجا","hy":"Մարկազ Ջիրջա"}},{"name":"Markaz Sūhāj","latitude":"26.53948000","longitude":"31.67524000","native":"مركز سوهاج","translations":{"br":"Markaz Sūhāj","ko":"마르카즈 수하즈","pt-BR":"Markaz Sūhāj","pt":"Markaz Sūhāj","nl":"Markaz Sūhāj","hr":"Markaz Suhaj","fa":"مرکز سوهاج","de":"Markaz Sūhāj","es":"Markaz Sūhāj","fr":"Markaz Sūhāj","ja":"マルカズ・スハージ","it":"Markaz Sūhāj","zh-CN":"马克兹·苏哈吉","tr":"Markaz Sūhāj","ru":"Марказ Сухадж","uk":"Марказ Сухадж","pl":"Markaz Sūhāj","hi":"मरकज़ सुहाज","ar":"مركز سوهاج","hy":"Մարկազ Սուհաջ"}},{"name":"Sohag","latitude":"26.55695000","longitude":"31.69478000","native":"سوهاج","translations":{"br":"Sohag","ko":"소하그","pt-BR":"Sohag","pt":"Sohag","nl":"Sohag","hr":"Sohag","fa":"سوهاج","de":"Sohag","es":"Suhag","fr":"Sohag","ja":"ソハグ","it":"Sohag","zh-CN":"索哈格","tr":"Sohag","ru":"Сохаг","uk":"Сохаг","pl":"Sohag","hi":"सोहाग","ar":"سوهاج","hy":"Սոհաջ"}},{"name":"Ţahţā","latitude":"26.76930000","longitude":"31.50214000","native":"طهطا","translations":{"br":"Ţahţā","ko":"타흐타","pt-BR":"Ţahţā","pt":"Ţahţā","nl":"Ţahţā","hr":"Tahta","fa":"تَهتا","de":"Ţahţā","es":"Ţahţā","fr":"Ţahţā","ja":"ターツァ","it":"Ţahţā","zh-CN":"塔塔","tr":"Ţahţā","ru":"Ţahţā","uk":"Тахта","pl":"Ţahţā","hi":"Tahta","ar":"طهطا","hy":"Թահտա"}}]},{"name":"South Sinai Governorate","state_code":"JS","latitude":"29.31018280","longitude":"34.15319470","cities":[{"name":"Dahab","latitude":"28.48208000","longitude":"34.49505000","native":"دهب","translations":{"br":"Dahab","ko":"다합","pt-BR":"Dahab","pt":"Dahab","nl":"Dahab","hr":"Dahab","fa":"دهب","de":"Dahab","es":"Dahab","fr":"Dahab","ja":"ダハブ","it":"Dahab","zh-CN":"达哈卜","tr":"Dahab","ru":"Дахаб","uk":"Дахаб","pl":"Dahab","hi":"डोहाब","ar":"دهب","hy":"Դահաբ"}},{"name":"El-Tor","latitude":"28.24168000","longitude":"33.62220000","native":"الطور","translations":{"br":"El-Tor","ko":"엘토르","pt-BR":"El-Tor","pt":"El-Tor","nl":"El-Tor","hr":"El-Tor","fa":"ال-تور","de":"El-Tor","es":"El-Tor","fr":"El-Tor","ja":"エル・トール","it":"El-Tor","zh-CN":"埃尔托尔","tr":"El-Tor","ru":"Эль-Тор","uk":"Ель-Тор","pl":"El-Tor","hi":"एल-टोर","ar":"الطور","hy":"Էլ-Տոր"}},{"name":"Nuwaybi‘a","latitude":"29.04681000","longitude":"34.66340000","native":"نويبع","translations":{"br":"Nuwaybi‘a","ko":"누웨이비아","pt-BR":"Nuwaybi‘a","pt":"Nuwaybi‘a","nl":"Nuwaybi‘a","hr":"Nuvejbija","fa":"نویبیه","de":"Nuwaybi‘a","es":"Nuwaybi‘a","fr":"Nuwaybi‘a","ja":"ヌワイビア","it":"Nuwaybi‘a","zh-CN":"努韦比亚","tr":"Nuveybi‘a","ru":"Нувайбиа","uk":"Нувайбіа","pl":"Nuwaybi‘a","hi":"नुवेबिआ","ar":"نويبع"}},{"name":"Saint Catherine","latitude":"28.56191000","longitude":"33.94934000","native":"سانت كاترين","translations":{"br":"Santez Katell","ko":"성 캐서린","pt-BR":"Santa Catarina","pt":"Santa Catarina","nl":"Sint Catharina","hr":"Sveta Katarina","fa":"سنت کاترین","de":"Heilige Katharina","es":"Santa Catalina","fr":"Sainte Catherine","ja":"聖カタリナ","it":"Santa Caterina","zh-CN":"圣凯瑟琳","tr":"Azize Catherine","ru":"Святая Екатерина","uk":"Свята Катерина","pl":"Święta Katarzyna","hi":"सेंट कैथरीन","ar":"سانت كاترين","hy":"Սուրբ Կատրինե"}},{"name":"Sharm el-Sheikh","latitude":"27.91582000","longitude":"34.32995000","native":"شرم الشيخ","translations":{"br":"Sharm el-Sheikh","ko":"샤름 엘 셰이크","pt-BR":"Sharm el-Sheikh","pt":"Sharm el-Sheikh","nl":"Sharm el-Sheikh","hr":"Šarm el-Šeik","fa":"شرم الشیخ","de":"Scharm El-Scheich","es":"Sharm el-Sheij","fr":"Charm el-Cheikh","ja":"シャルム・エル・シェイク","it":"Sharm el-Sheikh","zh-CN":"沙姆沙伊赫","tr":"Şarm el-Şeyh","ru":"Шарм-эль-Шейх","uk":"Шарм-ель-Шейх","pl":"Szarm el-Szejk","hi":"शर्म अल - शेख","ar":"شرم الشيخ","hy":"Շարմ ել-Շեյխ"}}]},{"name":"Suez Governorate","state_code":"SUZ","latitude":"29.36822550","longitude":"32.17460500","cities":[{"name":"Ain Sukhna","latitude":"29.60018000","longitude":"32.31671000","native":"العين السخنة","translations":{"br":"Ain Sukhna","ko":"아인 수크나","pt-BR":"Ain Sukhna","pt":"Ain Sukhna","nl":"Ain Sukhna","hr":"Ain Sukhna","fa":"عین سخنه","de":"Ain Suchna","es":"Ain Sukhna","fr":"Ain Sukhna","ja":"アイン・スクナ","it":"Ain Sukhna","zh-CN":"艾因苏赫纳","tr":"Ayn Sukhna","ru":"Айн Сукхна","uk":"Айн-Сукхна","pl":"Ain Sukhna","hi":"ऐन सुखना","ar":"العين السخنة","hy":"Այն Սուխնա"}},{"name":"Suez","latitude":"29.97371000","longitude":"32.52627000","native":"السويس","translations":{"br":"Suez","ko":"수에즈","pt-BR":"Suez","pt":"Suez","nl":"Suez","hr":"Suec","fa":"سوئز","de":"Suez","es":"Suez","fr":"Suez","ja":"スエズ","it":"Suez","zh-CN":"苏伊士","tr":"Süveyş","ru":"Суэц","uk":"Суец","pl":"Suez","hi":"स्वेज","ar":"السويس","hy":"Սուեց"}}]}]}