{"code":"ET","states":[{"name":"Addis Ababa","state_code":"AA","latitude":"8.98060340","longitude":"38.75776050","cities":[{"name":"Addis Ababa","latitude":"9.02497000","longitude":"38.74689000","native":"አዲስ አበባ","translations":{"br":"Addis Abeba","ko":"아디스 아바바","pt-BR":"Adis Abeba","pt":"Adis Abeba","nl":"Addis Abeba","hr":"Adis Abeba","fa":"آدیس آبابا","de":"Addis Abeba","es":"Adís Abeba","fr":"Addis-Abeba","ja":"アディスアベバ","it":"Addis Abeba","zh-CN":"亚的斯亚贝巴","tr":"Addis Ababa","ru":"Аддис-Абеба","uk":"Аддис-Абеба","pl":"Addis Abeba","hi":"अदीस अबाबा","ar":"أديس أبابا","hy":"Addis Ababa"}}]},{"name":"Afar Region","state_code":"AF","latitude":"11.75593880","longitude":"40.95868800","cities":[{"name":"Administrative Zone 2","latitude":"13.68513000","longitude":"40.05615000","native":"አስተዳደራዊ ዞን 2","translations":{"br":"Takad melestradurel 2","ko":"행정구역 2","pt-BR":"Zona Administrativa 2","pt":"Zona Administrativa 2","nl":"Administratieve Zone 2","hr":"Administrativna zona 2","fa":"منطقه اداری ۲","de":"Verwaltungszone 2","es":"Zona administrativa 2","fr":"Zone administrative 2","ja":"行政区2","it":"Zona amministrativa 2","zh-CN":"行政区2","tr":"İdari Bölge 2","ru":"Административная зона 2","uk":"Адміністративна зона 2","pl":"Strefa administracyjna 2","hi":"प्रशासनिक क्षेत्र 2","ar":"المنطقة الإدارية 2","hy":"Administrative Zone 2"}},{"name":"Administrative Zone 3","latitude":"10.00902000","longitude":"40.47394000","native":"አስተዳደራዊ ዞን 3","translations":{"br":"Takad melestradurel 3","ko":"행정구역 3","pt-BR":"Zona Administrativa 3","pt":"Zona Administrativa 3","nl":"Administratieve Zone 3","hr":"Administrativna zona 3","fa":"منطقه اداری ۳","de":"Verwaltungszone 3","es":"Zona administrativa 3","fr":"Zone administrative 3","ja":"行政区3","it":"Zona amministrativa 3","zh-CN":"行政区3","tr":"İdari Bölge 3","ru":"Административная зона 3","uk":"Адміністративна зона 3","pl":"Strefa administracyjna 3","hi":"प्रशासनिक क्षेत्र 3","ar":"المنطقة الإدارية 3","hy":"Administrative Zone 3"}},{"name":"Asaita","latitude":"11.56838000","longitude":"41.43869000","native":"አሳታ","translations":{"br":"Asaita","ko":"아사이타","pt-BR":"Asaita","pt":"Asaita","nl":"Asaita","hr":"Asaita","fa":"آسایتا","de":"Asaita","es":"Asaita","fr":"Asaita","ja":"アサイタ","it":"Asaita","zh-CN":"阿赛塔","tr":"Asaita","ru":"Асаита","uk":"Асаїта","pl":"Asaita","hi":"असाइता","ar":"أسايتا","hy":"Asaita"}},{"name":"Āwash","latitude":"8.98333000","longitude":"40.16667000","native":"ማኅተም","translations":{"br":"Āwash","ko":"아와쉬","pt-BR":"Inundado","pt":"Inundado","nl":"Wassen","hr":"Awash","fa":"آوش","de":"Āwash","es":"Inundado","fr":"Inondé","ja":"アーウォッシュ","it":"Āwash","zh-CN":"阿瓦什","tr":"Yıkanmak","ru":"Аваш","uk":"Аваш","pl":"Zalany","hi":"लहरों से बहाया हुआ","ar":"غسل","hy":"Āwash"}},{"name":"Dubti","latitude":"11.73292000","longitude":"41.08200000","native":"ምንም ይሁን ምን","translations":{"br":"Dubti","ko":"두브티","pt-BR":"Dubti","pt":"Dubti","nl":"Dubti","hr":"Dubti","fa":"دوبتی","de":"Dubti","es":"Dubti","fr":"Dubti","ja":"ダブティ","it":"Dubbi","zh-CN":"杜布蒂","tr":"Dubti","ru":"Дубти","uk":"Дубті","pl":"Dubti","hi":"डूबती","ar":"دبتي","hy":"Dubti"}},{"name":"Gewanē","latitude":"10.16658000","longitude":"40.64689000","native":"ግሬዋን","translations":{"br":"Gewanē","ko":"게와네","pt-BR":"Gewanē","pt":"Gewanē","nl":"Gewanē","hr":"Gewane","fa":"گوانه","de":"Gewanē","es":"Gewanē","fr":"Gewanē","ja":"ゲワネ","it":"Gewanē","zh-CN":"格瓦尼","tr":"Gewanē","ru":"Геване","uk":"Геване","pl":"Gewanē","hi":"गेवाने","ar":"جيواني","hy":"Gewanē"}},{"name":"Semera","latitude":"11.79342000","longitude":"41.00578000","native":"ስኩዌር","translations":{"br":"Semera","ko":"세메라","pt-BR":"Semera","pt":"Semera","nl":"Semera","hr":"Semera","fa":"سمرا","de":"Semera","es":"Semera","fr":"Semera","ja":"セメラ","it":"Semera","zh-CN":"塞梅拉","tr":"Semera","ru":"Семера","uk":"Семера","pl":"Semera","hi":"सेमेरा","ar":"سيميرا","hy":"Semera"}}]},{"name":"Amhara Region","state_code":"AM","latitude":"11.34942470","longitude":"37.97845850","cities":[{"name":"Abomsa","latitude":"9.98333000","longitude":"39.98333000","native":"አቤቱታ","translations":{"br":"Abomsa","ko":"아봄사","pt-BR":"Abomsa","pt":"Abomsa","nl":"Abomsa","hr":"Abomsa","fa":"ابومسا","de":"Abomsa","es":"Abomsa","fr":"Abomsa","ja":"アボンサ","it":"Abomsa","zh-CN":"阿博姆萨","tr":"Abomsa","ru":"Абомса","uk":"Абомса","pl":"Abomsa","hi":"अबोमसा","ar":"أبومسا","hy":"Abomsa"}},{"name":"Addiet Canna","latitude":"11.26667000","longitude":"37.48333000","native":"ካና","translations":{"br":"Addiet Canna","ko":"애디엣 칸나","pt-BR":"Addiet Canna","pt":"Addiet Canna","nl":"Addiet Canna","hr":"Addiet Canna","fa":"آدیت کانا","de":"Addiet Canna","es":"Addiet Canna","fr":"Additif Canna","ja":"アディエット・カンナ","it":"Addiet Canna","zh-CN":"上瘾的美人蕉","tr":"Addiet Canna","ru":"Аддиет Канна","uk":"Аддієт Канна","pl":"Addiet Canna","hi":"अडिएट कैना","ar":"أدييت كانا","hy":"Addiet Canna"}},{"name":"Ādīs Zemen","latitude":"12.11667000","longitude":"37.78333000","native":"አድስ ዘመን","translations":{"br":"Ādīs Zemen","ko":"아디스 제멘","pt-BR":"Ādīs Zemen","pt":"Ādīs Zemen","nl":"Ādīs Zemen","hr":"Adis Zemen","fa":"آدیس زمن","de":"Ādīs Zemen","es":"Ādīs Zemen","fr":"Ādīs Zemen","ja":"アディス・ゼメン","it":"Ādīs Zemen","zh-CN":"阿迪斯·泽门","tr":"Ādīs Zemen","ru":"Адис Земен","uk":"Адіс Земен","pl":"Ādīs Zemen","hi":"आदिस ज़ेमेन","ar":"آديس زمن","hy":"Ādīs Zemen"}},{"name":"Bahir Dar","latitude":"11.59364000","longitude":"37.39077000","native":"ባህር ዳር","translations":{"br":"Bahir Dar","ko":"바히르 다르","pt-BR":"Bahir Dar","pt":"Bahir Dar","nl":"Bahir Dar","hr":"Bahir Dar","fa":"بهیر دار","de":"Bahir Dar","es":"Bahir Dar","fr":"Bahir Dar","ja":"バハルダール","it":"Bahir Dar","zh-CN":"巴赫达尔","tr":"Bahir Dar","ru":"Бахир Дар","uk":"Бахр-Дар","pl":"Bahir Dar","hi":"बहिर दर","ar":"بحر دار","hy":"Bahir Dar"}},{"name":"Batī","latitude":"11.19152000","longitude":"40.01675000","native":"ድብደባ","translations":{"br":"Batī","ko":"바티","pt-BR":"Batī","pt":"Batī","nl":"Batī","hr":"Batī","fa":"باتی","de":"Batī","es":"Bati","fr":"Batī","ja":"バティ","it":"Batī","zh-CN":"巴蒂","tr":"Batī","ru":"Бати","uk":"Баті","pl":"Batī","hi":"बटी","ar":"باتي","hy":"Batī"}},{"name":"Bichena","latitude":"10.45000000","longitude":"38.20000000","native":"ብስክሌት","translations":{"br":"Bichena","ko":"비체나","pt-BR":"Bichena","pt":"Bichena","nl":"Bichena","hr":"Bichena","fa":"بیچنا","de":"Bichena","es":"Bichena","fr":"Bichena","ja":"ビチェナ","it":"Bichena","zh-CN":"比切纳","tr":"Biçena","ru":"Бичена","uk":"Бічена","pl":"Bichena","hi":"बिचेना","ar":"بيتشينا","hy":"Bichena"}},{"name":"Burē","latitude":"10.70000000","longitude":"37.06667000","native":"ሸራ","translations":{"br":"Burē","ko":"부레","pt-BR":"Burē","pt":"Burē","nl":"Burē","hr":"Bure","fa":"بوره","de":"Burē","es":"Burē","fr":"Burē","ja":"ブレ","it":"Burē","zh-CN":"布雷","tr":"Burē","ru":"Буре","uk":"Буре","pl":"Burē","hi":"bure","ar":"بور","hy":"Burē"}},{"name":"Dabat","latitude":"12.98417000","longitude":"37.76500000","native":"ሰጠው","translations":{"br":"Dabat","ko":"다바트","pt-BR":"Dabat","pt":"Dabat","nl":"Dabat","hr":"Dabat","fa":"دبات","de":"Dabat","es":"Dabat","fr":"Dabat","ja":"ダバト","it":"Dabat","zh-CN":"达巴特","tr":"Dabat","ru":"Дабат","uk":"Дабат","pl":"Dabat","hi":"दबत","ar":"دابات","hy":"Dabat"}},{"name":"Debark’","latitude":"13.15611000","longitude":"37.89806000","native":"ፍርስራሽ","translations":{"br":"Dibark'","ko":"내리다'","pt-BR":"Desembarcar'","pt":"Desembarcar'","nl":"Ontschepen","hr":"Dekoracija","fa":"دیبارک","de":"Entrinden’","es":"Desembarcar'","fr":"Écorcer","ja":"デバーク","it":"Sbarcare","zh-CN":"去巴克’","tr":"Soyun","ru":"Дебарк","uk":"Дебарка","pl":"„Debark”","hi":"डीबार्क’","ar":"انزل"}},{"name":"Debre Birhan","latitude":"9.67954000","longitude":"39.53262000","native":"ደብረብርሃን","translations":{"br":"Debre Birhan","ko":"데브레 비르한","pt-BR":"Debre Birhan","pt":"Debre Birhan","nl":"Debre Birhan","hr":"Debre Birhan","fa":"دبره بیرهان","de":"Debre Birhan","es":"Debre Birhan","fr":"Debre Birhan","ja":"デブレ・ビルハン","it":"Debre Birhan","zh-CN":"德布雷·比尔汉","tr":"Debre Birhan","ru":"Дебре Бирхан","uk":"Дебре Бірхан","pl":"Debre Birhan","hi":"देब्रे बिरहान","ar":"ديبري بيرهان","hy":"Debre Birhan"}},{"name":"Debre Mark’os","latitude":"10.35000000","longitude":"37.73333000","native":"ደብረ ማርቆስ","translations":{"br":"Debre Mark’os","ko":"데브레 마르코스","pt-BR":"Debre Mark'os","pt":"Debre Mark'os","nl":"Debre Mark'os","hr":"Debre Mark'os","fa":"دبره مارکوس","de":"Debre Mark’os","es":"Debre Mark'os","fr":"Debre Mark'os","ja":"デブレ・マルコス","it":"Debre Mark'os","zh-CN":"德布雷·马科斯","tr":"Debre Mark'os","ru":"Дебре Марк’ос","uk":"Дебре Маркос","pl":"Debre Mark’os","hi":"डेब्रे मार्कोस","ar":"ديبري ماركوس"}},{"name":"Debre Sīna","latitude":"9.84752000","longitude":"39.76027000","native":"ደብረ ሳሊ","translations":{"br":"Debre Sīna","ko":"데브레 시나","pt-BR":"Debre Sīna","pt":"Debre Sīna","nl":"Debre Sīna","hr":"Debre Sina","fa":"دبره سینا","de":"Debre Sīna","es":"Debre Sina","fr":"Debre Sīna","ja":"デブレ・シーナ","it":"Debre Sīna","zh-CN":"德布雷西纳","tr":"Debre Sina","ru":"Дебре Сина","uk":"Дебре Сіна","pl":"Debre Sīna","hi":"देब्रे सिना","ar":"ديبري سينا","hy":"Debre Sīna"}},{"name":"Debre Tabor","latitude":"11.85000000","longitude":"38.01667000","native":"ደብረ ታቦር","translations":{"br":"Debre Tabor","ko":"데브레 타보르","pt-BR":"Debre Tabor","pt":"Debre Tabor","nl":"Debre Tabor","hr":"Debre Tabor","fa":"دبره تابور","de":"Debre Tabor","es":"Debre Tabor","fr":"Debre Tabor","ja":"デブレ・タボル","it":"Debre Tabor","zh-CN":"德布雷塔博尔","tr":"Debre Tabor","ru":"Дебре Табор","uk":"Дебре Табор","pl":"Debre Tabor","hi":"डेब्रे ताबोर","ar":"ديبري تابور","hy":"Debre Tabor"}},{"name":"Debre Werk’","latitude":"10.66667000","longitude":"38.16667000","native":"ደብረ ሥራዎች '","translations":{"br":"Debre Werk'","ko":"데브레 베르크","pt-BR":"Debre Werk’","pt":"Debre Werk’","nl":"Debre Werk’","hr":"Debre Werk","fa":"دبره ورک","de":"Debre Werk’","es":"Debre Werk’","fr":"Debre Werk’","ja":"デブレ・ヴェルク","it":"Debre Werk'","zh-CN":"德布雷工厂","tr":"Debre Werk’","ru":"Дебре Верк","uk":"Дебре Верк","pl":"Debre Werk’","hi":"डेब्रे वर्क’","ar":"ديبري ويرك"}},{"name":"Dejen","latitude":"10.16667000","longitude":"38.13333000","native":"ሊጥ","translations":{"br":"Dejen","ko":"데젠","pt-BR":"Dejen","pt":"Dejen","nl":"Dejen","hr":"Dejen","fa":"دژن","de":"Dejen","es":"Dejen","fr":"Dejen","ja":"デジェン","it":"Dejen","zh-CN":"德詹","tr":"Dejen","ru":"Дежен","uk":"Дежен","pl":"Dejen","hi":"डेजेन","ar":"ديجين","hy":"Dejen"}},{"name":"Desē","latitude":"11.13333000","longitude":"39.63333000","native":"ዴን","translations":{"br":"Desē","ko":"데세","pt-BR":"Desē","pt":"Desē","nl":"Desē","hr":"Dese","fa":"دِس","de":"Desē","es":"Desē","fr":"Desē","ja":"デセ","it":"Desē","zh-CN":"德塞","tr":"Desē","ru":"Десе","uk":"Десе","pl":"Desē","hi":"देसे","ar":"ديسي","hy":"Desē"}},{"name":"Finote Selam","latitude":"10.70000000","longitude":"37.26667000","native":"ፅንስ ኤሊ","translations":{"br":"Finote Selam","ko":"피노테 셀람","pt-BR":"Finote Selam","pt":"Finote Selam","nl":"Finote Selam","hr":"Finote Selam","fa":"فینوته سلام","de":"Finote Selam","es":"Finote Selam","fr":"Finote Selam","ja":"フィノテ・セラム","it":"Finote Selam","zh-CN":"菲诺特·塞拉姆","tr":"Finote Selam","ru":"Финоте Селам","uk":"Фіноте Селам","pl":"Finote Selam","hi":"फिनोट सेलम","ar":"فينوتي سلام","hy":"Finote Selam"}},{"name":"Gondar","latitude":"12.60000000","longitude":"37.46667000","native":"መውደቅ","translations":{"br":"Gondar","ko":"곤다르","pt-BR":"Gondar","pt":"Gondar","nl":"Gondar","hr":"Gondar","fa":"گوندار","de":"Gondar","es":"Gondar","fr":"Gondar","ja":"ゴンダール","it":"Gondar","zh-CN":"贡德尔","tr":"Gondar","ru":"Гондэр","uk":"Гондар","pl":"Gondar","hi":"गोंदर","ar":"جوندار","hy":"Gondar"}},{"name":"Kemisē","latitude":"10.71668000","longitude":"39.86997000","native":"በኬሚ ውስጥ","translations":{"br":"Kemisē","ko":"케미세","pt-BR":"Kemisē","pt":"Kemisē","nl":"Kemisē","hr":"Kemisē","fa":"کمیسه","de":"Kemisē","es":"Kemisē","fr":"Kemisē","ja":"ケミセ","it":"Kemisē","zh-CN":"凯米斯","tr":"Kemisē","ru":"Кемисе","uk":"Кемісе","pl":"Kemisē","hi":"केमिसे","ar":"كيميشي","hy":"Kemisē"}},{"name":"Kombolcha","latitude":"11.08155000","longitude":"39.74339000","native":"ኮምቦልቻ","translations":{"br":"Kombolcha","ko":"콤볼차","pt-BR":"Kombolcha","pt":"Kombolcha","nl":"Kombolcha","hr":"Kombolča","fa":"کومبولچا","de":"Kombolcha","es":"Kombolcha","fr":"Kombolcha","ja":"コンボルチャ","it":"Kombolcha","zh-CN":"孔博尔查","tr":"Kombolça","ru":"Комбольча","uk":"Комболча","pl":"Kombolcha","hi":"कोम्बोल्चा","ar":"كومبولتشا","hy":"Kombolcha"}},{"name":"Lalībela","latitude":"12.03219000","longitude":"39.04756000","native":"ላሊየላ","translations":{"br":"Lalībela","ko":"랄리벨라","pt-BR":"Lalibela","pt":"Lalibela","nl":"Lalībela","hr":"Lalibela","fa":"لالیبلا","de":"Lalibela","es":"Lalibela","fr":"Lalibela","ja":"ラリベラ","it":"Lalībela","zh-CN":"拉利贝拉","tr":"Lalībela","ru":"Лалибела","uk":"Лалібела","pl":"Lalibela","hi":"Lalibela","ar":"لاليبيلا","hy":"Lalībela"}},{"name":"North Shewa Zone","latitude":"9.76900000","longitude":"39.66800000","native":"ሰሜን ሸዋ ዞን","translations":{"br":"Rannvro Norzh Shewa","ko":"북 셰와 지역","pt-BR":"Zona Norte de Shewa","pt":"Zona Norte de Shewa","nl":"Noord-Shewa Zone","hr":"Sjeverna zona Shewa","fa":"زون شیوا شمالی","de":"Nord-Shewa-Zone","es":"Zona Shewa del Norte","fr":"Zone de Shewa Nord","ja":"北シェワゾーン","it":"Zona di Shewa settentrionale","zh-CN":"北舍瓦区","tr":"Kuzey Şeva Bölgesi","ru":"Зона Северная Шева","uk":"Зона Північна Шева","pl":"Strefa Północnej Szewy","hi":"उत्तर शेवा क्षेत्र","ar":"منطقة شمال شيوا","hy":"North Shewa Zone"}},{"name":"North Wollo Zone","latitude":"11.92000000","longitude":"39.10000000","native":"ሰሜን ወሎ ዞን","translations":{"br":"Rannvro Norzh Wollo","ko":"노스 울로 존","pt-BR":"Zona Norte de Wollo","pt":"Zona Norte de Wollo","nl":"Noord-Wollo Zone","hr":"Sjeverna zona Wollo","fa":"منطقه وولو شمالی","de":"Nord-Wollo-Zone","es":"Zona North Wollo","fr":"Zone du Wollo Nord","ja":"北ウォロ地域","it":"Zona di North Wollo","zh-CN":"北沃洛区","tr":"Kuzey Wollo Bölgesi","ru":"Зона Северного Уолло","uk":"Зона Північного Волло","pl":"Strefa Wollo Północne","hi":"उत्तरी वोलो क्षेत्र","ar":"منطقة شمال وولو","hy":"North Wollo Zone"}},{"name":"Robīt","latitude":"12.01667000","longitude":"39.63333000","native":"ሮብ","translations":{"br":"Robīt","ko":"로비트","pt-BR":"Robīt","pt":"Robīt","nl":"Robīt","hr":"Robit","fa":"روبیت","de":"Robīt","es":"Robit","fr":"Robit","ja":"ロビット","it":"Robīt","zh-CN":"罗伯特","tr":"Robīt","ru":"Робит","uk":"Робіт","pl":"Robit","hi":"रोबित","ar":"روبيت","hy":"Robīt"}},{"name":"South Gondar Zone","latitude":"11.83850000","longitude":"38.09954000","native":"ደቡብ ጎንደር ዞን","translations":{"br":"Rannvro Su Gondar","ko":"사우스 곤다르 지역","pt-BR":"Zona Sul de Gondar","pt":"Zona Sul de Gondar","nl":"Zuid-Gondar-zone","hr":"Južna Gondarska zona","fa":"منطقه گوندار جنوبی","de":"Süd-Gondar-Zone","es":"Zona Sur de Gondar","fr":"Zone du sud de Gondar","ja":"南ゴンダール地域","it":"Zona di Gondar Sud","zh-CN":"南贡德尔区","tr":"Güney Gondar Bölgesi","ru":"Зона Южный Гондэр","uk":"Південна Гондарська зона","pl":"Strefa Południowego Gondaru","hi":"दक्षिण गोंदर क्षेत्र","ar":"منطقة جنوب جوندار","hy":"South Gondar Zone"}},{"name":"South Wollo Zone","latitude":"11.00000000","longitude":"39.25000000","native":"የደቡብ ወሎ ዞን","translations":{"br":"Rannvro Su Wollo","ko":"사우스 울로 존","pt-BR":"Zona Sul de Wollo","pt":"Zona Sul de Wollo","nl":"Zuid-Wollo Zone","hr":"Južna zona Wollo","fa":"منطقه وولو جنوبی","de":"Südliche Wollo-Zone","es":"Zona de South Wollo","fr":"Zone du Wollo Sud","ja":"南ウォロ地域","it":"Zona di South Wollo","zh-CN":"南沃洛区","tr":"Güney Wollo Bölgesi","ru":"Зона Южный Уолло","uk":"Зона Південного Волло","pl":"Strefa Wollo Południowego","hi":"दक्षिण वोलो ज़ोन","ar":"منطقة جنوب وولو","hy":"South Wollo Zone"}},{"name":"Wag Hemra Zone","latitude":"12.76500000","longitude":"38.84300000","native":"ዋግ ሄምራ ዞን","translations":{"br":"Wag Hemra Zone","ko":"와그 헴라 존","pt-BR":"Zona Wag Hemra","pt":"Zona Wag Hemra","nl":"Wag Hemra Zone","hr":"Zona Wag Hemra","fa":"منطقه واگ همرا","de":"Wag Hemra Zone","es":"Zona Wag Hemra","fr":"Zone de Wag Hemra","ja":"ワグ・ヘムラ・ゾーン","it":"Zona di Wag Hemra","zh-CN":"瓦格赫姆拉区","tr":"Wag Hemra Bölgesi","ru":"Зона Ваг Хемра","uk":"Зона Ваг-Хемра","pl":"Strefa Wag Hemra","hi":"वाग हेमरा ज़ोन","ar":"منطقة واغ هيمرا","hy":"Wag Hemra Zone"}},{"name":"Were Īlu","latitude":"10.58964000","longitude":"39.43767000","native":"ኦ ነበር","translations":{"br":"War Īlu","ko":"에르 일루","pt-BR":"Eram Īlu","pt":"Eram Īlu","nl":"Were Īlu","hr":"Jesu li bili Ilu","fa":"وِر ایلو","de":"Were Īlu","es":"Eran Īlu","fr":"Étaient Īlu","ja":"ウェレ・イル","it":"Were Īlu","zh-CN":"我们是","tr":"Were Īlu","ru":"Were Īlu","uk":"Були Ілу","pl":"Czy Īlu","hi":"वेयर इलू","ar":"أين إيلو","hy":"Were Īlu"}},{"name":"Werota","latitude":"11.91667000","longitude":"37.70000000","native":"ክሪስታል","translations":{"br":"Werota","ko":"웨로타","pt-BR":"Werota","pt":"Werota","nl":"Werota","hr":"Werota","fa":"وروتا","de":"Werota","es":"Werota","fr":"Werota","ja":"ウェロタ","it":"Werota","zh-CN":"韦罗塔","tr":"Werota","ru":"Верота","uk":"Верота","pl":"Werota","hi":"वेरोटा","ar":"ويروتا","hy":"Werota"}}]},{"name":"Benishangul-Gumuz Region","state_code":"BE","latitude":"10.78028890","longitude":"35.56578620","cities":[{"name":"Asosa","latitude":"10.00000000","longitude":"34.50000000","native":"እሁድ","translations":{"br":"Asosa","ko":"아소사","pt-BR":"Asosa","pt":"Asosa","nl":"Asosa","hr":"Asosa","fa":"آسوسا","de":"Asosa","es":"Asosa","fr":"Asosa","ja":"アソサ","it":"Asosa","zh-CN":"阿索萨","tr":"Asosa","ru":"Асоса","uk":"Асоса","pl":"Asosa","hi":"असोसा","ar":"أسوسا","hy":"Asosa"}},{"name":"Metekel","latitude":"10.42673000","longitude":"35.71975000","native":"ክምር","translations":{"br":"Metekel","ko":"메테켈","pt-BR":"Metekel","pt":"Metekel","nl":"Metekel","hr":"Metekel","fa":"متکل","de":"Metekel","es":"Metekel","fr":"Metekel","ja":"メテケル","it":"Metekel","zh-CN":"梅特克尔","tr":"Metekel","ru":"Метекел","uk":"Метекель","pl":"Metekel","hi":"मेटेकेल","ar":"ميتيكل","hy":"Metekel"}}]},{"name":"Dire Dawa","state_code":"DD","latitude":"9.60087470","longitude":"41.85014200","cities":[{"name":"Dire Dawa","latitude":"9.59306000","longitude":"41.86611000","native":"አዝናኝ","translations":{"br":"Dire Dawa","ko":"디레 다와","pt-BR":"Dire Dawa","pt":"Dire Dawa","nl":"Dire Dawa","hr":"Dire Dawa","fa":"دیر داوا","de":"Dire Dawa","es":"Dire Dawa","fr":"Dire Dawa","ja":"ディレ・ダワ","it":"Dire Dawa","zh-CN":"德雷达瓦","tr":"Dire Dawa","ru":"Дире Дава","uk":"Діре-Дава","pl":"Dire Dawa","hi":"दिरे दावा","ar":"دير داوا","hy":"Dire Dawa"}}]},{"name":"Gambela Region","state_code":"GA","latitude":"7.92196870","longitude":"34.15319470","cities":[{"name":"Administrative Zone 1","latitude":"8.14699000","longitude":"33.97335000","native":"አስተዳደራዊ ዞን 1","translations":{"br":"Takad melestradurel 1","ko":"행정구역 1","pt-BR":"Zona Administrativa 1","pt":"Zona Administrativa 1","nl":"Administratieve Zone 1","hr":"Administrativna zona 1","fa":"منطقه اداری ۱","de":"Verwaltungszone 1","es":"Zona administrativa 1","fr":"Zone administrative 1","ja":"行政区1","it":"Zona amministrativa 1","zh-CN":"行政区1","tr":"İdari Bölge 1","ru":"Административная зона 1","uk":"Адміністративна зона 1","pl":"Strefa administracyjna 1","hi":"प्रशासनिक क्षेत्र 1","ar":"المنطقة الإدارية 1","hy":"Administrative Zone 1"}},{"name":"Gambēla","latitude":"8.25000000","longitude":"34.58333000","native":"ጋምቤል","translations":{"br":"Gambēla","ko":"감벨라","pt-BR":"Gambela","pt":"Gambela","nl":"Gambēla","hr":"Gambēla","fa":"گامبله","de":"Gambēla","es":"Gambela","fr":"Gambela","ja":"ガンベラ","it":"Gambela","zh-CN":"甘布拉","tr":"Gambēla","ru":"Гамбела","uk":"Гамбела","pl":"Gambēla","hi":"गम्बेला","ar":"غامبيلا","hy":"Gambēla"}}]},{"name":"Harari Region","state_code":"HA","latitude":"9.31486600","longitude":"42.19677160","cities":[{"name":"Harar","latitude":"9.31387000","longitude":"42.11815000","native":"ሐረር","translations":{"br":"Harar","ko":"하라르","pt-BR":"Harar","pt":"Harar","nl":"Harar","hr":"Harar","fa":"هرار","de":"Harar","es":"Harar","fr":"Harar","ja":"ハラール","it":"Harar","zh-CN":"哈拉尔","tr":"Harar","ru":"Харар","uk":"Харар","pl":"Harar","hi":"हरार","ar":"هرر","hy":"Harar"}}]},{"name":"Oromia Region","state_code":"OR","latitude":"7.54603770","longitude":"40.63468510","cities":[{"name":"Ādīs ‘Alem","latitude":"9.03333000","longitude":"38.40000000","native":"በማስታወቂያዎች አሌም ውስጥ","translations":{"br":"Ādīs ‘Alem","ko":"아디스 알렘","pt-BR":"Ādīs ‘Alem","pt":"Ādīs ‘Alem","nl":"Ādīs ‘Alem","hr":"Adisov alem","fa":"آدیس عالم","de":"Ādīs ‘Alem","es":"Ādīs ‘Alem","fr":"Ādīs ‘Alem","ja":"アーディス・アレム","it":"Ādīs ‘Alem","zh-CN":"阿迪斯·阿莱姆","tr":"Ādīs ‘Alem","ru":"Адис Алем","uk":"Адіс Алем","pl":"Ādīs ‘Alem","hi":"आदिस ‘आलेम","ar":"آديس عالم"}},{"name":"Āgaro","latitude":"7.85000000","longitude":"36.65000000","native":"ኦሬካሮ","translations":{"br":"Āgaro","ko":"아가로","pt-BR":"Agaro","pt":"Agaro","nl":"Agaro","hr":"Ágaro","fa":"آگارو","de":"Āgaro","es":"Agaro","fr":"Agaro","ja":"アガロ","it":"Agaro","zh-CN":"阿加罗","tr":"Agaro","ru":"Агаро","uk":"Агаро","pl":"Āgaro","hi":"आगारो","ar":"أغارو","hy":"Āgaro"}},{"name":"Arsi Zone","latitude":"7.50000000","longitude":"39.50000000","native":"Arsi ዞን","translations":{"br":"Rannvro Arsi","ko":"아르시 존","pt-BR":"Zona Arsi","pt":"Zona Arsi","nl":"Arsi-zone","hr":"Arsi zona","fa":"منطقه آرسی","de":"Arsi-Zone","es":"Zona Arsi","fr":"Zone Arsi","ja":"アルシゾーン","it":"Zona Arsi","zh-CN":"阿尔西区","tr":"Arsi Bölgesi","ru":"Зона Арси","uk":"Зона Арсі","pl":"Strefa Arsi","hi":"अर्सी ज़ोन","ar":"منطقة أرسي","hy":"Arsi Zone"}},{"name":"Āsasa","latitude":"7.10000000","longitude":"39.20000000","native":"ሀሳስ","translations":{"br":"Āsasa","ko":"아사사","pt-BR":"Asasa","pt":"Asasa","nl":"Āsasa","hr":"Asasa","fa":"آساسا","de":"Āsasa","es":"Asasa","fr":"Asasa","ja":"アーササ","it":"Āsasa","zh-CN":"阿萨萨","tr":"Āsasa","ru":"Асаса","uk":"Асаса","pl":"Asasa","hi":"आससा","ar":"آساسا","hy":"Āsasa"}},{"name":"Āsbe Teferī","latitude":"9.08569000","longitude":"40.86708000","native":"የአሴቤር እስቴር","translations":{"br":"Āsbe Teferī","ko":"아스베 테페리","pt-BR":"Asbe Teferī","pt":"Asbe Teferī","nl":"Āsbe Teferī","hr":"Abbe Teferi","fa":"اسب تفری","de":"Āsbe Teferī","es":"Asbe Teferi","fr":"Asbe Teferī","ja":"アースベ・テフェリ","it":"Āsbe Teferī","zh-CN":"阿斯贝·特费里","tr":"Āsbe Teferī","ru":"Āsbe Teferī","uk":"Асбе Тефері","pl":"Āsbe Teferī","hi":"Āsbe Teferī","ar":"Āsbe Teferī","hy":"Āsbe Teferī"}},{"name":"Bedelē","latitude":"8.45600000","longitude":"36.35302000","native":"ደመወዝ","translations":{"br":"Bedelē","ko":"베델레","pt-BR":"Bedelē","pt":"Bedelē","nl":"Bedelē","hr":"Bedele","fa":"بدله","de":"Bedelē","es":"Bedelē","fr":"Bedelē","ja":"ベデレ","it":"Bedelē","zh-CN":"贝德勒","tr":"Bedelē","ru":"Беделе","uk":"Беделе","pl":"Bedelē","hi":"बेदेले","ar":"بيدلي","hy":"Bedelē"}},{"name":"Bedēsa","latitude":"8.90000000","longitude":"40.78333000","native":"ተዘርግቷል","translations":{"br":"Bedēsa","ko":"베데사","pt-BR":"Bedēsa","pt":"Bedēsa","nl":"Bedēsa","hr":"Bedesa","fa":"بدسا","de":"Bedēsa","es":"Bedesa","fr":"Bedesa","ja":"ベデサ","it":"Bedēsa","zh-CN":"贝德萨","tr":"Bedēsa","ru":"Бедеса","uk":"Бедеса","pl":"Bedēsa","hi":"बेडेसा","ar":"بيديسا","hy":"Bedēsa"}},{"name":"Bishoftu","latitude":"8.75225000","longitude":"38.97846000","native":"ቢሾፍቱ","translations":{"br":"Bishoftu","ko":"비쇼프투","pt-BR":"Bishoftu","pt":"Bishoftu","nl":"Bishoftu","hr":"Bishoftu","fa":"بیشوفتو","de":"Bischoftu","es":"Bishoftu","fr":"Bishoftu","ja":"ビショフトゥ","it":"Bishoftu","zh-CN":"比斯霍夫图","tr":"Bishoftu","ru":"Бишофту","uk":"Бішофту","pl":"Biszoftu","hi":"बिशोफ़्टू","ar":"بيشوفتو","hy":"Bishoftu"}},{"name":"Deder","latitude":"9.31168000","longitude":"41.44301000","native":"ዴሬድ","translations":{"br":"Deder","ko":"데데르","pt-BR":"Deder","pt":"Deder","nl":"Deder","hr":"Deder","fa":"ددر","de":"Deder","es":"Deder","fr":"Deder","ja":"デダー","it":"Deder","zh-CN":"德德","tr":"Deder","ru":"Дедер","uk":"Дедер","pl":"Deder","hi":"डेडर","ar":"ديدر","hy":"Deder"}},{"name":"Dembī Dolo","latitude":"8.53333000","longitude":"34.80000000","native":"ደምብ ማጭበርበር","translations":{"br":"Dembī Dolo","ko":"뎀비 돌로","pt-BR":"Dembi Dolo","pt":"Dembi Dolo","nl":"Dembī Dolo","hr":"Dembī Dolo","fa":"دمبی دولو","de":"Dembī Dolo","es":"Dembī Dolo","fr":"Dembī Dolo","ja":"デンビ・ドロ","it":"Dembī Dolo","zh-CN":"登比·多洛","tr":"Dembī Dolo","ru":"Демби Доло","uk":"Дембі Доло","pl":"Dembī Dolo","hi":"डेम्बी डोलो","ar":"ديمبي دولو","hy":"Dembī Dolo"}},{"name":"Dodola","latitude":"6.98333000","longitude":"39.18333000","native":"ዶዶላ","translations":{"br":"Dodola","ko":"도돌라","pt-BR":"Dodola","pt":"Dodola","nl":"Dodola","hr":"Dodola","fa":"دودولا","de":"Dodola","es":"Dodola","fr":"Dodola","ja":"ドドラ","it":"Dodola","zh-CN":"多多拉","tr":"Dodola","ru":"Додола","uk":"Додола","pl":"Dodola","hi":"डोडोला","ar":"دودولا","hy":"Dodola"}},{"name":"East Harerghe Zone","latitude":"8.70114000","longitude":"42.00241000","native":"ምስራቅ ሀረርጋ ዞን","translations":{"br":"Rannvro Harerghe ar Reter","ko":"이스트 하레르게 지역","pt-BR":"Zona East Harerghe","pt":"Zona East Harerghe","nl":"Oost-Harerghe Zone","hr":"Istočna zona Harerghe","fa":"منطقه شرقی هاررگ","de":"Ost-Harerghe-Zone","es":"Zona de East Harerghe","fr":"Zone de Harerghe Est","ja":"東ハレルゲゾーン","it":"Zona di East Harerghe","zh-CN":"东哈雷尔盖区","tr":"Doğu Harerghe Bölgesi","ru":"Зона Восточного Харерге","uk":"Східна зона Харерге","pl":"Strefa Wschodniego Harerghe","hi":"पूर्वी हरेरघे क्षेत्र","ar":"منطقة شرق هاريرغي","hy":"East Harerghe Zone"}},{"name":"East Shewa Zone","latitude":"8.21353000","longitude":"38.84809000","native":"ምስራቅ ሸዋ ዞን","translations":{"br":"Rannvro Shewa ar Reter","ko":"이스트 셰와 존","pt-BR":"Zona Leste de Shewa","pt":"Zona Leste de Shewa","nl":"Oost-Shewa Zone","hr":"Istočna zona Shewa","fa":"منطقه شیوا شرقی","de":"Ost-Shewa-Zone","es":"Zona de Shewa Oriental","fr":"Zone de Shewa Est","ja":"東シェワゾーン","it":"Zona di Shewa orientale","zh-CN":"东谢瓦区","tr":"Doğu Şeva Bölgesi","ru":"Зона Восточная Шева","uk":"Зона Східна Шева","pl":"Strefa Wschodnia Szewa","hi":"पूर्वी शेवा क्षेत्र","ar":"منطقة شرق شيوا","hy":"East Shewa Zone"}},{"name":"East Wellega Zone","latitude":"9.51928000","longitude":"36.75762000","native":"ምስራቅ ዌልጋ ዞን","translations":{"br":"Rannvro Wellega ar Reter","ko":"이스트 웰레가 존","pt-BR":"Zona Leste de Wellega","pt":"Zona Leste de Wellega","nl":"Oost-Wellega-zone","hr":"Istočna Wellega zona","fa":"منطقه ایست ولگا","de":"East Wellega Zone","es":"Zona de East Wellega","fr":"Zone de Wellega Est","ja":"東ウェレガゾーン","it":"Zona di East Wellega","zh-CN":"东韦勒加区","tr":"Doğu Wellega Bölgesi","ru":"Зона Ист-Веллега","uk":"Зона Східної Веллеги","pl":"Strefa East Wellega","hi":"पूर्वी वेलेगा क्षेत्र","ar":"منطقة شرق ويليجا","hy":"East Wellega Zone"}},{"name":"Fichē","latitude":"9.80000000","longitude":"38.73333000","native":"ፉካ","translations":{"br":"Fichē","ko":"피케","pt-BR":"Fichē","pt":"Fichē","nl":"Fichē","hr":"Fichē","fa":"فیچه","de":"Fichē","es":"Ficha","fr":"Fiche","ja":"フィチェ","it":"Fiche","zh-CN":"菲切","tr":"Fichē","ru":"Фиче","uk":"Фіше","pl":"Fichē","hi":"FICHE","ar":"فيشي","hy":"Fichē"}},{"name":"Gebre Guracha","latitude":"9.80000000","longitude":"38.40000000","native":"ገብረ ግራጋቻ","translations":{"br":"Gebre Guracha","ko":"게브레 구라차","pt-BR":"Gebre Guracha","pt":"Gebre Guracha","nl":"Gebre Guracha","hr":"Gebre Guracha","fa":"گبر گوراچا","de":"Gebre Guracha","es":"Gebre Guracha","fr":"Gebre Guracha","ja":"ゲブレ・グラチャ","it":"Gebre Guracha","zh-CN":"格布雷·古拉查","tr":"Gebre Guracha","ru":"Гебре Гурача","uk":"Гебре Гурача","pl":"Gebre Guracha","hi":"गेब्रे गुराचा","ar":"جيبري جوراتشا","hy":"Gebre Guracha"}},{"name":"Gēdo","latitude":"9.01667000","longitude":"37.45000000","native":"ሊሠራ ይችላል","translations":{"br":"Gēdo","ko":"게도","pt-BR":"Gedo","pt":"Gedo","nl":"Gēdo","hr":"Gēdo","fa":"گدو","de":"Gēdo","es":"Gedo","fr":"Gēdo","ja":"ゲド","it":"Gēdo","zh-CN":"格多","tr":"Gēdo","ru":"Гедо","uk":"Гедо","pl":"Gēdo","hi":"गेडो","ar":"جيدو","hy":"Gēdo"}},{"name":"Gelemso","latitude":"8.81667000","longitude":"40.51667000","native":"ጌሌምሶ","translations":{"br":"Gelemso","ko":"겔렘소","pt-BR":"Gelemso","pt":"Gelemso","nl":"Gelemso","hr":"Gelemso","fa":"گلمسو","de":"Gelemso","es":"Gelemso","fr":"Gelemso","ja":"ゲレムソ","it":"Gelemso","zh-CN":"盖莱姆索","tr":"Gelemso","ru":"Гелемсо","uk":"Гелемсо","pl":"Gelemso","hi":"गेलेम्सो","ar":"جيليمسو","hy":"Gelemso"}},{"name":"Genet","latitude":"9.06667000","longitude":"38.50000000","native":"ጄኔራል","translations":{"br":"Genet","ko":"그 가죽","pt-BR":"Genet","pt":"Genet","nl":"Genet","hr":"Genet","fa":"ژنت","de":"Genet","es":"Gineta","fr":"Genet","ja":"ジェネット","it":"Genet","zh-CN":"热内特","tr":"Genet","ru":"Жене","uk":"Жене","pl":"Genet","hi":"एक प्रकार की रोवेंवाली बिल्ली","ar":"جينيه","hy":"Genet"}},{"name":"Gimbi","latitude":"9.17031000","longitude":"35.83491000","native":"ጠፍቷል","translations":{"br":"Gimbi","ko":"김비","pt-BR":"Gimbi","pt":"Gimbi","nl":"Gimbi","hr":"Gimbi","fa":"گیمبی","de":"Gimbi","es":"Gimbi","fr":"Gimbi","ja":"ギンビ","it":"Gimbi","zh-CN":"金比","tr":"Gimbi","ru":"Гимби","uk":"Гімбі","pl":"Gimbi","hi":"गिम्बी","ar":"جيمبي","hy":"Gimbi"}},{"name":"Ginir","latitude":"7.13952000","longitude":"40.71083000","native":"ጂኒር","translations":{"br":"Ginir","ko":"기니르","pt-BR":"Ginir","pt":"Ginir","nl":"Ginir","hr":"Ginir","fa":"گینیر","de":"Ginir","es":"Ginir","fr":"Ginir","ja":"ギニル","it":"Ginir","zh-CN":"吉尼尔","tr":"Ginir","ru":"Гинир","uk":"Джинір","pl":"Ginir","hi":"गिनिर","ar":"جينير","hy":"Ginir"}},{"name":"Goba","latitude":"7.01667000","longitude":"39.98333000","native":"ሁን","translations":{"br":"Goba","ko":"고바","pt-BR":"Goba","pt":"Goba","nl":"Goba","hr":"Goba","fa":"گوبا","de":"Goba","es":"Goba","fr":"Goba","ja":"ゴバ","it":"Goba","zh-CN":"戈巴","tr":"Goba","ru":"Гоба","uk":"Гоба","pl":"Goba","hi":"गोबा","ar":"غوبا","hy":"Goba"}},{"name":"Gorē","latitude":"8.15000000","longitude":"35.53333000","native":"ጎሬ","translations":{"br":"Gorē","ko":"핏덩어리","pt-BR":"Gorē","pt":"Gorē","nl":"Gorē","hr":"Gore","fa":"گور","de":"Blut","es":"Sangre","fr":"Sang","ja":"ゴレ","it":"Gorē","zh-CN":"血块","tr":"Gorē","ru":"Горе","uk":"Горе","pl":"Klin","hi":"तिकोना कपड़ा","ar":"جوريه","hy":"Gorē"}},{"name":"Guji Zone","latitude":"5.58800000","longitude":"39.06700000","native":"የጉጂ ዞን","translations":{"br":"Rannvro Guji","ko":"구지 존","pt-BR":"Zona Guji","pt":"Zona Guji","nl":"Guji-zone","hr":"Zona Guji","fa":"منطقه گوجی","de":"Guji-Zone","es":"Zona Guji","fr":"Zone de Guji","ja":"グジゾーン","it":"Zona Guji","zh-CN":"古集区","tr":"Guji Bölgesi","ru":"Зона Гуджи","uk":"Зона Гудзі","pl":"Strefa Guji","hi":"गुजी ज़ोन","ar":"منطقة غوجي","hy":"Guji Zone"}},{"name":"Hāgere Hiywet","latitude":"8.98333000","longitude":"37.85000000","native":"የፈረስ ወሬ","translations":{"br":"Hāgere Hiywet","ko":"하게레 히웨트","pt-BR":"Hāgere Hiywet","pt":"Hāgere Hiywet","nl":"Hāgere Hiywet","hr":"Hāgere Hiywet","fa":"هاگر هیوت","de":"Hāgere Hiywet","es":"Hāgere Hiywet","fr":"Hāgere Hiywet","ja":"ハゲレ・ヒウェト","it":"Hāgere Hiywet","zh-CN":"哈格尔·希韦特","tr":"Hāgere Hiywet","ru":"Hāgere Hiywet","uk":"Хагере Хійвет","pl":"Hāgere Hiywet","hi":"Hāgere Hiywet","ar":"هاجيري هيويت","hy":"Hāgere Hiywet"}},{"name":"Hagere Maryam","latitude":"5.63418000","longitude":"38.23603000","native":"ሃጀር ማርያም","translations":{"br":"Hagere Maryam","ko":"하게레 마리암","pt-BR":"Hagere Maryam","pt":"Hagere Maryam","nl":"Hagere Maryam","hr":"Hagere Maryam","fa":"هاگره مریم","de":"Hagere Maryam","es":"Hagere Maryam","fr":"Hagere Maryam","ja":"ハゲレ・マリアム","it":"Hagere Maryam","zh-CN":"哈格尔·玛丽亚姆","tr":"Hagere Maryam","ru":"Хагере Марьям","uk":"Хагере Мар'ям","pl":"Hagere Maryam","hi":"हागेरे मरियम","ar":"هاجيري مريم","hy":"Hagere Maryam"}},{"name":"Hīrna","latitude":"9.21667000","longitude":"41.10000000","native":"ሂናና","translations":{"br":"Hīrna","ko":"히르나","pt-BR":"Hirna","pt":"Hirna","nl":"Hīrna","hr":"Hīrna","fa":"هیرنا","de":"Hīrna","es":"Hirna","fr":"Hīrna","ja":"ヒルナ","it":"Hīrna","zh-CN":"赫尔娜","tr":"Hīrna","ru":"Хирна","uk":"Гірна","pl":"Hirna","hi":"Hirna","ar":"هيرنا","hy":"Hīrna"}},{"name":"Huruta","latitude":"8.15000000","longitude":"39.35000000","native":"መሣሪያ","translations":{"br":"Huruta","ko":"후루타","pt-BR":"Huruta","pt":"Huruta","nl":"Huruta","hr":"Huruta","fa":"هوروتا","de":"Huruta","es":"Huruta","fr":"Huruta","ja":"古田","it":"Huruta","zh-CN":"胡鲁塔","tr":"Huruta","ru":"Хурута","uk":"Хурута","pl":"Huruta","hi":"हुरुता","ar":"هوروتا","hy":"Huruta"}},{"name":"Illubabor Zone","latitude":"8.27526000","longitude":"35.75596000","native":"ኢሉቦባቦር ዞን","translations":{"br":"Rannvro Illubabor","ko":"일루바보르 존","pt-BR":"Zona Illubabor","pt":"Zona Illubabor","nl":"Illubabor-zone","hr":"Zona Illubabor","fa":"منطقه ایلوبابور","de":"Illubabor Zone","es":"Zona de Illubabor","fr":"Zone d'Illubabor","ja":"イルバボルゾーン","it":"Zona di Illubabor","zh-CN":"伊鲁巴博区","tr":"Illubabor Bölgesi","ru":"Зона Иллубабор","uk":"Зона Іллубабор","pl":"Strefa Ilubabor","hi":"इलुबाबोर ज़ोन","ar":"منطقة إيلوبابور","hy":"Illubabor Zone"}},{"name":"Jimma","latitude":"7.67344000","longitude":"36.83441000","native":"ጂም","translations":{"br":"Jimma","ko":"짐마","pt-BR":"Jimma","pt":"Jimma","nl":"Jimma","hr":"Džimma","fa":"جیمما","de":"Jimma","es":"Jimma","fr":"Jimma","ja":"ジマ","it":"Jimma","zh-CN":"吉玛","tr":"Jimma","ru":"Джимма","uk":"Джимма","pl":"Jimma","hi":"जिम्मा","ar":"جيما","hy":"Jimma"}},{"name":"Jimma Zone","latitude":"7.66667000","longitude":"37.00000000","native":"ጅማ ዞን Poverors.","translations":{"br":"Jimma Zone","ko":"짐마 존","pt-BR":"Zona Jimma","pt":"Zona Jimma","nl":"Jimma Zone","hr":"Jimma zona","fa":"منطقه جیمما","de":"Jimma Zone","es":"Zona de Jimma","fr":"Zone de Jimma","ja":"ジマゾーン","it":"Zona Jimma","zh-CN":"吉马区","tr":"Jimma Bölgesi","ru":"Зона Джимма","uk":"Зона Джимма","pl":"Strefa Jimma","hi":"जिम्मा ज़ोन","ar":"منطقة جيما","hy":"Jimma Zone"}},{"name":"Kibre Mengist","latitude":"5.88333000","longitude":"38.98333000","native":"ቂቤሪ ቲ","translations":{"br":"Kibre Mengist","ko":"키브레 멩기스트","pt-BR":"Kibre Mengist","pt":"Kibre Mengist","nl":"Kibre Mengist","hr":"Kibre Mengist","fa":"کیبره منگیست","de":"Kibre Mengist","es":"Kibre Mengist","fr":"Kibre Mengist","ja":"キブレ・メンギスト","it":"Kibre Mengist","zh-CN":"基布雷·门吉斯特","tr":"Kibre Mengist","ru":"Кибре Менгист","uk":"Кібре Менгіст","pl":"Kibre Mengist","hi":"किब्रे मेंगिस्ट","ar":"كيبري منجيست","hy":"Kibre Mengist"}},{"name":"Kofelē","latitude":"7.06667000","longitude":"38.78333000","native":"ኮፍያ","translations":{"br":"Kofelē","ko":"코펠레","pt-BR":"Kofelē","pt":"Kofelē","nl":"Kofelē","hr":"Kofele","fa":"کوفله","de":"Kofelē","es":"Kofelē","fr":"Kofelē","ja":"コフェレ","it":"Kofelē","zh-CN":"科菲勒","tr":"Kofelē","ru":"Кофеле","uk":"Кофеле","pl":"Kofelē","hi":"कोफ़ेले","ar":"كوفيل","hy":"Kofelē"}},{"name":"Mēga","latitude":"4.05000000","longitude":"38.30000000","native":"ዌግ","translations":{"br":"Mēga","ko":"메가","pt-BR":"Méga","pt":"Méga","nl":"Mega","hr":"Mega","fa":"مگا","de":"Mēga","es":"Mega","fr":"Méga","ja":"メガ","it":"Mega","zh-CN":"兆","tr":"Mega","ru":"Мега","uk":"Мега","pl":"Mega","hi":"मेगा","ar":"ميجا","hy":"Mēga"}},{"name":"Mendī","latitude":"9.80000000","longitude":"35.10000000","native":"ማኒየር","translations":{"br":"Mendī","ko":"멘디","pt-BR":"Mendi","pt":"Mendi","nl":"Mendī","hr":"Mendi","fa":"مندی","de":"Mendī","es":"Mendi","fr":"Mendi","ja":"メンディ","it":"Mendī","zh-CN":"门迪","tr":"Mendi","ru":"Менди","uk":"Менді","pl":"Mendī","hi":"मेंडी","ar":"مندي","hy":"Mendī"}},{"name":"Metahāra","latitude":"8.90000000","longitude":"39.91667000","native":"ሜታካር","translations":{"br":"Metahāra","ko":"메타하라","pt-BR":"Metahara","pt":"Metahara","nl":"Metahāra","hr":"Metahara","fa":"متاهارا","de":"Metahāra","es":"Metahara","fr":"Métahara","ja":"メタハーラ","it":"Metahara","zh-CN":"梅塔哈拉","tr":"Metahāra","ru":"Метахара","uk":"Метахара","pl":"Metahāra","hi":"मेटाहारा","ar":"ميتاهارا","hy":"Metahāra"}},{"name":"Metu","latitude":"8.30000000","longitude":"35.58333000","native":"በወቅቱ","translations":{"br":"Metu","ko":"메투","pt-BR":"Metu","pt":"Metu","nl":"Metu","hr":"Metu","fa":"متو","de":"Metu","es":"Metu","fr":"Métu","ja":"メトゥ","it":"Metu","zh-CN":"梅图","tr":"O.D.T.Ü","ru":"Мету","uk":"Мету","pl":"Metu","hi":"मुझे तू","ar":"ميتو","hy":"Metu"}},{"name":"Mojo","latitude":"8.58679000","longitude":"39.12111000","native":"ሞጆ","translations":{"br":"Mojo","ko":"모조","pt-BR":"Mojo","pt":"Mojo","nl":"Mojo","hr":"Mojo","fa":"موجو","de":"Mojo","es":"Mojo","fr":"Mojo","ja":"モジョ","it":"Mojo","zh-CN":"魔力","tr":"Büyü","ru":"Моджо","uk":"Мохо","pl":"Mojo","hi":"मोजो","ar":"موجو","hy":"Mojo"}},{"name":"Nazrēt","latitude":"8.55000000","longitude":"39.26667000","native":"ናናውያን","translations":{"br":"Nazrēt","ko":"나즈렛","pt-BR":"Nazret","pt":"Nazret","nl":"Nazrēt","hr":"Nazret","fa":"نذری","de":"Nazrēt","es":"Nazaret","fr":"Nazret","ja":"ナズレット","it":"Nazret","zh-CN":"纳兹雷特","tr":"Nazret","ru":"Назрет","uk":"Назрет","pl":"Nazret","hi":"nazret","ar":"نازريت","hy":"Nazrēt"}},{"name":"Nejo","latitude":"9.50000000","longitude":"35.50000000","native":"ኔሆ","translations":{"br":"Nejo","ko":"네조","pt-BR":"Nejo","pt":"Nejo","nl":"Nejo","hr":"Nejo","fa":"نجو","de":"Nejo","es":"Nejo","fr":"Nejo","ja":"ネジョ","it":"Nejo","zh-CN":"内霍","tr":"Nejo","ru":"Неджо","uk":"Неджо","pl":"Nejo","hi":"नेजो","ar":"نيجو","hy":"Nejo"}},{"name":"North Shewa Zone","latitude":"9.66915000","longitude":"38.81240000","native":"ሰሜን ሸዋ ዞን","translations":{"br":"Rannvro Norzh Shewa","ko":"북 셰와 지역","pt-BR":"Zona Norte de Shewa","pt":"Zona Norte de Shewa","nl":"Noord-Shewa Zone","hr":"Sjeverna zona Shewa","fa":"زون شیوا شمالی","de":"Nord-Shewa-Zone","es":"Zona Shewa del Norte","fr":"Zone de Shewa Nord","ja":"北シェワゾーン","it":"Zona di Shewa settentrionale","zh-CN":"北舍瓦区","tr":"Kuzey Şeva Bölgesi","ru":"Зона Северная Шева","uk":"Зона Північна Шева","pl":"Strefa Północnej Szewy","hi":"उत्तर शेवा क्षेत्र","ar":"منطقة شمال شيوا","hy":"North Shewa Zone"}},{"name":"Sebeta","latitude":"8.91667000","longitude":"38.61667000","native":"ሰበታ","translations":{"br":"Sebeta","ko":"세베타","pt-BR":"Sebeta","pt":"Sebeta","nl":"Sebeta","hr":"Sebeta","fa":"سبتا","de":"Sebeta","es":"Sebeta","fr":"Sébêta","ja":"セベタ","it":"Sebeta","zh-CN":"塞贝塔","tr":"Sebeta","ru":"Себета","uk":"Себета","pl":"Sebeta","hi":"सेबेटा","ar":"سيبيتا","hy":"Sebeta"}},{"name":"Sendafa","latitude":"9.15203000","longitude":"39.02335000","native":"ላክስፋ","translations":{"br":"Sendafa","ko":"센다파","pt-BR":"Sendafa","pt":"Sendafa","nl":"Sendafa","hr":"Sendafa","fa":"سندافا","de":"Sendafa","es":"Sendafa","fr":"Sendafa","ja":"センダファ","it":"Sendafa","zh-CN":"森达法","tr":"Sendafa","ru":"Сендафа","uk":"Сендафа","pl":"Sendafa","hi":"सेंडाफा","ar":"سندافا","hy":"Sendafa"}},{"name":"Shakiso","latitude":"5.76494000","longitude":"38.91006000","native":"ጥርጣሬ","translations":{"br":"Shakiso","ko":"샤키소","pt-BR":"Shakiso","pt":"Shakiso","nl":"Shakiso","hr":"Šakiso","fa":"شکیسو","de":"Shakiso","es":"Shakiso","fr":"Shakiso","ja":"シャキソ","it":"Shakiso","zh-CN":"沙基索","tr":"Şakiso","ru":"Шакисо","uk":"Шакісо","pl":"Shakiso","hi":"शाकिसो","ar":"شاكيسو","hy":"Shakiso"}},{"name":"Shambu","latitude":"9.56667000","longitude":"37.10000000","native":"ሻምቡ","translations":{"br":"Shambu","ko":"샴부","pt-BR":"Shambu","pt":"Shambu","nl":"Shambu","hr":"Šambu","fa":"شامبو","de":"Shambu","es":"Shambu","fr":"Shambu","ja":"シャンブ","it":"Shambu","zh-CN":"香布","tr":"Şambu","ru":"Шамбу","uk":"Шамбу","pl":"Szambu","hi":"शंभू","ar":"شامبو","hy":"Shambu"}},{"name":"Shashemenē","latitude":"7.20000000","longitude":"38.60000000","native":"ሻሽሜን","translations":{"br":"Shashemenē","ko":"샤셰메네","pt-BR":"Shashemenē","pt":"Shashemenē","nl":"Shashemenē","hr":"Šašemene","fa":"شاشِمِنِه","de":"Shashemenē","es":"Shashemenē","fr":"Shashemenē","ja":"シャシェメネ","it":"Shashemenē","zh-CN":"沙舍门尼","tr":"Şaşemenē","ru":"Шашемене","uk":"Шашемене","pl":"Szaszemenē","hi":"Shashemene","ar":"شاشيمين","hy":"Shashemenē"}},{"name":"Sirre","latitude":"8.31667000","longitude":"39.48333000","native":"Sirre","translations":{"br":"Aotrou","ko":"시레","pt-BR":"Senhor","pt":"Senhor","nl":"Sirre","hr":"Sirre","fa":"سیر","de":"Sirre","es":"Señor","fr":"Monsieur","ja":"シルレ","it":"Signore","zh-CN":"西雷","tr":"Efendim","ru":"Сирре","uk":"Сірре","pl":"Panie","hi":"सिर्रे","ar":"سيري","hy":"Sirre"}},{"name":"Tulu Bolo","latitude":"8.66667000","longitude":"38.21667000","native":"ቱሉ ነበር","translations":{"br":"Tulu Bolo","ko":"툴루 볼로","pt-BR":"Tulu Bolo","pt":"Tulu Bolo","nl":"Tulu Bolo","hr":"Tulu Bolo","fa":"تولو بولو","de":"Tulu Bolo","es":"Tulu Bolo","fr":"Tulu Bolo","ja":"トゥル・ボロ","it":"Tulu Bolo","zh-CN":"图鲁博洛","tr":"Tulu Bolo","ru":"Тулу Боло","uk":"Тулу Боло","pl":"Tulu Bolo","hi":"तुलु बोलो","ar":"تولو بولو","hy":"Tulu Bolo"}},{"name":"Waliso","latitude":"8.53417000","longitude":"37.96515000","native":"ዋልድሶ","translations":{"br":"Waliso","ko":"왈리소","pt-BR":"Waliso","pt":"Waliso","nl":"Waliso","hr":"Waliso","fa":"والسو","de":"Waliso","es":"Waliso","fr":"Waliso","ja":"ワリソ","it":"Waliso","zh-CN":"瓦利索","tr":"Waliso","ru":"Валисо","uk":"Валісо","pl":"Waliso","hi":"वालिसो","ar":"واليسو","hy":"Waliso"}},{"name":"Wenjī","latitude":"8.45000000","longitude":"39.28333000","native":"ዌንጁ","translations":{"br":"Wenjī","ko":"웬지","pt-BR":"Wenji","pt":"Wenji","nl":"Wenjī","hr":"Wenji","fa":"ونجی","de":"Wenjī","es":"Wenji","fr":"Wenji","ja":"ウェンジ","it":"Wenjī","zh-CN":"文姬","tr":"Wenji","ru":"Вэньцзи","uk":"Венджі","pl":"Wenjī","hi":"Wenji","ar":"وينجي","hy":"Wenjī"}},{"name":"West Harerghe Zone","latitude":"8.67245000","longitude":"40.84885000","native":"ዌስት ሀረራልሄ ዞን","translations":{"br":"Rannvro Harerghe ar C'hornôg","ko":"웨스트 하레르게 지역","pt-BR":"Zona West Harerghe","pt":"Zona West Harerghe","nl":"West Harerghe Zone","hr":"Zapadna zona Harerghe","fa":"منطقه وست هاررگه","de":"Westliche Harerghe-Zone","es":"Zona de West Harerghe","fr":"Zone de Harerghe Ouest","ja":"西ハレルゲゾーン","it":"Zona di West Harerghe","zh-CN":"西哈勒尔盖区","tr":"Batı Harerghe Bölgesi","ru":"Зона Западного Харерге","uk":"Зона Західний Харерге","pl":"Strefa West Harerghe","hi":"पश्चिम हरेरघे क्षेत्र","ar":"منطقة غرب هاريرغي","hy":"West Harerghe Zone"}},{"name":"West Wellega Zone","latitude":"9.17283000","longitude":"35.05279000","native":"የምእራብ ወለጋ ዞን","translations":{"br":"Takad Wellega ar C'hornôg","ko":"웨스트 웰레가 존","pt-BR":"Zona West Wellega","pt":"Zona West Wellega","nl":"West Wellega-zone","hr":"Zapadna Wellega zona","fa":"منطقه وست ولگا","de":"West Wellega Zone","es":"Zona de West Wellega","fr":"Zone de Wellega Ouest","ja":"西ウェレガゾーン","it":"Zona di West Wellega","zh-CN":"西韦勒加区","tr":"Batı Wellega Bölgesi","ru":"Зона Западного Веллега","uk":"Зона Західного Веллега","pl":"Strefa West Wellega","hi":"पश्चिम वेलेगा क्षेत्र","ar":"منطقة غرب ويليجا","hy":"West Wellega Zone"}},{"name":"Yabēlo","latitude":"4.88333000","longitude":"38.08333000","native":"ያባሎ","translations":{"br":"Yabēlo","ko":"야벨로","pt-BR":"Yabelo","pt":"Yabelo","nl":"Yabelo","hr":"Jabelo","fa":"یابلو","de":"Yabēlo","es":"Yabelo","fr":"Yabelo","ja":"ヤベロ","it":"Yabēlo","zh-CN":"亚贝洛","tr":"Yabelo","ru":"Ябело","uk":"Ябело","pl":"Jabelo","hi":"याबेलो","ar":"يابيلو","hy":"Yabēlo"}},{"name":"Ziway","latitude":"7.93333000","longitude":"38.71667000","native":"ዚይዌይ","translations":{"br":"Ziway","ko":"지웨이","pt-BR":"Ziway","pt":"Ziway","nl":"Ziway","hr":"Ziway","fa":"زیوای","de":"Ziway","es":"Ziway","fr":"Ziway","ja":"ジウェイ","it":"Ziway","zh-CN":"齐韦","tr":"Ziway","ru":"Зивай","uk":"Зівей","pl":"Ziway","hi":"ज़िवे","ar":"زيواي","hy":"Ziway"}}]},{"name":"Somali Region","state_code":"SO","latitude":"6.66122930","longitude":"43.79084530","cities":[{"name":"Afder Zone","latitude":"5.25000000","longitude":"43.00000000","native":"Arder ዞን","translations":{"br":"Rannvro Afder","ko":"아프더 존","pt-BR":"Zona Afder","pt":"Zona Afder","nl":"Na de zone","hr":"Afderska zona","fa":"منطقه افدر","de":"Afder Zone","es":"Zona posterior","fr":"Zone Afder","ja":"アフダーゾーン","it":"Zona Afder","zh-CN":"阿夫德区","tr":"After Bölgesi","ru":"Зона Афдер","uk":"Зона Афдер","pl":"Strefa Afder","hi":"अफ्दर ज़ोन","ar":"منطقة أفدر","hy":"Afder Zone"}},{"name":"Degehabur Zone","latitude":"8.25000000","longitude":"43.75000000","native":"የዲግበርበር ዞን","translations":{"br":"Rannvro Degehabur","ko":"데게하부르 존","pt-BR":"Zona Degehabur","pt":"Zona Degehabur","nl":"Degehabur-zone","hr":"Zona Degehabur","fa":"منطقه دگهابور","de":"Degehabur Zone","es":"Zona de Degehabur","fr":"Zone de Degehabur","ja":"デゲハブールゾーン","it":"Zona di Degehabur","zh-CN":"德格哈布尔区","tr":"Degehabur Bölgesi","ru":"Зона Дегехабур","uk":"Зона Дегехабур","pl":"Strefa Degehabur","hi":"देगेहाबुर क्षेत्र","ar":"منطقة ديجهبور","hy":"Degehabur Zone"}},{"name":"Gode Zone","latitude":"6.00000000","longitude":"43.75000000","native":"ጥሩ ዞን","translations":{"br":"Doue Zone","ko":"고드 존","pt-BR":"Zona Gode","pt":"Zona Gode","nl":"Goede Zone","hr":"Godeova zona","fa":"منطقه گوده","de":"Gode Zone","es":"Zona de Dios","fr":"Gode Zone","ja":"ゴデゾーン","it":"Gode Zone","zh-CN":"戈德区","tr":"Tanrı Bölgesi","ru":"Зона Годе","uk":"Зона Годе","pl":"Strefa Gode","hi":"गोडे ज़ोन","ar":"منطقة جود","hy":"Gode Zone"}},{"name":"Jijiga","latitude":"9.35000000","longitude":"42.80000000","native":"ጩኸት","translations":{"br":"Jijiga","ko":"지지가","pt-BR":"Jijiga","pt":"Jijiga","nl":"Jijiga","hr":"Džidžiga","fa":"جیجیگا","de":"Jijiga","es":"Jijiga","fr":"Jijiga","ja":"ジジガ","it":"Jijiga","zh-CN":"吉吉加","tr":"Jijiga","ru":"Джиджига","uk":"Джіджіга","pl":"Dżidżiga","hi":"जिजिगा","ar":"جيجيجا","hy":"Jijiga"}},{"name":"Liben zone","latitude":"4.75000000","longitude":"40.50000000","native":"ሊብን ዞን","translations":{"br":"Takad frankiz","ko":"리벤 존","pt-BR":"Zona de liberdade","pt":"Zona de liberdade","nl":"Liben-zone","hr":"Libenska zona","fa":"منطقه لیبن","de":"Liben-Zone","es":"Zona de Liben","fr":"Zone Liben","ja":"リベンゾーン","it":"Zona Liben","zh-CN":"立本区","tr":"Liben bölgesi","ru":"Либеньская зона","uk":"Лібенська зона","pl":"Strefa Liben","hi":"लिबेन क्षेत्र","ar":"منطقة ليبن","hy":"Liben zone"}},{"name":"Shinile Zone","latitude":"10.17097000","longitude":"41.83748000","native":"ሺኒን ዞን","translations":{"br":"Takad lugernus","ko":"샤닐존","pt-BR":"Zona Shinile","pt":"Zona Shinile","nl":"Shinile-zone","hr":"Šinilska zona","fa":"منطقه شاینیل","de":"Shinile-Zone","es":"Zona Shinile","fr":"Zone de Shinile","ja":"シャイニールゾーン","it":"Shinile Zone","zh-CN":"闪光区","tr":"Parıltı Bölgesi","ru":"Зона Шиниле","uk":"Зона Шиніле","pl":"Strefa Shinile","hi":"शिनाइल ज़ोन","ar":"منطقة شينيل","hy":"Shinile Zone"}}]},{"name":"Southern Nations, Nationalities, and Peoples' Region","state_code":"SN","latitude":"6.51569110","longitude":"36.95410700","cities":[{"name":"Alaba Special Wereda","latitude":"7.45347000","longitude":"38.21189000","native":"አላባ ልዩ ወረዳ","translations":{"br":"Alaba Special Wereda","ko":"알라바 스페셜 웨레다","pt-BR":"Alaba Especial Wereda","pt":"Alaba Especial Wereda","nl":"Alaba Special Wereda","hr":"Alaba Special Wereda","fa":"آلابا ویریدای ویژه","de":"Alaba Spezial Wereda","es":"Alaba Special Wereda","fr":"Wereda spécial d'Alaba","ja":"アラバスペシャルウェレダ","it":"Alaba Special Wereda","zh-CN":"阿拉巴特别韦雷达","tr":"Alaba Özel Wereda","ru":"Alaba Special Wereda","uk":"Алаба Спеціальна Вереда","pl":"Alaba Special Wereda","hi":"अलाबा स्पेशल वेरेडा","ar":"ألابا سبيشال ويريدا","hy":"Alaba Special Wereda"}},{"name":"Arba Minch","latitude":"6.03333000","longitude":"37.55000000","native":"አርባምንጭ","translations":{"br":"Arba Minch","ko":"아르바 민치","pt-BR":"Arba Minch","pt":"Arba Minch","nl":"Arba Minch","hr":"Arba Minch","fa":"آربا مینچ","de":"Arba Minch","es":"Arba Minch","fr":"Arba Minch","ja":"アルバ・ミンチ","it":"Arba Minch","zh-CN":"阿尔巴·明奇","tr":"Arba Minch","ru":"Арба Мынч","uk":"Арба Мінч","pl":"Arba Minch","hi":"अरबा मिंच","ar":"أربا مينش","hy":"Arba Minch"}},{"name":"Āreka","latitude":"7.06667000","longitude":"37.70000000","native":"አስጨናቂ","translations":{"br":"Āreka","ko":"아레카","pt-BR":"Areka","pt":"Areka","nl":"Āreka","hr":"Āreka","fa":"آرکا","de":"Āreka","es":"Areka","fr":"Areka","ja":"アーレカ","it":"Āreka","zh-CN":"阿雷卡","tr":"Āreka","ru":"Арека","uk":"Арека","pl":"Āreka","hi":"अरेका","ar":"أريكا","hy":"Āreka"}},{"name":"Bako","latitude":"5.78333000","longitude":"36.56667000","native":"እንግዳ","translations":{"br":"Bako","ko":"바코","pt-BR":"Bako","pt":"Bako","nl":"Bako","hr":"Bako","fa":"باکو","de":"Bako","es":"Bako","fr":"Bako","ja":"バコ","it":"Bako","zh-CN":"巴科","tr":"Bako","ru":"Бако","uk":"Бако","pl":"Bako","hi":"बाको","ar":"باكو","hy":"Bako"}},{"name":"Bench Maji Zone","latitude":"6.45994000","longitude":"35.30549000","native":"የውሃ አቅርቦት","translations":{"br":"Rannvro Maji ar banc'h","ko":"벤치 마지 존","pt-BR":"Zona Maji de Banco","pt":"Zona Maji de Banco","nl":"Bank Maji Zone","hr":"Zona klupe Maji","fa":"منطقه نیمکت ماجی","de":"Bank Maji Zone","es":"Zona de Bench Maji","fr":"Banc Maji Zone","ja":"ベンチマジゾーン","it":"Panca Maji Zone","zh-CN":"长凳马吉区","tr":"Bench Maji Bölgesi","ru":"Зона скамейки Маджи","uk":"Зона бенч-маджі","pl":"Strefa Ławki Maji","hi":"बेंच माजी ज़ोन","ar":"مقعد ماجي زون","hy":"Bench Maji Zone"}},{"name":"Bodītī","latitude":"6.96667000","longitude":"37.86667000","native":"ቦዲቲ","translations":{"br":"Bodītī","ko":"보디티","pt-BR":"Bodītī","pt":"Bodītī","nl":"Bodītī","hr":"Boditi","fa":"بودیتی","de":"Bodītī","es":"Boditī","fr":"Bodītī","ja":"ボディティ","it":"Bodītī","zh-CN":"菩提","tr":"Bodītī","ru":"Бодити","uk":"Бодіті","pl":"Boditī","hi":"बोदिति","ar":"بوديتي","hy":"Bodītī"}},{"name":"Bonga","latitude":"7.28333000","longitude":"36.23333000","native":"ማድነቅ","translations":{"br":"Bonga","ko":"봉가","pt-BR":"Bonga","pt":"Bonga","nl":"Bonga","hr":"Bonga","fa":"بونگا","de":"Bonga","es":"Bonga","fr":"Bonga","ja":"ボンガ","it":"Bonga","zh-CN":"邦加","tr":"Bonga","ru":"Бонга","uk":"Бонга","pl":"Bonga","hi":"बोंगा","ar":"بونجا","hy":"Bonga"}},{"name":"Butajīra","latitude":"8.11667000","longitude":"38.36667000","native":"ዳኛ","translations":{"br":"Butajīra","ko":"부타지라","pt-BR":"Butajira","pt":"Butajira","nl":"Butajīra","hr":"Butajira","fa":"بوتجیرا","de":"Butajīra","es":"Butajira","fr":"Butajira","ja":"ブタジラ","it":"Butajīra","zh-CN":"布塔吉拉","tr":"Butajīra","ru":"Бутаджира","uk":"Бутаджіра","pl":"Butajīra","hi":"बुताजिरा","ar":"بوتاجيرا","hy":"Butajīra"}},{"name":"Dīla","latitude":"6.41667000","longitude":"38.31667000","native":"ዴል","translations":{"br":"Dīla","ko":"딜라","pt-BR":"Dila","pt":"Dila","nl":"Dīla","hr":"Dīla","fa":"دیلا","de":"Dīla","es":"Dila","fr":"Dila","ja":"ディラ","it":"Dīla","zh-CN":"迪拉","tr":"Dilâ","ru":"Дила","uk":"Діла","pl":"Dīla","hi":"Dila","ar":"ديلا","hy":"Dīla"}},{"name":"Felege Neway","latitude":"6.30000000","longitude":"36.88333000","native":"ሾርባ አዲስ","translations":{"br":"Felege Neway","ko":"펠레게 뉴웨이","pt-BR":"Felege Neway","pt":"Felege Neway","nl":"Felege Neway","hr":"Felege Neway","fa":"فلگه نیوی","de":"Felege Neway","es":"Felege Neway","fr":"Felege Neway","ja":"フェレゲ・ニューウェイ","it":"Felege Neway","zh-CN":"费莱格·纽韦","tr":"Felege Neway","ru":"Фелеге Ньюэй","uk":"Фелеге Невей","pl":"Felege Neway","hi":"फेलेज न्यूवे","ar":"فليجي نيواي","hy":"Felege Neway"}},{"name":"Gedeo Zone","latitude":"6.12727000","longitude":"38.27716000","native":"ጌዴኦ ዞን","translations":{"br":"Takad Gedeo","ko":"게데오 존","pt-BR":"Zona Gedeo","pt":"Zona Gedeo","nl":"Gedeo-zone","hr":"Gedeo zona","fa":"منطقه گدئو","de":"Gedeo-Zone","es":"Zona Gedeo","fr":"Zone Gédéo","ja":"ゲデオゾーン","it":"Zona Gedeo","zh-CN":"盖德奥区","tr":"Gedeo Bölgesi","ru":"Зона Гедео","uk":"Зона Гедео","pl":"Strefa Gedeo","hi":"गेदेओ ज़ोन","ar":"منطقة جيديو","hy":"Gedeo Zone"}},{"name":"Gīdolē","latitude":"5.65000000","longitude":"37.36667000","native":"በጊዲ ውስጥ","translations":{"br":"Gīdolē","ko":"기돌레","pt-BR":"Gidolē","pt":"Gidolē","nl":"Gīdolē","hr":"Gidole","fa":"گیدوله","de":"Gīdolē","es":"Gidolē","fr":"Gīdolē","ja":"ギドレー","it":"Gīdolē","zh-CN":"吉多勒","tr":"Gīdolē","ru":"Гидоле","uk":"Гідоле","pl":"Gīdolē","hi":"गिडोले","ar":"جيدولي","hy":"Gīdolē"}},{"name":"Guraghe Zone","latitude":"8.25000000","longitude":"38.00000000","native":"ጉራጌ ዞን","translations":{"br":"Rannvro Guraghe","ko":"구라게 지역","pt-BR":"Zona Guraghe","pt":"Zona Guraghe","nl":"Guraghe-zone","hr":"Zona Guraghe","fa":"منطقه گوراگه","de":"Guraghe-Zone","es":"Zona de Guraghe","fr":"Zone de Guraghe","ja":"グラーゲゾーン","it":"Zona Guraghe","zh-CN":"古拉格区","tr":"Guraghe Bölgesi","ru":"Зона Гураге","uk":"Зона Гураге","pl":"Strefa Guraghe","hi":"गुराघे ज़ोन","ar":"منطقة غوراغي","hy":"Guraghe Zone"}},{"name":"Hadiya Zone","latitude":"7.50000000","longitude":"37.75000000","native":"ሃልስ ዞን","translations":{"br":"Rannvro Hadiya","ko":"하디야 존","pt-BR":"Zona Hadiya","pt":"Zona Hadiya","nl":"Hadiya-zone","hr":"Zona Hadiya","fa":"منطقه هادیه","de":"Hadiya-Zone","es":"Zona Hadiya","fr":"Zone de Hadiya","ja":"ハディヤゾーン","it":"Zona di Hadiya","zh-CN":"哈迪亚区","tr":"Hadiya Bölgesi","ru":"Зона Хадия","uk":"Зона Хадія","pl":"Strefa Hadiya","hi":"हदिया ज़ोन","ar":"منطقة هدية","hy":"Hadiya Zone"}},{"name":"Hāgere Selam","latitude":"6.48333000","longitude":"38.51667000","native":"ሀገር ለሴክ","translations":{"br":"Hāgere Selam","ko":"하게레 셀람","pt-BR":"Hāgere Selam","pt":"Hāgere Selam","nl":"Hāgere Selam","hr":"Hāgere Selam","fa":"هاگر سلام","de":"Hāgere Selam","es":"Hāgere Selam","fr":"Hagere Selam","ja":"ハゲレ・セラム","it":"Hāgere Selam","zh-CN":"哈格尔·塞拉姆","tr":"Hāgere Selam","ru":"Hāgere Selam","uk":"Хагере Селам","pl":"Hāgere Selam","hi":"हागेरे सेलम","ar":"هاجري سلام","hy":"Hāgere Selam"}},{"name":"Hawassa","latitude":"7.06205000","longitude":"38.47635000","native":"ሀዋሳ","translations":{"br":"Hawassa","ko":"하와사","pt-BR":"Hawassa","pt":"Hawassa","nl":"Hawassa","hr":"Hawassa","fa":"هاواسا","de":"Awassa","es":"Hawassa","fr":"Hawassa","ja":"ハワッサ","it":"Hawassa","zh-CN":"哈瓦萨","tr":"Havassa","ru":"Хавасса","uk":"Хавасса","pl":"Hawassa","hi":"हवासा","ar":"هاواسا","hy":"Hawassa"}},{"name":"Hosa’ina","latitude":"7.54978000","longitude":"37.85374000","native":"ሸሚዝ","translations":{"br":"Hosa’ina","ko":"호사이나","pt-BR":"Hosa'ina","pt":"Hosa'ina","nl":"Hosa'ina","hr":"Hosa'ina","fa":"حسینا","de":"Hosa’ina","es":"Hosa'ina","fr":"Hosa'ina","ja":"ホサイナ","it":"Hosa'ina","zh-CN":"霍萨伊娜","tr":"Hosa'ina","ru":"Хосаина","uk":"Хосаїна","pl":"Hosa’ina","hi":"होसैना","ar":"حسينة"}},{"name":"Jinka","latitude":"5.65000000","longitude":"36.65000000","native":"መስታወት","translations":{"br":"Jinka","ko":"진카","pt-BR":"Jinka","pt":"Jinka","nl":"Jinka","hr":"Jinka","fa":"جینکا","de":"Jinka","es":"Jinka","fr":"Jinka","ja":"ジンカ","it":"Jinka","zh-CN":"金卡","tr":"Jinka","ru":"Джинка","uk":"Джинка","pl":"Jinka","hi":"जिंका","ar":"جينكا","hy":"Jinka"}},{"name":"K’olīto","latitude":"7.31667000","longitude":"38.08333000","native":"ኮሊቶ","translations":{"br":"K’olīto","ko":"콜리토","pt-BR":"K'olīto","pt":"K'olīto","nl":"K'olīto","hr":"K'olīto","fa":"کولیتو","de":"K’olīto","es":"K’olīto","fr":"K'olīto","ja":"コリト","it":"K’olīto","zh-CN":"科利托","tr":"K'olīto","ru":"К’олīто","uk":"Коліто","pl":"K’olīto","hi":"कोलीटो","ar":"كوليتو"}},{"name":"Kembata Alaba Tembaro Zone","latitude":"7.27039000","longitude":"37.77887000","native":"ለቤተመቅደሱ ዞን የምስክር ወረቀቱን ማረጋገጥ","translations":{"br":"Kembata Alaba Tembaro Zone","ko":"켐바타 알라바 템바로 존","pt-BR":"Zona Kembata Alaba Tembaro","pt":"Zona Kembata Alaba Tembaro","nl":"Kembata Alaba Tembaro Zone","hr":"Zona Kembata Alaba Tembaro","fa":"منطقه کمباتا، آلابا، تمبارو","de":"Kembata Alaba Tembaro Zone","es":"Zona de Kembata Alaba Tembaro","fr":"Zone de Kembata Alaba Tembaro","ja":"ケンバタ・アラバ・テンバロ・ゾーン","it":"Kembata Alaba Tembaro Zone","zh-CN":"肯巴塔阿拉巴坦巴罗区","tr":"Kembata Alaba Tembaro Bölgesi","ru":"Кембата Алаба Тембаро Зона","uk":"Зона Кембата Алаба Тембаро","pl":"Strefa Kembata Alaba Tembaro","hi":"केम्बाटा अलाबा टेम्बारो ज़ोन","ar":"منطقة كيمباتا ألابا تمبارو","hy":"Kembata Alaba Tembaro Zone"}},{"name":"Konso","latitude":"5.25000000","longitude":"37.48333000","native":"ኮንሶን","translations":{"br":"Konso","ko":"콘소","pt-BR":"Konso","pt":"Konso","nl":"Konso","hr":"Konso","fa":"کونسو","de":"Konso","es":"Konso","fr":"Konso","ja":"コンソ","it":"Konso","zh-CN":"孔索","tr":"Konso","ru":"Консо","uk":"Консо","pl":"Konso","hi":"कोन्सो","ar":"كونسو","hy":"Konso"}},{"name":"Leku","latitude":"6.87309000","longitude":"38.44425000","native":"ቦታ","translations":{"br":"Leku","ko":"레쿠","pt-BR":"Leku","pt":"Leku","nl":"Leku","hr":"Leku","fa":"لکو","de":"Leku","es":"Leku","fr":"Leku","ja":"レク","it":"Leku","zh-CN":"乐库","tr":"Leku","ru":"Леку","uk":"Леку","pl":"Leku","hi":"लेकु","ar":"ليكو","hy":"Leku"}},{"name":"Lobuni","latitude":"4.83333000","longitude":"36.10000000","native":"የማዕድን ማውጫ","translations":{"br":"Lobuni","ko":"로부니","pt-BR":"Lobuni","pt":"Lobuni","nl":"Lobuni","hr":"Lobuni","fa":"لوبونی","de":"Lobuni","es":"Lobuni","fr":"Lobuni","ja":"ロブニ","it":"Lobuni","zh-CN":"洛布尼","tr":"Lobuni","ru":"Лобуни","uk":"Лобуні","pl":"Lobuni","hi":"लोबुनी","ar":"لوبوني","hy":"Lobuni"}},{"name":"Mīzan Teferī","latitude":"6.99865000","longitude":"35.58879000","native":"በቅጹ ውስጥ ያለው ሞገስ","translations":{"br":"Mīzan Teferī","ko":"미잔 테페리","pt-BR":"Mīzan Teferī","pt":"Mīzan Teferī","nl":"Mīzan Teferī","hr":"Mizan Teferi","fa":"میزان تفری","de":"Mīzan Teferī","es":"Mizan Teferi","fr":"Mīzan Teferī","ja":"ミザン・テフェリ","it":"Mīzan Teferī","zh-CN":"米赞·特菲里","tr":"Mīzan Teferī","ru":"Мизан Тефери","uk":"Мізан Тефері","pl":"Mīzan Teferī","hi":"मीज़ान तेफ़री","ar":"ميزان تيفيري","hy":"Mīzan Teferī"}},{"name":"Sheka Zone","latitude":"7.56166000","longitude":"35.40174000","native":"የሻይ ዞን","translations":{"br":"Rannvro Sheka","ko":"셰카 존","pt-BR":"Zona Sheka","pt":"Zona Sheka","nl":"Sheka-zone","hr":"Šeka zona","fa":"منطقه شکا","de":"Sheka-Zone","es":"Zona Sheka","fr":"Zone Sheka","ja":"シェカゾーン","it":"Zona di Sheka","zh-CN":"谢卡区","tr":"Şeka Bölgesi","ru":"Зона Шека","uk":"Зона Шека","pl":"Strefa Szeka","hi":"शेका ज़ोन","ar":"منطقة شيكا","hy":"Sheka Zone"}},{"name":"Sidama Zone","latitude":"6.71800000","longitude":"38.44800000","native":"ውሸት አይደለም","translations":{"br":"Takad Sidama","ko":"시다마 존","pt-BR":"Zona Sidama","pt":"Zona Sidama","nl":"Sidama-zone","hr":"Zona Sidama","fa":"منطقه سیداما","de":"Sidama-Zone","es":"Zona de Sidama","fr":"Zone de Sidama","ja":"シダマゾーン","it":"Zona Sidama","zh-CN":"西达玛区","tr":"Sidama Bölgesi","ru":"Зона Сидама","uk":"Зона Сідама","pl":"Strefa Sidama","hi":"सिदामा ज़ोन","ar":"منطقة سيداما","hy":"Sidama Zone"}},{"name":"Sodo","latitude":"6.86000000","longitude":"37.76159000","native":"የአትክልት ስፍራ","translations":{"br":"Sodo","ko":"소도","pt-BR":"Sodo","pt":"Sodo","nl":"Sodo","hr":"Sodo","fa":"سودو","de":"Sodo","es":"Sodo","fr":"Sodo","ja":"ソド","it":"Sodo","zh-CN":"索多","tr":"Sodo","ru":"Содо","uk":"Содо","pl":"Sodo","hi":"ऐसा","ar":"سودو","hy":"Sodo"}},{"name":"Tippi","latitude":"7.20000000","longitude":"35.45000000","native":"ወንዶች","translations":{"br":"Tippi","ko":"티피","pt-BR":"Tippi","pt":"Tippi","nl":"Tippi","hr":"Tippi","fa":"تیپی","de":"Tippi","es":"Tippi","fr":"Tippi","ja":"ティッピ","it":"Tippi","zh-CN":"蒂皮","tr":"Tippi","ru":"Типпи","uk":"Тіппі","pl":"Tippi","hi":"टिप्पी","ar":"تيبي","hy":"Tippi"}},{"name":"Turmi","latitude":"4.96667000","longitude":"36.48333000","native":"የድንጋይ","translations":{"br":"Turmi","ko":"투르미","pt-BR":"Turmi","pt":"Turmi","nl":"Turmi","hr":"Turmi","fa":"تورمی","de":"Turmi","es":"Turmi","fr":"Turmi","ja":"トゥルミ","it":"Turmi","zh-CN":"图尔米","tr":"Turmi","ru":"Турми","uk":"Турмі","pl":"Turmi","hi":"तुरमी","ar":"تورمي","hy":"Turmi"}},{"name":"Wendo","latitude":"6.60000000","longitude":"38.41667000","native":"ዌንዶ","translations":{"br":"Wendo","ko":"웬도","pt-BR":"Wendo","pt":"Wendo","nl":"Wendo","hr":"Wendo","fa":"وندو","de":"Wendo","es":"Wendo","fr":"Wendo","ja":"ウェンド","it":"Wendo","zh-CN":"温多","tr":"Wendo","ru":"Вендо","uk":"Вендо","pl":"Wendo","hi":"वेंडो","ar":"ويندو","hy":"Wendo"}},{"name":"Wolayita Zone","latitude":"6.84312000","longitude":"37.70051000","native":"የወላይታ ዞን","translations":{"br":"Rannvro Wolayita","ko":"울라이야이타 존","pt-BR":"Zona Wolayita","pt":"Zona Wolayita","nl":"Wolayita-zone","hr":"Zona Wolayita","fa":"منطقه ولایتا","de":"Wolayita-Zone","es":"Zona Wolayita","fr":"Zone de Wolayita","ja":"ウォライタゾーン","it":"Zona Wolayita","zh-CN":"沃拉伊塔区","tr":"Wolayita Bölgesi","ru":"Зона Волайита","uk":"Зона Волайта","pl":"Strefa Wolayita","hi":"वोलायिता ज़ोन","ar":"منطقة ولايتا","hy":"Wolayita Zone"}},{"name":"Yem","latitude":"7.83333000","longitude":"37.50000000","native":"ባይት","translations":{"br":"Yem","ko":"옘","pt-BR":"Sim","pt":"Sim","nl":"Jemen","hr":"Jem","fa":"یم","de":"Yem","es":"Sí","fr":"Oui","ja":"イェム","it":"Yem","zh-CN":"叶姆","tr":"Yem","ru":"Йем","uk":"Єм","pl":"Yem","hi":"येम","ar":"يم","hy":"Yem"}},{"name":"Yirga ‘Alem","latitude":"6.75000000","longitude":"38.41667000","native":"ይርጋ አለም","translations":{"br":"Yirga ‘Alem","ko":"이르가 알렘","pt-BR":"Yirga ‘Alem","pt":"Yirga ‘Alem","nl":"Yirga ‘Alem","hr":"Yirga 'Alem","fa":"یرگ عالم","de":"Yirga ‘Alem","es":"Yirga ‘Alem","fr":"Yirga ‘Alem","ja":"イルガ・アレム","it":"Yirga ‘Alem","zh-CN":"耶尔加·阿莱姆","tr":"Yirga ‘Alem","ru":"Йирга Алем","uk":"Йірга Алем","pl":"Yirga ‘Alem","hi":"यिरगा ‘आलेम","ar":"يرجا عالم"}}]},{"name":"Tigray Region","state_code":"TI","latitude":"14.03233360","longitude":"38.31657250","cities":[{"name":"Ādīgrat","latitude":"14.27700000","longitude":"39.46200000","native":"ቆዳ","translations":{"br":"Ādīgrat","ko":"아디그라트","pt-BR":"Adīgrat","pt":"Adīgrat","nl":"Ādīgrat","hr":"Adigrat","fa":"آدیگرات","de":"Ādīgrat","es":"Adígrat","fr":"Ādīgrat","ja":"アーディグラット","it":"Ādīgrat","zh-CN":"阿迪格拉特","tr":"Ādīgrat","ru":"Адиграт","uk":"Адіграт","pl":"Ādīgrat","hi":"Adigrat","ar":"أديغرات","hy":"Ādīgrat"}},{"name":"Axum","latitude":"14.12109000","longitude":"38.72337000","native":"አክሱም","translations":{"br":"Axum","ko":"악숨","pt-BR":"Axum","pt":"Axum","nl":"Axum","hr":"Aksum","fa":"آکسوم","de":"Aksum","es":"Axum","fr":"Axoum","ja":"アクスム","it":"Axum","zh-CN":"阿克苏姆","tr":"Aksum","ru":"Аксум","uk":"Аксум","pl":"Aksum","hi":"एक्सुम","ar":"أكسوم","hy":"Axum"}},{"name":"Inda Silasē","latitude":"14.10307000","longitude":"38.28289000","native":"የት ተገድሏል","translations":{"br":"Inda Silasē","ko":"인다 실라세","pt-BR":"Inda Silasē","pt":"Inda Silasē","nl":"Inda Silasē","hr":"Inda Silasē","fa":"ایندا سیلاسه","de":"Inda Silasē","es":"Inda Silasē","fr":"Inda Silasē","ja":"インダ・シラセ","it":"Inda Silasē","zh-CN":"因达·西拉斯","tr":"Inda Silasē","ru":"Инда Силасе","uk":"Інда Сіласе","pl":"Inda Silasē","hi":"Inda Silasē","ar":"إندا سيلاس","hy":"Inda Silasē"}},{"name":"Korem","latitude":"12.50583000","longitude":"39.52278000","native":"ኮሬ","translations":{"br":"Korem","ko":"코렘","pt-BR":"Korem","pt":"Korem","nl":"Korem","hr":"Korem","fa":"کورم","de":"Korem","es":"Korem","fr":"Korem","ja":"コレム","it":"Korem","zh-CN":"科雷姆","tr":"Korem","ru":"Корем","uk":"Корем","pl":"Korem","hi":"कोरेम","ar":"كوريم","hy":"Korem"}},{"name":"Maych’ew","latitude":"12.78750000","longitude":"39.54222000","native":"ማይክ","translations":{"br":"Maych’ew","ko":"메이추","pt-BR":"Maych'ew","pt":"Maych'ew","nl":"Maych'ew","hr":"Maych'ew","fa":"مایچو","de":"Maych’ew","es":"Maych'ew","fr":"Maych'ew","ja":"メイチュウ","it":"Maych'ew","zh-CN":"梅丘","tr":"Maych'ew","ru":"Мейчев","uk":"Майч'ю","pl":"Maych’ew","hi":"मेचेव","ar":"مايتشو"}},{"name":"Mek'ele","latitude":"13.49667000","longitude":"39.47528000","native":"መቀሌ","translations":{"br":"Mek'ele","ko":"메켈레","pt-BR":"Mek'ele","pt":"Mek'ele","nl":"Mek'ele","hr":"Mek'ele","fa":"مکله","de":"Mek’ele","es":"Mek'ele","fr":"Mek'ele","ja":"メケレ","it":"Mek'ele","zh-CN":"默克莱","tr":"Mek'ele","ru":"Мэкэле","uk":"Мекеле","pl":"Mek'ele","hi":"मेकेले","ar":"ميكيلي","hy":"Mek'ele"}},{"name":"Southeastern Tigray Zone","latitude":"13.24797000","longitude":"39.53156000","native":"የደቡብ ምስራቅ የትግራይ ዞን","translations":{"br":"Rannvro gevred Tigray","ko":"동남부 티그라이 지역","pt-BR":"Zona Sudeste de Tigray","pt":"Zona Sudeste de Tigray","nl":"Zuidoostelijke Tigray-zone","hr":"Jugoistočna zona Tigray","fa":"منطقه جنوب شرقی تیگری","de":"Südöstliche Tigray-Zone","es":"Zona sureste de Tigray","fr":"Zone du sud-est du Tigré","ja":"南東ティグライ","it":"Zona del Tigray sud-orientale","zh-CN":"东南提格雷区","tr":"Güneydoğu Tigray Bölgesi","ru":"Юго-восточная зона Тыграй","uk":"Південно-східна зона Тігрей","pl":"Strefa południowo-wschodniego Tigraju","hi":"दक्षिणपूर्वी टाइग्रे क्षेत्र","ar":"منطقة جنوب شرق تيغراي","hy":"Southeastern Tigray Zone"}},{"name":"Southern Tigray Zone","latitude":"12.96033000","longitude":"39.52831000","native":"የደቡብ ትግርኛ ዞን","translations":{"br":"Rannvro Su Tigray","ko":"남부 티그레이 지역","pt-BR":"Zona Sul de Tigray","pt":"Zona Sul de Tigray","nl":"Zuidelijke Tigray-zone","hr":"Južna zona Tigray","fa":"منطقه تیگرای جنوبی","de":"Südliche Tigray-Zone","es":"Zona Sur de Tigray","fr":"Zone du Tigré Sud","ja":"南ティグレ","it":"Zona del Tigray meridionale","zh-CN":"南提格雷地区","tr":"Güney Tigray Bölgesi","ru":"Южная зона Тыграй","uk":"Південна зона Тігрей","pl":"Strefa Południowego Tigraju","hi":"दक्षिणी टाइग्रे क्षेत्र","ar":"منطقة تيغراي الجنوبية","hy":"Southern Tigray Zone"}}]}]}