{"code":"FJ","states":[{"name":"Ba","state_code":"01","latitude":"36.06138930","longitude":"-95.80058720","cities":[]},{"name":"Bua","state_code":"02","latitude":"43.09645840","longitude":"-89.50088000","cities":[]},{"name":"Cakaudrove","state_code":"03","latitude":"-16.58141050","longitude":"179.51200840","cities":[]},{"name":"Central Division","state_code":"C","latitude":"34.04400660","longitude":"-118.24727380","cities":[{"name":"Naitasiri Province","latitude":"-17.83333000","longitude":"178.25000000","translations":{"ru":"Провинция Наитасири","hy":"Նայտասիրի մարզ"}},{"name":"Namosi Province","latitude":"-18.05000000","longitude":"178.13333000","translations":{"ru":"Провинция Намоси","hy":"Նամոսի մարզ"}},{"name":"Rewa Province","latitude":"-18.08333000","longitude":"178.33333000","translations":{"ru":"Провинция Река","hy":"Ռեվա մարզ"}},{"name":"Serua Province","latitude":"-18.16667000","longitude":"178.00000000","translations":{"ru":"Провинция Серуа","hy":"Սերուա մարզ"}},{"name":"Suva","latitude":"-18.14161000","longitude":"178.44149000","native":"Suva","translations":{"br":"Suva","ko":"수바","pt-BR":"Suva","pt":"Suva","nl":"Suva","hr":"Suva","fa":"سووا","de":"Suva","es":"Suva","fr":"Suva","ja":"スバ","it":"Suva","zh-CN":"苏瓦","tr":"Suva","ru":"Сува","uk":"Сува","pl":"Suva","hi":"सुवा","ar":"سوفا","hy":"Սուվա"}},{"name":"Tailevu Province","latitude":"-17.83333000","longitude":"178.50000000","translations":{"ru":"Провинция Таилеву","hy":"Թայլևու մարզ"}}]},{"name":"Eastern Division","state_code":"E","latitude":"32.80943050","longitude":"-117.12899370","cities":[{"name":"Kadavu Province","latitude":"-18.99331000","longitude":"178.22021000","translations":{"ru":"Провинция Кадаву","hy":"Կադավու մարզ"}},{"name":"Lau Province","latitude":"-18.20488000","longitude":"-178.79251000","translations":{"ru":"Провинция Лау","hy":"Լաու մարզ"}},{"name":"Levuka","latitude":"-18.06667000","longitude":"179.31667000","native":"Levuka","translations":{"br":"Levuka","ko":"레부카","pt-BR":"Levuka","pt":"Levuka","nl":"Levuka","hr":"Levuka","fa":"لِووکا","de":"Levuka","es":"Levuka","fr":"Levuka","ja":"レブカ","it":"Levuka","zh-CN":"莱武卡","tr":"Levuka","ru":"Левука","uk":"Левука","pl":"Levuka","hi":"लेवुका","ar":"ليفوكا","hy":"Լևուկա"}},{"name":"Lomaiviti Province","latitude":"-17.66667000","longitude":"178.80000000","translations":{"ru":"Провинция Ломаивити","hy":"Լոմայվիտի մարզ"}}]},{"name":"Kadavu","state_code":"04","latitude":"-19.01271220","longitude":"178.18766760","cities":[]},{"name":"Lau","state_code":"05","latitude":"31.66870150","longitude":"-106.39557630","cities":[]},{"name":"Lomaiviti","state_code":"06","latitude":"-17.70900000","longitude":"179.09100000","cities":[]},{"name":"Macuata","state_code":"07","latitude":"-16.48649220","longitude":"179.28472510","cities":[]},{"name":"Nadroga-Navosa","state_code":"08","latitude":"-17.98652780","longitude":"177.65811300","cities":[]},{"name":"Naitasiri","state_code":"09","latitude":"-17.89757540","longitude":"178.20715980","cities":[]},{"name":"Namosi","state_code":"10","latitude":"-18.08641760","longitude":"178.12913870","cities":[]},{"name":"Northern Division","state_code":"N","latitude":"32.87687660","longitude":"-117.21563450","cities":[{"name":"Bua Province","latitude":"-16.83333000","longitude":"178.75000000","translations":{"ru":"Провинция Буа","hy":"Բուա մարզ"}},{"name":"Cakaudrove Province","latitude":"-16.66667000","longitude":"179.41667000","translations":{"ru":"Провинция Какауддрове","hy":"Չակաուդրովե մարզ"}},{"name":"Labasa","latitude":"-16.43320000","longitude":"179.36451000","native":"Labasa","translations":{"br":"Labasa","ko":"라바사","pt-BR":"Labasa","pt":"Labasa","nl":"Labasa","hr":"Labasa","fa":"لاباسا","de":"Labasa","es":"Labasa","fr":"Labasa","ja":"ラバサ","it":"Labasa","zh-CN":"拉巴萨","tr":"Labasa","ru":"Лабаса","uk":"Лабаса","pl":"Labasa","hi":"लाबासा","ar":"لاباسا","hy":"Լաբասա"}},{"name":"Macuata Province","latitude":"-16.50000000","longitude":"179.25000000","translations":{"ru":"Провинция Макуата","hy":"Մակուատա մարզ"}}]},{"name":"Ra","state_code":"11","latitude":"37.10031530","longitude":"-95.67442460","cities":[]},{"name":"Rewa","state_code":"12","latitude":"34.79235170","longitude":"-82.36092640","cities":[]},{"name":"Rotuma","state_code":"R","latitude":"-12.50250690","longitude":"177.07241640","cities":[]},{"name":"Serua","state_code":"13","latitude":"-18.18047490","longitude":"178.05097900","cities":[]},{"name":"Tailevu","state_code":"14","latitude":"-17.82691110","longitude":"178.29324800","cities":[]},{"name":"Western Division","state_code":"W","latitude":"42.96621980","longitude":"-78.70211340","cities":[{"name":"Ba","latitude":"-17.53430000","longitude":"177.67407000","native":"Ba","translations":{"br":"Ba","ko":"바","pt-BR":"Ba","pt":"Ba","nl":"Ba","hr":"Ba","fa":"با","de":"Ba","es":"Licenciado en Letras","fr":"Ba","ja":"バ","it":"Ba","zh-CN":"巴","tr":"Ba","ru":"Ба","uk":"Ба","pl":"Ba","hi":"बी ० ए","ar":"با","hy":"Բա"}},{"name":"Ba Province","latitude":"-17.66667000","longitude":"177.66667000","native":"Ba Province","translations":{"br":"Proviñs Ba","ko":"바성","pt-BR":"Província de Ba","pt":"Província de Ba","nl":"Provincie Ba","hr":"Provincija Ba","fa":"استان با","de":"Provinz Ba","es":"Provincia de Ba","fr":"Province de Ba","ja":"バ省","it":"Provincia di Ba","zh-CN":"巴省","tr":"Ba Eyaleti","ru":"Провинция Ба","uk":"Провінція Ба","pl":"Prowincja Ba","hi":"बा प्रांत","ar":"مقاطعة با","hy":"Բա մարզ"}},{"name":"Lautoka","latitude":"-17.61686000","longitude":"177.45049000","native":"It comes out","translations":{"br":"Lautoka","ko":"라우토카","pt-BR":"Lautoka","pt":"Lautoka","nl":"Lautoka","hr":"Lautoka","fa":"لاوتوکا","de":"Lautoka","es":"Lautoka","fr":"Lautoka","ja":"ラウトカ","it":"Lautoka","zh-CN":"劳托卡","tr":"Lautoka","ru":"Лаутока","uk":"Лаутока","pl":"Lautoka","hi":"लौतोका","ar":"لاوتوكا","hy":"Լաուտոկա"}},{"name":"Nadi","latitude":"-17.80309000","longitude":"177.41617000","native":"Nadi","translations":{"br":"Nadi","ko":"나디","pt-BR":"Nadi","pt":"Nadi","nl":"Nadi","hr":"Nadi","fa":"نادی","de":"Nadi","es":"Nadi","fr":"Nadi","ja":"ナンディ","it":"Nadi","zh-CN":"纳迪","tr":"Nadi","ru":"Нади","uk":"Наді","pl":"Nadi","hi":"नाड़ी","ar":"نادي","hy":"Նադի"}},{"name":"Nandronga and Navosa Province","latitude":"-18.00000000","longitude":"177.66667000","translations":{"ru":"Провинция Нандронга и Навоса","hy":"Նանդրոնգա և Նավոսա մարզ"}},{"name":"Ra Province","latitude":"-17.50000000","longitude":"178.16667000","translations":{"ru":"Провинция Ра","hy":"Ռա մարզ"}}]}]}