{"code":"GD","states":[{"name":"Carriacou and Petite Martinique","state_code":"10","latitude":"12.47858880","longitude":"-61.44938420","cities":[{"name":"Hillsborough","latitude":"12.48292000","longitude":"-61.45597000","native":"Hillsborough","translations":{"br":"Hillsborough","ko":"힐스버러","pt-BR":"Hillsborough","pt":"Hillsborough","nl":"Hillsborough","hr":"Hillsborough","fa":"هیلزبورو","de":"Hillsborough","es":"Hillsborough","fr":"Hillsborough","ja":"ヒルズボロ","it":"Hillsborough","zh-CN":"希尔斯伯勒","tr":"Hillsborough","ru":"Хиллсборо","uk":"Гіллсборо","pl":"Hillsborough","hi":"Hillsborough","ar":"هيلزبورو"}}]},{"name":"Saint Andrew Parish","state_code":"01","latitude":null,"longitude":null,"cities":[{"name":"Grenville","latitude":"12.12278000","longitude":"-61.62498000","native":"Grenville","translations":{"br":"Grenville","ko":"그렌빌","pt-BR":"Grenville","pt":"Grenville","nl":"Grenville","hr":"Grenville","fa":"گرنویل","de":"Grenville","es":"Grenville","fr":"Grenville","ja":"グレンヴィル","it":"Grenville","zh-CN":"格伦维尔","tr":"Grenville","ru":"Гренвилл","uk":"Гренвілл","pl":"Grenville","hi":"ग्रेन्विल","ar":"غرينفيل"}}]},{"name":"Saint David Parish","state_code":"02","latitude":null,"longitude":null,"cities":[{"name":"Saint David’s","latitude":"12.04903000","longitude":"-61.66875000","native":"Saint David’s","translations":{"br":"Sant David","ko":"세인트 데이비드","pt-BR":"São David","pt":"São David","nl":"Sint-Davids","hr":"Sveti David","fa":"سنت دیوید","de":"St. Davids","es":"San David","fr":"Saint-David","ja":"セント・デイヴィッド","it":"San Davide","zh-CN":"圣大卫","tr":"Aziz David","ru":"Сент-Дэвидс","uk":"Святий Давид","pl":"Święty Dawid","hi":"सेंट डेविड","ar":"القديس ديفيد"}}]},{"name":"Saint George Parish","state_code":"03","latitude":null,"longitude":null,"cities":[{"name":"Saint George's","latitude":"12.05288000","longitude":"-61.75226000","native":"Saint George's","translations":{"br":"Sant Jorj","ko":"세인트 조지","pt-BR":"São Jorge","pt":"São Jorge","nl":"Sint-Joris","hr":"Sveti Jure","fa":"سنت جورج","de":"St. Georg","es":"San Jorge","fr":"Saint-Georges","ja":"セントジョージ","it":"San Giorgio","zh-CN":"圣乔治","tr":"Aziz George","ru":"Сент-Джордж","uk":"Святого Георгія","pl":"Świętego Jerzego","hi":"सेंट जॉर्ज","ar":"سانت جورج"}}]},{"name":"Saint John Parish","state_code":"04","latitude":"30.11183310","longitude":"-90.48799160","cities":[{"name":"Gouyave","latitude":"12.16462000","longitude":"-61.72965000","native":"Fruit","translations":{"br":"Gouyave","ko":"고야베","pt-BR":"Gouyave","pt":"Gouyave","nl":"Gouyave","hr":"Gouyave","fa":"گویاو","de":"Gouyave","es":"Gouyave","fr":"Gouyave","ja":"グヤヴェ","it":"Gouyave","zh-CN":"古亚夫","tr":"Gouyave","ru":"Гуяве","uk":"Гуяве","pl":"Gouyave","hi":"गौयावे","ar":"جوييف"}}]},{"name":"Saint Mark Parish","state_code":"05","latitude":"40.58818630","longitude":"-73.94957010","cities":[{"name":"Victoria","latitude":"12.19021000","longitude":"-61.70677000","native":"Victoria","translations":{"br":"Victoria","ko":"빅토리아","pt-BR":"Vitória","pt":"Vitória","nl":"Victoria","hr":"Viktorija","fa":"ویکتوریا","de":"Viktoria","es":"Victoria","fr":"Victoria","ja":"ビクトリア","it":"Vittoria","zh-CN":"维多利亚","tr":"Victoria","ru":"Виктория","uk":"Вікторія","pl":"Wiktoria","hi":"विक्टोरिया","ar":"فيكتوريا"}}]},{"name":"Saint Patrick Parish","state_code":"06","latitude":null,"longitude":null,"cities":[{"name":"Sauteurs","latitude":"12.21833000","longitude":"-61.63917000","native":"Jumper","translations":{"br":"Saouterien","ko":"소테르","pt-BR":"Sauteurs","pt":"Sauteurs","nl":"Sauteurs","hr":"Sauteurs","fa":"سوترها","de":"Sauteure","es":"Sauteurs","fr":"Sautés","ja":"ソトゥール","it":"Sauteurs","zh-CN":"索特尔斯","tr":"Soteciler","ru":"Сотееры","uk":"Сотерс","pl":"Sauteurs","hi":"सॉटर्स","ar":"سوتيرز"}}]}]}