{"code":"GN","states":[{"name":"Beyla Prefecture","state_code":"BE","latitude":"8.91981780","longitude":"-8.30884410","cities":[]},{"name":"Boffa Prefecture","state_code":"BF","latitude":"10.18082540","longitude":"-14.03916150","cities":[]},{"name":"Boké Prefecture","state_code":"BK","latitude":"11.08473790","longitude":"-14.37919120","cities":[]},{"name":"Boké Region","state_code":"B","latitude":"11.18646720","longitude":"-14.10013260","cities":[{"name":"Boffa","latitude":"10.33333000","longitude":"-14.16667000","native":"Lampe","translations":{"br":"Boffa","ko":"보파","pt-BR":"Boffa","pt":"Boffa","nl":"Boffa","hr":"Boffa","fa":"بوفا","de":"Boffa","es":"Boffa","fr":"Boffa","ja":"ボッファ","it":"Boffa","zh-CN":"博法","tr":"Boffa","ru":"Боффа","uk":"Боффа","pl":"Boffa","hi":"बोफ़ा","ar":"بوفا","hy":"Բոֆա"}},{"name":"Boké","latitude":"10.93217000","longitude":"-14.29055000","native":"Boké","translations":{"br":"Levrioù","ko":"보케","pt-BR":"Boké","pt":"Boké","nl":"Boké","hr":"Boke","fa":"بوکه","de":"Boké","es":"Boké","fr":"Boké","ja":"ボケ","it":"Boké","zh-CN":"博凯","tr":"Boké","ru":"Боке","uk":"Боке","pl":"Boké","hi":"बोक","ar":"بوكي","hy":"Բոկե"}},{"name":"Boke Prefecture","latitude":"11.08333000","longitude":"-14.41667000","native":"Préfecture de boke","translations":{"br":"Prefeti Boke","ko":"보케현","pt-BR":"Prefeitura de Boke","pt":"Prefeitura de Boke","nl":"Prefectuur Boke","hr":"Prefektura Boke","fa":"استان بوکه","de":"Präfektur Boke","es":"Prefectura de Boke","fr":"Préfecture de Boké","ja":"ボケ県","it":"Prefettura di Boke","zh-CN":"博凯县","tr":"Boke Eyaleti","ru":"Префектура Боке","uk":"Префектура Боке","pl":"Prefektura Boke","hi":"बोके प्रान्त","ar":"محافظة بوكي","hy":"Բոկե Նահանգ"}},{"name":"Fria","latitude":"10.41667000","longitude":"-13.58333000","native":"Gratuit","translations":{"br":"Fria","ko":"프리아","pt-BR":"Fria","pt":"Fria","nl":"Fria","hr":"Fria","fa":"فریا","de":"Fria","es":"Fría","fr":"Fria","ja":"フリア","it":"Fria","zh-CN":"弗里亚","tr":"Fria","ru":"Фриа","uk":"Фріа","pl":"Fria","hi":"फ्रिया","ar":"فريا","hy":"Ֆրիա"}},{"name":"Gaoual","latitude":"11.75000000","longitude":"-13.20000000","native":"Gaoual","translations":{"br":"Gaoual","ko":"가우알","pt-BR":"Gaoual","pt":"Gaoual","nl":"Gaoual","hr":"Gaoual","fa":"گاوال","de":"Gaoual","es":"Gaual","fr":"Gaoual","ja":"ガオアル","it":"Gaoual","zh-CN":"加瓦尔","tr":"Gauual","ru":"Гауаль","uk":"Гауал","pl":"Gaoual","hi":"गाऔल","ar":"غاوال","hy":"Գաուալ"}},{"name":"Gaoual Prefecture","latitude":"11.75000000","longitude":"-13.20000000","native":"Préfecture gaoual","translations":{"br":"Prefeti Gaoual","ko":"가우알 현","pt-BR":"Prefeitura de Gaoual","pt":"Prefeitura de Gaoual","nl":"Prefectuur Gaoual","hr":"Prefektura Gaoual","fa":"استان گاوال","de":"Präfektur Gaoual","es":"Prefectura de Gaoual","fr":"Préfecture de Gaoual","ja":"ガオアル県","it":"Prefettura di Gaoual","zh-CN":"加瓦尔省","tr":"Gaoual Eyaleti","ru":"Префектура Гауаль","uk":"Префектура Гауал","pl":"Prefektura Gaoual","hi":"गौआल प्रान्त","ar":"محافظة غاوال","hy":"Գաուալ Նահանգ"}},{"name":"Kimbo","latitude":"10.40000000","longitude":"-13.55000000","native":"Kimbo","translations":{"br":"Kimbo","ko":"킴보","pt-BR":"Kimbo","pt":"Kimbo","nl":"Kimbo","hr":"Kimbo","fa":"کیمبو","de":"Kimbo","es":"Kimbo","fr":"Kimbo","ja":"キンボ","it":"Kimbo","zh-CN":"金博","tr":"Kimbo","ru":"Кимбо","uk":"Кімбо","pl":"Kimbo","hi":"किम्बो","ar":"كيمبو","hy":"Կիմբո"}},{"name":"Koundara","latitude":"12.48333000","longitude":"-13.30000000","native":"Koundara","translations":{"br":"Koundara","ko":"카운다라","pt-BR":"Koundara","pt":"Koundara","nl":"Koundara","hr":"Koundara","fa":"کوندارا","de":"Koundara","es":"Koundara","fr":"Koundara","ja":"クンダラ","it":"Koundara","zh-CN":"孔达拉","tr":"Koundara","ru":"Кундара","uk":"Кундара","pl":"Koundara","hi":"कौंदरा","ar":"كوندارا","hy":"Կունդարա"}},{"name":"Koundara Prefecture","latitude":"12.41667000","longitude":"-13.16667000","native":"Préfecture de Koundara","translations":{"br":"Prefeti Koundara","ko":"카운다라 현","pt-BR":"Prefeitura de Koundara","pt":"Prefeitura de Koundara","nl":"Prefectuur Koundara","hr":"Prefektura Koundara","fa":"استان کوندارا","de":"Präfektur Koundara","es":"Prefectura de Koundara","fr":"Préfecture de Koundara","ja":"クンダラ県","it":"Prefettura di Koundara","zh-CN":"孔达拉州","tr":"Koundara Eyaleti","ru":"Префектура Кундара","uk":"Префектура Кундара","pl":"Prefektura Koundara","hi":"कुंडारा प्रान्त","ar":"محافظة كوندارا","hy":"Կունդարա Նահանգ"}},{"name":"Sanguéya","latitude":"10.70000000","longitude":"-14.36667000","native":"Sanguéya","translations":{"br":"Sanguéya","ko":"상게야","pt-BR":"Sanguéya","pt":"Sanguéya","nl":"Sanguéya","hr":"Sangueya","fa":"سانگوئیا","de":"Sanguéya","es":"Sanguéya","fr":"Sanguéya","ja":"サンゲヤ","it":"Sanguéya","zh-CN":"桑格亚","tr":"Sanguéya","ru":"Сангуэйя","uk":"Сангея","pl":"Krwawa","hi":"संगुएया","ar":"سانغويا","hy":"Սանգուեյա"}},{"name":"Youkounkoun","latitude":"12.53110000","longitude":"-13.12240000","native":"Youkumounk","translations":{"br":"Youkounkoun","ko":"유쿤쿤","pt-BR":"Youkounkoun","pt":"Youkounkoun","nl":"Youkounkoun","hr":"Youkounkoun","fa":"یوکونکون","de":"Youkounkoun","es":"Youkounkoun","fr":"Youkounkoun","ja":"ヨウクンクン","it":"Youkounkoun","zh-CN":"尤孔孔恩","tr":"Youkounkoun","ru":"Юкункоун","uk":"Йокункун","pl":"Youkounkoun","hi":"यूकोउनकोउन","ar":"يوكونكون","hy":"Յուկունկուն"}}]},{"name":"Conakry","state_code":"C","latitude":"9.64118550","longitude":"-13.57840120","cities":[{"name":"Camayenne","latitude":"9.53500000","longitude":"-13.68778000","native":"Camayenne","translations":{"br":"Camayenne","ko":"카마옌","pt-BR":"Camayenne","pt":"Camayenne","nl":"Camayenne","hr":"Camayenne","fa":"کاماین","de":"Camayenne","es":"Camayenne","fr":"Camayenne","ja":"カマイエンヌ","it":"Camayenne","zh-CN":"卡马延","tr":"Camayenne","ru":"Камайенна","uk":"Камаєнн","pl":"Camayenne","hi":"कैमायने","ar":"كامايين","hy":"Կամայեն"}},{"name":"Conakry","latitude":"9.53795000","longitude":"-13.67729000","native":"Conakry","translations":{"br":"Konakri","ko":"코나크리","pt-BR":"Conacri","pt":"Conacri","nl":"Conakry","hr":"Konakri","fa":"کوناکری","de":"Conakry","es":"Conakry","fr":"Conakry","ja":"コナクリ","it":"Conakry","zh-CN":"科纳克里","tr":"Konakri","ru":"Конакри","uk":"Конакрі","pl":"Konakri","hi":"कोनाक्री","ar":"كوناكري","hy":"Կոնակրի"}}]},{"name":"Coyah Prefecture","state_code":"CO","latitude":"9.77155350","longitude":"-13.31252990","cities":[]},{"name":"Dabola Prefecture","state_code":"DB","latitude":"10.72978060","longitude":"-11.11078540","cities":[]},{"name":"Dalaba Prefecture","state_code":"DL","latitude":"10.68681760","longitude":"-12.24906970","cities":[]},{"name":"Dinguiraye Prefecture","state_code":"DI","latitude":"11.68442220","longitude":"-10.80000510","cities":[]},{"name":"Dubréka Prefecture","state_code":"DU","latitude":"9.79073480","longitude":"-13.51477350","cities":[]},{"name":"Faranah Prefecture","state_code":"FA","latitude":"9.90573990","longitude":"-10.80000510","cities":[]},{"name":"Forécariah Prefecture","state_code":"FO","latitude":"9.38861870","longitude":"-13.08179030","cities":[]},{"name":"Fria Prefecture","state_code":"FR","latitude":"10.36745430","longitude":"-13.58418710","cities":[]},{"name":"Gaoual Prefecture","state_code":"GA","latitude":"11.57628040","longitude":"-13.35872880","cities":[]},{"name":"Guéckédou Prefecture","state_code":"GU","latitude":"8.56496880","longitude":"-10.13111630","cities":[]},{"name":"Kankan Prefecture","state_code":"KA","latitude":"10.30344650","longitude":"-9.36730840","cities":[]},{"name":"Kankan Region","state_code":"K","latitude":"10.12092300","longitude":"-9.54509740","cities":[{"name":"Kankan","latitude":"10.38542000","longitude":"-9.30568000","native":"Non","translations":{"br":"Kankan","ko":"칸칸","pt-BR":"Kankan","pt":"Kankan","nl":"Kankan","hr":"Kankan","fa":"کانکان","de":"Kankan","es":"Kankan","fr":"Kankan","ja":"カンカン","it":"Kankan","zh-CN":"康康","tr":"Kankan","ru":"Канкан","uk":"Канкан","pl":"Kankan","hi":"कंकन","ar":"كانكان","hy":"Կանկան"}},{"name":"Kankan Prefecture","latitude":"10.27100000","longitude":"-9.17800000","native":"Préfecture kankenne","translations":{"br":"Prefeti Kankan","ko":"칸칸현","pt-BR":"Prefeitura de Kankan","pt":"Prefeitura de Kankan","nl":"Prefectuur Kankan","hr":"Prefektura Kankan","fa":"استان کانکان","de":"Präfektur Kankan","es":"Prefectura de Kankan","fr":"Préfecture de Kankan","ja":"カンカン県","it":"Prefettura di Kankan","zh-CN":"康康县","tr":"Kankan Eyaleti","ru":"Префектура Канкан","uk":"Префектура Канкан","pl":"Prefektura Kankan","hi":"कंकन प्रान्त","ar":"محافظة كانكان","hy":"Կանկան Նահանգ"}},{"name":"Kérouané","latitude":"9.26667000","longitude":"-9.01667000","native":"Bronzé","translations":{"br":"Kérouané","ko":"케루아네","pt-BR":"Kérouané","pt":"Kérouané","nl":"Kérouané","hr":"Kérouané","fa":"کروانه","de":"Kérouané","es":"Kérouané","fr":"Kérouané","ja":"ケルアネ","it":"Kérouané","zh-CN":"凯鲁瓦内","tr":"Kerouané","ru":"Керуане","uk":"Керуане","pl":"Kérouané","hi":"केरौने","ar":"كيروان","hy":"Կերուանե"}},{"name":"Kerouane Prefecture","latitude":"9.16667000","longitude":"-9.08333000","native":"Préfecture de Kerouane","translations":{"br":"Prefeti Kerouane","ko":"케루안 현","pt-BR":"Prefeitura de Kerouane","pt":"Prefeitura de Kerouane","nl":"Prefectuur Kerouane","hr":"Prefektura Kerouane","fa":"استان کروآن","de":"Präfektur Kerouane","es":"Prefectura de Kerouane","fr":"Préfecture de Kérouane","ja":"ケルアン県","it":"Prefettura di Kerouane","zh-CN":"凯鲁万县","tr":"Kerouane Eyaleti","ru":"Префектура Керуан","uk":"Префектура Керуане","pl":"Prefektura Kerouane","hi":"केरौआने प्रान्त","ar":"ولاية القيروان","hy":"Կերուանե Նահանգ"}},{"name":"Kouroussa","latitude":"10.66667000","longitude":"-9.91667000","native":"Kouroussa","translations":{"br":"Koouroussa","ko":"쿠루사","pt-BR":"Kouroussa","pt":"Kouroussa","nl":"Kouroussa","hr":"Kuroussa","fa":"کوروسا","de":"Kouroussa","es":"Kouroussa","fr":"Kouroussa","ja":"クルサ","it":"Kouroussa","zh-CN":"库鲁萨","tr":"Kouroussa","ru":"Курусса","uk":"Куруса","pl":"Kouroussa","hi":"कौरौस्स","ar":"كوروسا","hy":"Կուրուսա"}},{"name":"Mandiana","latitude":"10.62577000","longitude":"-8.69413000","native":"Couverture","translations":{"br":"Mandiana","ko":"맨디아나","pt-BR":"Mandiana","pt":"Mandiana","nl":"Mandiana","hr":"Mandiana","fa":"ماندیانا","de":"Mandiana","es":"Mandiana","fr":"Mandiana","ja":"マンディアナ","it":"Mandiana","zh-CN":"曼迪亚纳","tr":"Mandiana","ru":"Мандиана","uk":"Мандіана","pl":"Mandiana","hi":"मन्दिआना","ar":"مانديانا","hy":"Մանդիանա"}},{"name":"Mandiana Prefecture","latitude":"10.65800000","longitude":"-8.61500000","native":"Préfecture de mandiana","translations":{"br":"Prefeti Mandiana","ko":"맨디아나 현","pt-BR":"Prefeitura de Mandiana","pt":"Prefeitura de Mandiana","nl":"Prefectuur Mandiana","hr":"Prefektura Mandiana","fa":"استان ماندیانا","de":"Präfektur Mandiana","es":"Prefectura de Mandiana","fr":"Préfecture de Mandiana","ja":"マンディアナ県","it":"Prefettura di Mandiana","zh-CN":"曼迪亚纳县","tr":"Mandiana Eyaleti","ru":"Префектура Мандиана","uk":"Префектура Мандіана","pl":"Prefektura Mandiana","hi":"मंडियाना प्रान्त","ar":"محافظة مانديانا","hy":"Մանդիանա Նահանգ"}},{"name":"Siguiri","latitude":"11.42282000","longitude":"-9.16852000","native":"Siguiri","translations":{"br":"Siguiri","ko":"시기리","pt-BR":"Siguiri","pt":"Siguiri","nl":"Siguiri","hr":"Siguiri","fa":"سیگوییری","de":"Siguiri","es":"Siguiri","fr":"Siguiri","ja":"シギリ","it":"Siguiri","zh-CN":"西吉里","tr":"Siguiri","ru":"Сигири","uk":"Сігуїрі","pl":"Siguiri","hi":"सिगुइरि","ar":"سيجويري","hy":"Սիգուիրի"}},{"name":"Siguiri Prefecture","latitude":"11.66667000","longitude":"-9.50000000","native":"Siguiri Prefecture","translations":{"br":"Prefeti Siguiri","ko":"시기리 현","pt-BR":"Prefeitura de Siguiri","pt":"Prefeitura de Siguiri","nl":"Prefectuur Siguiri","hr":"Prefektura Siguiri","fa":"استان سیگوییری","de":"Präfektur Siguiri","es":"Prefectura de Siguiri","fr":"Préfecture de Siguiri","ja":"シギリ県","it":"Prefettura di Siguiri","zh-CN":"锡吉里县","tr":"Siguiri Eyaleti","ru":"Префектура Сигири","uk":"Префектура Сігуїрі","pl":"Prefektura Siguiri","hi":"सिगुइरी प्रान्त","ar":"محافظة سيجويري","hy":"Սիգուիրի Նահանգ"}},{"name":"Tokonou","latitude":"9.65000000","longitude":"-9.78333000","native":"Prier","translations":{"br":"Tokonou","ko":"토코노우","pt-BR":"Tokonou","pt":"Tokonou","nl":"Tokonou","hr":"Tokonou","fa":"توکونو","de":"Tokonou","es":"Tokonou","fr":"Tokonou","ja":"トコノウ","it":"Tokonou","zh-CN":"常野","tr":"Tokonou","ru":"Токоноу","uk":"Токоноу","pl":"Tokonou","hi":"टोकोनोउ","ar":"توكونو","hy":"Տոկոնու"}}]},{"name":"Kérouané Prefecture","state_code":"KE","latitude":"9.25366430","longitude":"-9.01289260","cities":[]},{"name":"Kindia Prefecture","state_code":"KD","latitude":"10.10132920","longitude":"-12.71351210","cities":[]},{"name":"Kindia Region","state_code":"D","latitude":"10.17816940","longitude":"-12.98961500","cities":[{"name":"Coyah","latitude":"9.75000000","longitude":"-13.41667000","native":"Coyah","translations":{"br":"Coyah","ko":"코야","pt-BR":"Coyah","pt":"Coyah","nl":"Coyah","hr":"Coyah","fa":"کویا","de":"Coyah","es":"Coyah","fr":"Coyah","ja":"コヤ","it":"Coyah","zh-CN":"科亚","tr":"Coyah","ru":"Койя","uk":"Коя","pl":"Coyah","hi":"कोयह","ar":"كوياه","hy":"Կոյա"}},{"name":"Dubréka","latitude":"9.79111000","longitude":"-13.52333000","native":"Surnommer","translations":{"br":"Dubréka","ko":"두브레카","pt-BR":"Dubreka","pt":"Dubreka","nl":"Dubréka","hr":"Dubréka","fa":"دوبرکا","de":"Dubréka","es":"Dubreka","fr":"Dubréka","ja":"ドゥブレカ","it":"Dubréka","zh-CN":"杜布雷卡","tr":"Dubréka","ru":"Дубрека","uk":"Дубрека","pl":"Dubréka","hi":"डबरेका","ar":"دوبريكا","hy":"Դուբրեկա"}},{"name":"Forécariah","latitude":"9.43056000","longitude":"-13.08806000","native":"Florécariah","translations":{"br":"Forécariah","ko":"포레카리아","pt-BR":"Forécariah","pt":"Forécariah","nl":"Forécariah","hr":"Forécariah","fa":"فورکاریا","de":"Forécariah","es":"Forécariah","fr":"Forécariah","ja":"フォレカリア","it":"Forécariah","zh-CN":"福雷卡里亚","tr":"Forécariah","ru":"Форекария","uk":"Форекарія","pl":"Forécariah","hi":"फोरेकारिया","ar":"فوريكاريا","hy":"Ֆորեկարիա"}},{"name":"Kindia","latitude":"10.08333000","longitude":"-12.80000000","native":"Kindia","translations":{"br":"Kindia","ko":"킨디아","pt-BR":"Kindia","pt":"Kindia","nl":"Kindia","hr":"Kindia","fa":"کیندیا","de":"Kindia","es":"Kindia","fr":"Kindia","ja":"キンディア","it":"Kindia","zh-CN":"金迪亚","tr":"Kindia","ru":"Киндия","uk":"Кіндія","pl":"Kindia","hi":"किंडिया","ar":"كينديا","hy":"Կինդիա"}},{"name":"Préfecture de Dubréka","latitude":"10.25000000","longitude":"-13.41667000","native":"Préfecture de Dubréka","translations":{"br":"Prefeti Dubreka","ko":"두브레카 주","pt-BR":"Préfecture de Dubréka","pt":"Préfecture de Dubréka","nl":"Préfecture de Dubréka","hr":"Prefektura Dubréka","fa":"استان دوبرکا","de":"Präfektur Dubréka","es":"Prefectura de Dubréka","fr":"Préfecture de Dubréka","ja":"ドゥブレカ県","it":"Prefettura di Dubréka","zh-CN":"杜布雷卡县","tr":"Dubréka Valiliği","ru":"Préfecture de Dubréka","uk":"Префектура Дубрека","pl":"Prefektura Dubréka","hi":"डुब्रेका प्रान्त","ar":"محافظة دوبريكا","hy":"Դուբրեկա Նահանգ"}},{"name":"Préfecture de Forécariah","latitude":"9.43333000","longitude":"-13.10000000","native":"Préfecture de Forécariah","translations":{"br":"Prefeti ar Forekaria","ko":"포레카리아 주","pt-BR":"Préfecture de Forécariah","pt":"Préfecture de Forécariah","nl":"Préfecture de Forécariah","hr":"Prefektura Forécariah","fa":"استان فورکاریا","de":"Präfektur Forécariah","es":"Prefectura de Forécariah","fr":"Préfecture de Forécariah","ja":"フォレカリア県","it":"Prefettura di Forécariah","zh-CN":"福雷卡里亚县","tr":"Forécariah Valiliği","ru":"Префектура Форекариа","uk":"Префектура Форекарія","pl":"Prefektura Forécariah","hi":"Préfecture de Forécariah","ar":"Préfecture de Forécariah","hy":"Ֆորեկարիա Նահանգ"}},{"name":"Télimélé","latitude":"10.90000000","longitude":"-13.03333000","native":"Bord d'hiver","translations":{"br":"Télimélé","ko":"텔리멜레","pt-BR":"Télimélé","pt":"Télimélé","nl":"Télimélé","hr":"Télimélé","fa":"تلیمله","de":"Télimélé","es":"Télimélé","fr":"Télimélé","ja":"テリメレ","it":"Télimélé","zh-CN":"泰利梅莱","tr":"Télimélé","ru":"Телимеле","uk":"Телімеле","pl":"Télimélé","hi":"टेलिमेले","ar":"تيليميلي","hy":"Տելիմելե"}},{"name":"Telimele Prefecture","latitude":"10.91667000","longitude":"-13.33333000","native":"Préfecture de télimele","translations":{"br":"Prefeti Telimele","ko":"텔리멜레 현","pt-BR":"Prefeitura de Telimele","pt":"Prefeitura de Telimele","nl":"Prefectuur Telimele","hr":"Prefektura Telimele","fa":"استان تلیمله","de":"Präfektur Telimele","es":"Prefectura de Telimele","fr":"Préfecture de Télimélé","ja":"テリメレ県","it":"Prefettura di Telimele","zh-CN":"泰利梅莱州","tr":"Telimele Vilayeti","ru":"Префектура Телимеле","uk":"Префектура Телімеле","pl":"Prefektura Telimele","hi":"तेलीमेले प्रान्त","ar":"محافظة تيليميلي","hy":"Տելիմելե Նահանգ"}},{"name":"Tondon","latitude":"10.36667000","longitude":"-13.35000000","native":"Tondon","translations":{"br":"Tondon","ko":"톤던","pt-BR":"Tondon","pt":"Tondon","nl":"Tondon","hr":"Tondon","fa":"تاندون","de":"Tondon","es":"Tondon","fr":"Tondon","ja":"トンドン","it":"Tondon","zh-CN":"顿顿","tr":"Tondon","ru":"Тондон","uk":"Тондон","pl":"Londyn","hi":"टंडन","ar":"توندون","hy":"Տոնդոն"}}]},{"name":"Kissidougou Prefecture","state_code":"KS","latitude":"9.22520220","longitude":"-10.08072980","cities":[]},{"name":"Koubia Prefecture","state_code":"KB","latitude":"11.58235400","longitude":"-11.89202370","cities":[]},{"name":"Koundara Prefecture","state_code":"KN","latitude":"12.48940210","longitude":"-13.30675620","cities":[]},{"name":"Kouroussa Prefecture","state_code":"KO","latitude":"10.64892290","longitude":"-9.88505860","cities":[]},{"name":"Labé Prefecture","state_code":"LA","latitude":"11.35419390","longitude":"-12.34638750","cities":[]},{"name":"Labé Region","state_code":"L","latitude":"11.32320420","longitude":"-12.28913140","cities":[{"name":"Koubia","latitude":"11.58333000","longitude":"-11.83333000","native":"Koubia","translations":{"br":"Koubia","ko":"쿠비아","pt-BR":"Koubia","pt":"Koubia","nl":"Koubia","hr":"Koubia","fa":"کوبیا","de":"Koubia","es":"Koubia","fr":"Koubia","ja":"コウビア","it":"Koubia","zh-CN":"库比亚","tr":"Koubia","ru":"Кубия","uk":"Кубія","pl":"Koubia","hi":"कौबिया","ar":"كوبيا","hy":"Կուբիա"}},{"name":"Labé","latitude":"11.31823000","longitude":"-12.28332000","native":"Labé","translations":{"br":"Labé","ko":"라베","pt-BR":"Labé","pt":"Labé","nl":"Labé","hr":"Labé","fa":"لابه","de":"Labé","es":"Labé","fr":"Labé","ja":"ラベ","it":"Labé","zh-CN":"拉贝","tr":"Labé","ru":"Лабе","uk":"Лабе","pl":"Labé","hi":"लाबे","ar":"لابي","hy":"Լաբե"}},{"name":"Labe Prefecture","latitude":"11.36600000","longitude":"-12.30000000","native":"Préfecture du labor","translations":{"br":"Prefeti Labe","ko":"라베현","pt-BR":"Prefeitura de Labe","pt":"Prefeitura de Labe","nl":"Prefectuur Labe","hr":"Prefektura Labe","fa":"استان لابه","de":"Präfektur Labe","es":"Prefectura de Labe","fr":"Préfecture de Labé","ja":"ラベ県","it":"Prefettura di Labe","zh-CN":"拉贝县","tr":"Labe Eyaleti","ru":"Префектура Лабе","uk":"Префектура Лабе","pl":"Prefektura Łaby","hi":"लाबे प्रान्त","ar":"محافظة لابي","hy":"Լաբե Նահանգ"}},{"name":"Lélouma","latitude":"11.42383000","longitude":"-12.68183000","native":"Lélouma","translations":{"br":"Lélouma","ko":"렐루마","pt-BR":"Lélouma","pt":"Lélouma","nl":"Lélouma","hr":"Lélouma","fa":"للوما","de":"Lélouma","es":"Lélouma","fr":"Lélouma","ja":"レルーマ","it":"Lélouma","zh-CN":"莱卢马","tr":"Lélouma","ru":"Лелума","uk":"Лелума","pl":"Lélouma","hi":"लेलोमा","ar":"ليلوما","hy":"Լելումա"}},{"name":"Lelouma Prefecture","latitude":"11.41667000","longitude":"-12.66667000","native":"Préfecture de LeLouma","translations":{"br":"Prefeti Lelouma","ko":"렐루마 현","pt-BR":"Prefeitura de Lelouma","pt":"Prefeitura de Lelouma","nl":"Prefectuur Lelouma","hr":"Prefektura Lelouma","fa":"استان للوما","de":"Präfektur Lelouma","es":"Prefectura de Lelouma","fr":"Préfecture de Lelouma","ja":"レロウマ県","it":"Prefettura di Lelouma","zh-CN":"莱卢马县","tr":"Lelouma Eyaleti","ru":"Префектура Лелума","uk":"Префектура Лелума","pl":"Prefektura Lelouma","hi":"लेलोमा प्रान्त","ar":"محافظة ليلوما","hy":"Լելումա Նահանգ"}},{"name":"Mali","latitude":"12.07900000","longitude":"-12.29820000","native":"Mali","translations":{"br":"Mali","ko":"말리","pt-BR":"Mali","pt":"Mali","nl":"Mali","hr":"Mali","fa":"مالی","de":"Mali","es":"Malí","fr":"Mali","ja":"マリ","it":"Mali","zh-CN":"马里","tr":"Mali","ru":"Мали","uk":"Малі","pl":"Mali","hi":"माली","ar":"مالي","hy":"Մալի"}},{"name":"Mali Prefecture","latitude":"12.08333000","longitude":"-12.08333000","native":"Préfecture du Mali","translations":{"br":"Prefeti Mali","ko":"말리 현","pt-BR":"Prefeitura do Mali","pt":"Prefeitura do Mali","nl":"Prefectuur Mali","hr":"Prefektura Mali","fa":"استان مالی","de":"Präfektur Mali","es":"Prefectura de Malí","fr":"Préfecture du Mali","ja":"マリ県","it":"Prefettura del Mali","zh-CN":"马里州","tr":"Mali Eyaleti","ru":"Префектура Мали","uk":"Префектура Малі","pl":"Prefektura Mali","hi":"माली प्रान्त","ar":"محافظة مالي","hy":"Մալի Նահանգ"}},{"name":"Tougué","latitude":"11.44503000","longitude":"-11.66422000","native":"Tougué","translations":{"br":"Tougue","ko":"투게","pt-BR":"Tougué","pt":"Tougué","nl":"Tougué","hr":"Tougué","fa":"توگه","de":"Tougué","es":"Tougué","fr":"Tougué","ja":"トゥゲ","it":"Tougué","zh-CN":"图格","tr":"Dil","ru":"Туге","uk":"Туге","pl":"Tougué","hi":"तौगुए","ar":"توغي","hy":"Տուգե"}},{"name":"Tougue Prefecture","latitude":"11.46667000","longitude":"-11.60000000","native":"Préfecture de tougue","translations":{"br":"Prefeti Tougue","ko":"투그 현","pt-BR":"Prefeitura de Tougue","pt":"Prefeitura de Tougue","nl":"Prefectuur Tougue","hr":"Prefektura Tougue","fa":"استان توگه","de":"Präfektur Tougue","es":"Prefectura de Tougue","fr":"Préfecture de Tougue","ja":"トゥーグ県","it":"Prefettura di Tougue","zh-CN":"图格县","tr":"Tougue Eyaleti","ru":"Префектура Туге","uk":"Префектура Тоуге","pl":"Prefektura Tougue","hi":"टौग प्रान्त","ar":"محافظة توغ","hy":"Տուգե Նահանգ"}}]},{"name":"Lélouma Prefecture","state_code":"LE","latitude":"11.18333300","longitude":"-12.93333300","cities":[]},{"name":"Lola Prefecture","state_code":"LO","latitude":"7.96138180","longitude":"-8.39649380","cities":[]},{"name":"Macenta Prefecture","state_code":"MC","latitude":"8.46157950","longitude":"-9.27855830","cities":[]},{"name":"Mali Prefecture","state_code":"ML","latitude":"11.98370900","longitude":"-12.25479190","cities":[]},{"name":"Mamou Prefecture","state_code":"MM","latitude":"10.57360240","longitude":"-11.88917210","cities":[]},{"name":"Mamou Region","state_code":"M","latitude":"10.57360240","longitude":"-11.88917210","cities":[{"name":"Dalaba","latitude":"10.75000000","longitude":"-12.30000000","native":"Délinquant","translations":{"br":"Dalaba","ko":"달라바","pt-BR":"Dalaba","pt":"Dalaba","nl":"Dalaba","hr":"Dalaba","fa":"دالابا","de":"Dalaba","es":"Dalaba","fr":"Dalaba","ja":"ダラバ","it":"Dalaba","zh-CN":"达拉巴","tr":"Dalaba","ru":"Далаба","uk":"Далаба","pl":"Dalaba","hi":"डलाबा","ar":"دالابا","hy":"Դալաբա"}},{"name":"Mamou","latitude":"10.37546000","longitude":"-12.09148000","native":"Maman","translations":{"br":"Mamou","ko":"마무","pt-BR":"Mamou","pt":"Mamou","nl":"Mamou","hr":"Mamou","fa":"مامو","de":"Mamou","es":"Mamou","fr":"Mamou","ja":"マモウ","it":"Mamou","zh-CN":"马穆","tr":"Mamou","ru":"Маму","uk":"Маму","pl":"Mamou","hi":"ममौ","ar":"مامو","hy":"Մամու"}},{"name":"Mamou Prefecture","latitude":"10.45900000","longitude":"-11.81500000","native":"Préfecture de Mamou","translations":{"br":"Prefeti Mamou","ko":"마모우 현","pt-BR":"Prefeitura de Mamou","pt":"Prefeitura de Mamou","nl":"Prefectuur Mamou","hr":"Prefektura Mamou","fa":"استان مامو","de":"Präfektur Mamou","es":"Prefectura de Mamou","fr":"Préfecture de Mamou","ja":"マモウ県","it":"Prefettura di Mamou","zh-CN":"马穆县","tr":"Mamou Vilayeti","ru":"Префектура Маму","uk":"Префектура Мамоу","pl":"Prefektura Mamou","hi":"मामोउ प्रान्त","ar":"محافظة مامو","hy":"Մամու Նահանգ"}},{"name":"Pita","latitude":"10.83333000","longitude":"-12.58333000","native":"Pita","translations":{"br":"Pita","ko":"피타","pt-BR":"Pão Pita","pt":"Pão Pita","nl":"Pita","hr":"Pita","fa":"پیتا","de":"Pita","es":"Agave","fr":"Pita","ja":"ピタ","it":"Pita","zh-CN":"皮塔饼","tr":"Pide","ru":"Пита","uk":"Піта","pl":"Pita","hi":"पीटा","ar":"بيتا","hy":"Պիտա"}}]},{"name":"Mandiana Prefecture","state_code":"MD","latitude":"10.61728270","longitude":"-8.69857160","cities":[]},{"name":"Nzérékoré Prefecture","state_code":"NZ","latitude":"7.74783590","longitude":"-8.82525020","cities":[]},{"name":"Nzérékoré Region","state_code":"N","latitude":"8.03858700","longitude":"-8.83627550","cities":[{"name":"Beyla","latitude":"8.69011000","longitude":"-8.64869000","native":"Wedla","translations":{"br":"Beyla","ko":"베일라","pt-BR":"Beyla","pt":"Beyla","nl":"Beyla","hr":"Beyla","fa":"بیلا","de":"Beyla","es":"Beyla","fr":"Beyla","ja":"ベイラ","it":"Beyla","zh-CN":"贝拉","tr":"Beyla","ru":"Бейла","uk":"Бейла","pl":"Beyla","hi":"बेयला","ar":"بيلا","hy":"Բեյլա"}},{"name":"Beyla Prefecture","latitude":"8.91667000","longitude":"-8.41667000","native":"Préfecture de Beyla","translations":{"br":"Prefeti Beyla","ko":"베일라 현","pt-BR":"Prefeitura de Beyla","pt":"Prefeitura de Beyla","nl":"Prefectuur Beyla","hr":"Prefektura Beyla","fa":"استان بیلا","de":"Präfektur Beyla","es":"Prefectura de Beyla","fr":"Préfecture de Beyla","ja":"ベイラ県","it":"Prefettura di Beyla","zh-CN":"贝拉县","tr":"Beyla Vilayeti","ru":"Префектура Бейла","uk":"Префектура Бейла","pl":"Prefektura Beyla","hi":"बेयला प्रान्त","ar":"محافظة بيلا","hy":"Բեյլա Նահանգ"}},{"name":"Gueckedou","latitude":"8.56744000","longitude":"-10.13360000","native":"GUECKEDOU","translations":{"br":"Gueckedou","ko":"게케두","pt-BR":"Gueckedou","pt":"Gueckedou","nl":"Gueckedou","hr":"Gueckedou","fa":"گکدو","de":"Gueckedou","es":"Gueckedou","fr":"Guéckédou","ja":"ゲケドゥ","it":"Gueckedou","zh-CN":"盖凯杜","tr":"Gueckedou","ru":"Гекеду","uk":"Гекеду","pl":"Gueckedou","hi":"गुएकेडौ","ar":"غويكيدو","hy":"Գուեկեդու"}},{"name":"Lola","latitude":"7.83333000","longitude":"-8.33333000","native":"Lola","translations":{"br":"Lola","ko":"롤라","pt-BR":"Lola","pt":"Lola","nl":"Lola","hr":"Lola","fa":"لولا","de":"Lola","es":"Lola","fr":"Lola","ja":"ローラ","it":"Lola","zh-CN":"萝拉","tr":"Lola","ru":"Лола","uk":"Лола","pl":"Lola","hi":"लोला","ar":"لولا","hy":"Լոլա"}},{"name":"Macenta","latitude":"8.50000000","longitude":"-9.41667000","native":"Sa mélodie","translations":{"br":"Masenta","ko":"마센타","pt-BR":"Macenta","pt":"Macenta","nl":"Macenta","hr":"Macenta","fa":"ماسنتا","de":"Macenta","es":"Macenta","fr":"Macenta","ja":"マセンタ","it":"Macenta","zh-CN":"马森塔","tr":"Macenta","ru":"Масента","uk":"Масента","pl":"Macenta","hi":"मैसेंटा","ar":"ماسينتا","hy":"Մաքենտա"}},{"name":"Nzérékoré","latitude":"7.75624000","longitude":"-8.81790000","native":"Nzérékor","translations":{"br":"Nzérékoré","ko":"은제레코레","pt-BR":"Nzérékoré","pt":"Nzérékoré","nl":"Nzérékoré","hr":"Nzérékoré","fa":"نزرکوره","de":"Nzérékoré","es":"Nzérékoré","fr":"Nzérékoré","ja":"ンゼレコレ","it":"Nzérékoré","zh-CN":"恩泽雷科雷","tr":"Nzérékoré","ru":"Нзерекоре","uk":"Нзерекоре","pl":"Nzérékoré","hi":"न्ज़ेरेकोरे","ar":"نزيريكوري","hy":"Նզերեկոռե"}},{"name":"Nzerekore Prefecture","latitude":"7.94500000","longitude":"-8.78300000","native":"Préfecture de Nzerekore","translations":{"br":"Prefeti Nzerekore","ko":"은제레코레 현","pt-BR":"Prefeitura de Nzerekore","pt":"Prefeitura de Nzerekore","nl":"Prefectuur Nzerekore","hr":"Prefektura Nzerekore","fa":"استان نزرکوره","de":"Präfektur Nzerekore","es":"Prefectura de Nzerekore","fr":"Préfecture de Nzérékoré","ja":"ンゼレコレ県","it":"Prefettura di Nzerekore","zh-CN":"恩泽雷科雷州","tr":"Nzerekore Eyaleti","ru":"Префектура Нзерекоре","uk":"Префектура Нзерекоре","pl":"Prefektura Nzerekore","hi":"न्ज़ेरेकोरे प्रान्त","ar":"محافظة نزيريكوري","hy":"Նզերեկոռե Նահանգ"}},{"name":"Préfecture de Guékédou","latitude":"8.66667000","longitude":"-10.25000000","native":"Préfecture de Guékédou","translations":{"br":"Prefeti Gwekedou","ko":"게케두 현","pt-BR":"Préfecture de Guékédou","pt":"Préfecture de Guékédou","nl":"Préfecture de Guékédou","hr":"Prefektura Guékédou","fa":"استان گکدو","de":"Präfektur Guékédou","es":"Prefectura de Guékédou","fr":"Préfecture de Guékédou","ja":"ゲケドゥ県","it":"Prefettura di Guékédou","zh-CN":"盖凯杜县","tr":"Guékédou Préfecture","ru":"Préfecture de Guékédou","uk":"Префектура Гекеду","pl":"Prefektura Guékédou","hi":"गुएकेडोउ प्रान्त","ar":"Préfecture de Guékédou","hy":"Գուեկեդու Նահանգ"}},{"name":"Yomou","latitude":"7.50000000","longitude":"-9.16667000","native":"Yomou","translations":{"br":"Yomou","ko":"요무","pt-BR":"Yomou","pt":"Yomou","nl":"Yomo","hr":"Yomou","fa":"یومو","de":"Yomou","es":"Yomo","fr":"Yomou","ja":"よもう","it":"Yomou","zh-CN":"尤莫","tr":"Yomu","ru":"Ёмоу","uk":"Йомоу","pl":"Yomou","hi":"योमौ","ar":"يومو","hy":"Յոմու"}}]},{"name":"Pita Prefecture","state_code":"PI","latitude":"10.80620860","longitude":"-12.71351210","cities":[]},{"name":"Siguiri Prefecture","state_code":"SI","latitude":"11.41481130","longitude":"-9.17883040","cities":[]},{"name":"Télimélé Prefecture","state_code":"TE","latitude":"10.90893640","longitude":"-13.02993310","cities":[]},{"name":"Tougué Prefecture","state_code":"TO","latitude":"11.38415830","longitude":"-11.61577730","cities":[]},{"name":"Yomou Prefecture","state_code":"YO","latitude":"7.56962790","longitude":"-9.25915710","cities":[]}]}