{"code":"KM","states":[{"name":"Anjouan","state_code":"A","latitude":"-12.21381450","longitude":"44.43706060","cities":[{"name":"Adda-Douéni","latitude":"-12.29250000","longitude":"44.49722000","native":"أدا-دويني","translations":{"br":"Adda-Douéni","ko":"아다-두에니","pt-BR":"Adda-Douéni","pt":"Adda-Douéni","nl":"Adda-Douéni","hr":"Adda-Douéni","fa":"آدا-دوئنی","de":"Adda-Douéni","es":"Adda-Douéni","fr":"Adda-Douéni","ja":"アダ・ドゥエニ","it":"Adda-Douéni","zh-CN":"阿达-杜埃尼","tr":"Adda-Douéni","ru":"Адда-Дуэни","uk":"Адда-Дуені","pl":"Adda-Douéni","hi":"अड्डा-डौएनी","ar":"أدا-دويني"}},{"name":"Antsahé","latitude":"-12.35639000","longitude":"44.52250000","native":"أنتساهي","translations":{"br":"Antsahé","ko":"안차헤","pt-BR":"Antsahé","pt":"Antsahé","nl":"Antsahé","hr":"Antsahé","fa":"آنتساهه","de":"Antsahé","es":"Antsahé","fr":"Antsahé","ja":"アンツァヘ","it":"Antsahé","zh-CN":"安萨赫","tr":"Antsahé","ru":"Антсахе","uk":"Антсахе","pl":"Antsahé","hi":"अंत्साहे","ar":"أنتساهي"}},{"name":"Assimpao","latitude":"-12.23306000","longitude":"44.31972000","native":"أسيمباو","translations":{"br":"Assimpao","ko":"아심파오","pt-BR":"Assimpao","pt":"Assimpao","nl":"Assimpao","hr":"Assimpao","fa":"آسیمپائو","de":"Assimpao","es":"Assimpao","fr":"Assimpao","ja":"アシンパオ","it":"Assimpao","zh-CN":"阿辛帕奥","tr":"Assimpao","ru":"Ассимпао","uk":"Ассімпао","pl":"Assimpao","hi":"असिम्पाओ","ar":"أسيمباو"}},{"name":"Bambao","latitude":"-12.20325000","longitude":"44.51638000","native":"بامباو","translations":{"br":"Bambao","ko":"밤바오","pt-BR":"Bambao","pt":"Bambao","nl":"Bambao","hr":"Bambus","fa":"بامبائو","de":"Bambus","es":"Bambú","fr":"Bambao","ja":"バンバオ","it":"Bambao","zh-CN":"竹子","tr":"Bambao","ru":"Бамбао","uk":"Бамбук","pl":"Bambus","hi":"बंबाओ","ar":"بامباو"}},{"name":"Bandajou","latitude":"-12.19167000","longitude":"44.28694000","native":"بانداجو","translations":{"br":"Bandajou","ko":"반다주","pt-BR":"Bandajou","pt":"Bandajou","nl":"Bandajou","hr":"Bandajou","fa":"بانداجو","de":"Bandajou","es":"Bandajou","fr":"Bandajou","ja":"バンダジュー","it":"Bandajou","zh-CN":"班达茹","tr":"Bandajou","ru":"Бандажу","uk":"Банджажу","pl":"Bandajou","hi":"बंदाजौ","ar":"بانداجو"}},{"name":"Barakani","latitude":"-12.13861000","longitude":"44.43026000","native":"باراكاني","translations":{"br":"Barakani","ko":"바라카니","pt-BR":"Barakani","pt":"Barakani","nl":"Barakani","hr":"Barakani","fa":"برکانی","de":"Barakani","es":"Barakani","fr":"Barakani","ja":"バラカニ","it":"Barakani","zh-CN":"巴拉卡尼","tr":"Barakani","ru":"Баракани","uk":"Баракані","pl":"Barakani","hi":"बाराकानी","ar":"باراكاني"}},{"name":"Bimbini","latitude":"-12.18833000","longitude":"44.23556000","native":"بيمبيني","translations":{"br":"Bimbini","ko":"빔비니","pt-BR":"Bimbini","pt":"Bimbini","nl":"Bimbini","hr":"Bimbini","fa":"بیمبینی","de":"Bimbini","es":"Bimbini","fr":"Bimbini","ja":"ビンビニ","it":"Bimbini","zh-CN":"比比尼","tr":"Bimbini","ru":"Бимбини","uk":"Бімбіні","pl":"Bimbini","hi":"बिम्बिनी","ar":"بيمبيني"}},{"name":"Boungouéni","latitude":"-12.20556000","longitude":"44.29944000","native":"بونغويني","translations":{"br":"Boungouéni","ko":"Boungouéni","pt-BR":"Boungouéni","pt":"Boungouéni","nl":"Boungouéni","hr":"Boungouéni","fa":"بونگوئنی","de":"Boungouéni","es":"Boungouéni","fr":"Boungouéni","ja":"ブンゴエニ","it":"Boungouéni","zh-CN":"邦古埃尼","tr":"Boungouéni","ru":"Бунгуэни","uk":"Бунгуені","pl":"Boungouéni","hi":"बौंगौएनी","ar":"بونغويني"}},{"name":"Chandra","latitude":"-12.19500000","longitude":"44.46472000","native":"تشاندرا","translations":{"br":"Chandra","ko":"찬드라","pt-BR":"Chandra","pt":"Chandra","nl":"Chandra","hr":"Čandra","fa":"چاندرا","de":"Chandra","es":"Chandra","fr":"Chandra","ja":"チャンドラ","it":"Chandra","zh-CN":"钱德拉","tr":"Çandra","ru":"Чандра","uk":"Чандра","pl":"Chandra","hi":"चंद्रा","ar":"تشاندرا"}},{"name":"Chironkamba","latitude":"-12.19111000","longitude":"44.35250000","native":"تشيرونكامبا","translations":{"br":"Chironkamba","ko":"치론캄바","pt-BR":"Chironkamba","pt":"Chironkamba","nl":"Chironkamba","hr":"Čironkamba","fa":"چیرونکامبا","de":"Chironkamba","es":"Chironkamba","fr":"Chironkamba","ja":"キロンカンバ","it":"Chironkamba","zh-CN":"奇龙坎巴","tr":"Chironkamba","ru":"Чиронкамба","uk":"Чіронкамба","pl":"Chironkamba","hi":"चिरोनकाम्बा","ar":"تشيرونكامبا"}},{"name":"Chitrouni","latitude":"-12.18583000","longitude":"44.33556000","native":"شيتروني","translations":{"br":"Chitrouni","ko":"치트로우니","pt-BR":"Chitrouni","pt":"Chitrouni","nl":"Chitrouni","hr":"Čitrouni","fa":"چیترونی","de":"Chitrouni","es":"Chitrouni","fr":"Chitrouni","ja":"チトルーニ","it":"Chitrouni","zh-CN":"奇特罗尼","tr":"Çitrouni","ru":"Читруни","uk":"Чітруні","pl":"Chitrouni","hi":"चित्रौनी","ar":"شيتروني"}},{"name":"Daji","latitude":"-12.32583000","longitude":"44.48861000","native":"داجي","translations":{"br":"Daji","ko":"다지","pt-BR":"Daji","pt":"Daji","nl":"Daji","hr":"Daji","fa":"داجی","de":"Daji","es":"Daji","fr":"Daji","ja":"ダジ","it":"Daji","zh-CN":"妲己","tr":"Daji","ru":"Даджи","uk":"Даджі","pl":"Daji","hi":"दाजी","ar":"داجي"}},{"name":"Domoni","latitude":"-12.25694000","longitude":"44.53194000","native":"دوموني","translations":{"br":"Domoni","ko":"도모니","pt-BR":"Domoni","pt":"Domoni","nl":"Domoni","hr":"Domoni","fa":"دومونی","de":"Domoni","es":"Domoni","fr":"Domoni","ja":"ドモニ","it":"Domoni","zh-CN":"多莫尼","tr":"Domoni","ru":"Домони","uk":"Домоні","pl":"Domoni","hi":"डोमोनी","ar":"دوموني"}},{"name":"Dziani","latitude":"-12.18333000","longitude":"44.48333000","native":"دزياني","translations":{"br":"Dziani","ko":"지아니","pt-BR":"Dziani","pt":"Dziani","nl":"Dziani","hr":"Dziani","fa":"دزیانی","de":"Dziani","es":"Dziani","fr":"Dziani","ja":"ジアニ","it":"Dziani","zh-CN":"齐亚尼","tr":"Dziani","ru":"Дзиани","uk":"Дзяні","pl":"Dziani","hi":"ज़ियानी","ar":"دزياني"}},{"name":"Hajoho","latitude":"-12.12434000","longitude":"44.48881000","native":"هاجوهو","translations":{"br":"Hajoho","ko":"하조호","pt-BR":"Hajoho","pt":"Hajoho","nl":"Hajoho","hr":"Hajoho","fa":"هاجوهو","de":"Hajoho","es":"Hajoho","fr":"Hajoho","ja":"ハジョホ","it":"Hajoho","zh-CN":"哈乔霍","tr":"Hajoho","ru":"Хаджохо","uk":"Хаджохо","pl":"Hajoho","hi":"हाजोहो","ar":"هاجوهو"}},{"name":"Harembo","latitude":"-12.15108000","longitude":"44.49828000","native":"هاريمبو","translations":{"br":"Harembo","ko":"하렘보","pt-BR":"Harembo","pt":"Harembo","nl":"Harembo","hr":"Harembo","fa":"حرمبو","de":"Harembo","es":"Harembo","fr":"Harembo","ja":"ハレンボ","it":"Harembo","zh-CN":"哈伦博","tr":"Harembo","ru":"Харембо","uk":"Гарембо","pl":"Harembo","hi":"हरेम्बो","ar":"هاريمبو"}},{"name":"Kangani","latitude":"-12.32102000","longitude":"44.47270000","native":"كانجاني","translations":{"br":"Kangani","ko":"강가니","pt-BR":"Kangani","pt":"Kangani","nl":"Kangani","hr":"Kangani","fa":"کنگانی","de":"Kangani","es":"Kangani","fr":"Kangani","ja":"カンガニ","it":"Kangani","zh-CN":"坎加尼","tr":"Kangani","ru":"Кангани","uk":"Кангані","pl":"Kangani","hi":"कंगनी","ar":"كانجاني"}},{"name":"Kavani","latitude":"-12.19194000","longitude":"44.26944000","native":"كافاني","translations":{"br":"Kavani","ko":"카바니","pt-BR":"Kavani","pt":"Kavani","nl":"Kavani","hr":"Kavani","fa":"کاوانی","de":"Kavani","es":"Kavani","fr":"Kavani","ja":"カヴァニ","it":"Kavani","zh-CN":"卡瓦尼","tr":"Kavani","ru":"Кавани","uk":"Кавані","pl":"Kavani","hi":"कवानी","ar":"كافاني"}},{"name":"Koki","latitude":"-12.17139000","longitude":"44.44167000","native":"كوكي","translations":{"br":"Koki","ko":"코키","pt-BR":"Koki","pt":"Koki","nl":"Koki","hr":"Koki","fa":"کوکی","de":"Koki","es":"Koki","fr":"Koki","ja":"コキ","it":"Koki","zh-CN":"小希","tr":"Koki","ru":"Коки","uk":"Кокі","pl":"Koki","hi":"कोकी","ar":"كوكي"}},{"name":"Koni-Djodjo","latitude":"-12.22972000","longitude":"44.48167000","native":"كوني-دجودجو","translations":{"br":"Koni-Djodjo","ko":"코니-조조","pt-BR":"Koni-Djodjo","pt":"Koni-Djodjo","nl":"Koni-Djodjo","hr":"Koni-Đodžo","fa":"کونی-جوجو","de":"Koni-Djodjo","es":"Koni-Djodjo","fr":"Koni-Djodjo","ja":"コニ・ジョジョ","it":"Koni-Djodjo","zh-CN":"科尼-乔乔","tr":"Koni-Djodjo","ru":"Кони-Джоджо","uk":"Коні-Джоджо","pl":"Koni-Djodjo","hi":"कोनी-जोदजो","ar":"كوني-دجودجو"}},{"name":"Koni-Ngani","latitude":"-12.21583000","longitude":"44.48000000","native":"كوني نجاني","translations":{"br":"Koni-Ngani","ko":"코니-응가니","pt-BR":"Koni-Ngani","pt":"Koni-Ngani","nl":"Koni-Ngani","hr":"Koni-Ngani","fa":"کونی-نگانی","de":"Koni-Ngani","es":"Koni-Ngani","fr":"Koni-Ngani","ja":"コニ・ンガニ","it":"Koni-Ngani","zh-CN":"科尼恩加尼","tr":"Koni-Ngani","ru":"Кони-Нгани","uk":"Коні-Нгані","pl":"Koni-Ngani","hi":"कोनी-नगानी","ar":"كوني نجاني"}},{"name":"Kyo","latitude":"-12.33222000","longitude":"44.51917000","native":"كيو","translations":{"br":"Kyo","ko":"교","pt-BR":"Kyo","pt":"Kyo","nl":"Kyo","hr":"Kyo","fa":"کیو","de":"Kyo","es":"Kyo","fr":"Kyo","ja":"京","it":"Kyo","zh-CN":"京","tr":"Kyo","ru":"Кё","uk":"Кьо","pl":"Kyo","hi":"क्यो","ar":"كيو"}},{"name":"Limbi","latitude":"-12.23944000","longitude":"44.50528000","native":"ليمبي","translations":{"br":"Limbi","ko":"림비","pt-BR":"Limbi","pt":"Limbi","nl":"Limbi","hr":"Limbi","fa":"لیمبی","de":"Limbi","es":"Limbi","fr":"Limbi","ja":"リンビ","it":"Limbi","zh-CN":"林比","tr":"Limbi","ru":"Лимби","uk":"Лімбі","pl":"Limbi","hi":"लिम्बी","ar":"ليمبي"}},{"name":"Lingoni","latitude":"-12.25583000","longitude":"44.41833000","native":"لينغوني","translations":{"br":"Yezhoni","ko":"링고니","pt-BR":"Lingoni","pt":"Lingoni","nl":"Lingoni","hr":"Lingoni","fa":"لینگونی","de":"Lingoni","es":"Lingoni","fr":"Lingoni","ja":"リンゴニ","it":"Lingoni","zh-CN":"林戈尼","tr":"Lingonyalı","ru":"Лингони","uk":"Лінгоні","pl":"Lingoni","hi":"लिंगोनी","ar":"لينغوني"}},{"name":"Magnassini-Nindri","latitude":"-12.27806000","longitude":"44.41583000","native":"ماغناسيني-نيندري","translations":{"br":"Magnassini-Nindri","ko":"마그나시니-닌드리","pt-BR":"Magnassini-Nindri","pt":"Magnassini-Nindri","nl":"Magnassini-Nindri","hr":"Magnassini-Nindri","fa":"ماگناسینی-نیندری","de":"Magnassini-Nindri","es":"Magnassini-Nindri","fr":"Magnassini-Nindri","ja":"マグナッシニ・ニンドリ","it":"Magnassini-Nindri","zh-CN":"马格纳西尼-宁德里","tr":"Magnassini-Nindri","ru":"Магнассини-Ниндри","uk":"Магнассіні-Ніндрі","pl":"Magnassini-Nindri","hi":"मैग्नासिनी-निंड्री","ar":"ماغناسيني-نيندري"}},{"name":"Maraharé","latitude":"-12.23083000","longitude":"44.31333000","native":"ماراهاري","translations":{"br":"Maraharé","ko":"마라하레","pt-BR":"Maraharé","pt":"Maraharé","nl":"Maraharé","hr":"Maraharé","fa":"مارهره","de":"Maraharé","es":"Maraharé","fr":"Maraharé","ja":"マラハレ","it":"Maraharé","zh-CN":"马拉哈雷","tr":"Maraharé","ru":"Марахаре","uk":"Марахаре","pl":"Maraharé","hi":"माराहारे","ar":"ماراهاري"}},{"name":"Mirontsi","latitude":"-12.15667000","longitude":"44.40806000","native":"ميرونتسي","translations":{"br":"Mirontsi","ko":"미론치","pt-BR":"Mirontsi","pt":"Mirontsi","nl":"Mirontsi","hr":"Mironci","fa":"میرونتسی","de":"Mirontsi","es":"Mirontsi","fr":"Mirontsi","ja":"ミロンツィ","it":"Mirontsi","zh-CN":"米龙齐","tr":"Mirontsi","ru":"Миронци","uk":"Миронці","pl":"Mironci","hi":"मिरोंत्सी","ar":"ميرونتسي"}},{"name":"Mjamaoué","latitude":"-12.19361000","longitude":"44.31000000","native":"مجامووي","translations":{"br":"Mjamaoué","ko":"므자마우에","pt-BR":"Mjamaoué","pt":"Mjamaoué","nl":"Mjamaoué","hr":"Mjamaoué","fa":"مجامائوئه","de":"Mjamaoué","es":"Mjamaoué","fr":"Mjamaoué","ja":"ミジャマウェ","it":"Mjamaoué","zh-CN":"姆贾马韦","tr":"Mjamaoué","ru":"Мжамауэ","uk":"Мджамауе","pl":"Mjamaoué","hi":"मजामाउए","ar":"مجامووي"}},{"name":"Mjimandra","latitude":"-12.19167000","longitude":"44.37028000","native":"مجيماندرا","translations":{"br":"Mjimandra","ko":"음지만드라","pt-BR":"Mjimandra","pt":"Mjimandra","nl":"Mjimandra","hr":"Mjimandra","fa":"مجیماندرا","de":"Mjimandra","es":"Mjimandra","fr":"Mjimandra","ja":"ムジマンドラ","it":"Mjimandra","zh-CN":"姆吉曼德拉","tr":"Mjimandra","ru":"Мжимандра","uk":"Мджимандра","pl":"Mjimandra","hi":"म्जिमंद्रा","ar":"مجيماندرا"}},{"name":"Moutsamoudou","latitude":"-12.16672000","longitude":"44.39944000","native":"موتسامودو","translations":{"br":"Moutsamoudou","ko":"무트사무두","pt-BR":"Moutsamoudou","pt":"Moutsamoudou","nl":"Moutsamoudou","hr":"Moutsamoudou","fa":"موتسامودو","de":"Moutsamoudou","es":"Moutsamoudou","fr":"Moutsamoudou","ja":"ムツァムドゥ","it":"Moutsamoudou","zh-CN":"穆察穆杜","tr":"Moutsamoudou","ru":"Мутсамуду","uk":"Мутсамуду","pl":"Moutsamoudou","hi":"मुत्सामौदौ","ar":"موتسامودو"}},{"name":"Moya","latitude":"-12.30967000","longitude":"44.43685000","native":"مويا","translations":{"br":"Moya","ko":"모야","pt-BR":"Moya","pt":"Moya","nl":"Moya","hr":"Moja","fa":"مویا","de":"Moya","es":"Moya","fr":"Moya","ja":"モヤ","it":"Moya","zh-CN":"莫亚","tr":"Moya","ru":"Моя","uk":"Мойя","pl":"Moya","hi":"मोया","ar":"مويا"}},{"name":"Mramani","latitude":"-12.34639000","longitude":"44.52861000","native":"مرماني","translations":{"br":"Mrmani","ko":"므라마니","pt-BR":"Mramani","pt":"Mramani","nl":"Mramani","hr":"Mramani","fa":"مرامانی","de":"Mramani","es":"Mramani","fr":"Mramani","ja":"ムラマニ","it":"Mramani","zh-CN":"姆拉马尼","tr":"Mramani","ru":"Мрамани","uk":"Мрамані","pl":"Mramani","hi":"मृमणि","ar":"مرماني"}},{"name":"Mrémani","latitude":"-12.30833000","longitude":"44.49861000","native":"مريماني","translations":{"br":"Mrémani","ko":"므레마니","pt-BR":"Mrémani","pt":"Mrémani","nl":"Mrémani","hr":"Mrémani","fa":"مریمانی","de":"Mrémani","es":"Mrémani","fr":"Mrémani","ja":"ムレマニ","it":"Mrémani","zh-CN":"姆雷马尼","tr":"Mrémani","ru":"Мремани","uk":"Мремані","pl":"Mrémani","hi":"म्रेमानी","ar":"مريماني"}},{"name":"Ongoni","latitude":"-12.17028000","longitude":"44.50694000","native":"أونغوني","translations":{"br":"Ongoni","ko":"온고니","pt-BR":"Ongoni","pt":"Ongoni","nl":"Ongoni","hr":"Ongoni","fa":"اونگونی","de":"Ongoni","es":"Ongoni","fr":"Ongoni","ja":"オンゴニ","it":"Ongoni","zh-CN":"翁戈尼","tr":"Ongoni","ru":"Онгони","uk":"Онгоні","pl":"Ongoni","hi":"ओंगोनी","ar":"أونغوني"}},{"name":"Ouani","latitude":"-12.13554000","longitude":"44.42493000","native":"أواني","translations":{"br":"Ouani","ko":"우아니","pt-BR":"Ouani","pt":"Ouani","nl":"Ouani","hr":"Ouani","fa":"اوانی","de":"Ouani","es":"Ouani","fr":"Ouani","ja":"ウアニ","it":"Ouani","zh-CN":"瓦尼","tr":"Ouani","ru":"Уани","uk":"Уані","pl":"Ouani","hi":"ओउआनी","ar":"أواني"}},{"name":"Ouzini","latitude":"-12.26722000","longitude":"44.47972000","native":"أوزيني","translations":{"br":"Ouzini","ko":"오우지니","pt-BR":"Ouzini","pt":"Ouzini","nl":"Ouzini","hr":"Ouzini","fa":"اوزینی","de":"Ouzini","es":"Ouzini","fr":"Ouzini","ja":"ウジニ","it":"Ouzini","zh-CN":"乌齐尼","tr":"Uzini","ru":"Узини","uk":"Узіні","pl":"Ouzini","hi":"औज़िनी","ar":"أوزيني"}},{"name":"Pajé","latitude":"-12.16972000","longitude":"44.38806000","native":"باجي","translations":{"br":"Pajé","ko":"파제","pt-BR":"Pajé","pt":"Pajé","nl":"Pajé","hr":"Pajé","fa":"پاژه","de":"Pajé","es":"Pajé","fr":"Pajé","ja":"パジェ","it":"Pajé","zh-CN":"帕杰","tr":"Paje","ru":"Паже","uk":"Паже","pl":"Pajé","hi":"Paje","ar":"باجي"}},{"name":"Patsi","latitude":"-12.15556000","longitude":"44.43722000","native":"باتسي","translations":{"br":"Patsi","ko":"파트시","pt-BR":"Patsi","pt":"Patsi","nl":"Patsi","hr":"Patsi","fa":"پاتسی","de":"Patsi","es":"Patsi","fr":"Patsi","ja":"パツィ","it":"Patsi","zh-CN":"帕特西","tr":"Patsi","ru":"Патси","uk":"Патсі","pl":"Patsi","hi":"पात्सी","ar":"باتسي"}},{"name":"Sima","latitude":"-12.19556000","longitude":"44.27667000","native":"سيما","translations":{"br":"Sima","ko":"시마","pt-BR":"Sima","pt":"Sima","nl":"Sima","hr":"Sima","fa":"سیما","de":"Sima","es":"Sima","fr":"Sima","ja":"シマ","it":"Sima","zh-CN":"司马","tr":"Sima","ru":"Сима","uk":"Сіма","pl":"Sima","hi":"सिमा","ar":"سيما"}},{"name":"Tsimbeo","latitude":"-12.20583000","longitude":"44.46472000","native":"تسيمبيو","translations":{"br":"Tsimbeo","ko":"침베오","pt-BR":"Tsimbeo","pt":"Tsimbeo","nl":"Tsimbeo","hr":"Tsimbeo","fa":"تسیمبئو","de":"Tsimbeo","es":"Tsimbeo","fr":"Tsimbeo","ja":"チムベオ","it":"Tsimbeo","zh-CN":"辛贝奥","tr":"Tsimbeo","ru":"Цимбео","uk":"Цимбео","pl":"Tsimbeo","hi":"त्सिमबेओ","ar":"تسيمبيو"}},{"name":"Vouani","latitude":"-12.24417000","longitude":"44.37444000","native":"فواني","translations":{"br":"Vouani","ko":"부부니","pt-BR":"Vouani","pt":"Vouani","nl":"Vouani","hr":"Vouani","fa":"ووانی","de":"Vouani","es":"Vouani","fr":"Vouani","ja":"ヴーアニ","it":"Vouani","zh-CN":"沃阿尼","tr":"Vuani","ru":"Вуани","uk":"Вуані","pl":"Vouani","hi":"वौआनी","ar":"فواني"}}]},{"name":"Grande Comore","state_code":"G","latitude":"-11.71673380","longitude":"43.36807880","cities":[{"name":"Bahani","latitude":"-11.63972000","longitude":"43.28417000","native":"بهاني","translations":{"br":"Bahani","ko":"바하니","pt-BR":"Bahani","pt":"Bahani","nl":"Bahani","hr":"Bahani","fa":"بهانی","de":"Bahani","es":"Bahani","fr":"Bahani","ja":"バハニ","it":"Bahani","zh-CN":"巴哈尼","tr":"Bahani","ru":"Бахани","uk":"Бахані","pl":"Bahani","hi":"बहानी","ar":"بهاني"}},{"name":"Bambadjani","latitude":"-11.47861000","longitude":"43.37722000","native":"بامبادجاني","translations":{"br":"Bambadjani","ko":"밤바자니","pt-BR":"Bambadjani","pt":"Bambadjani","nl":"Bambadjani","hr":"Bambadžani","fa":"بمبادجانی","de":"Bambadjani","es":"Bambadjani","fr":"Bambadjani","ja":"バンバジャニ","it":"Bambadjani","zh-CN":"班巴贾尼","tr":"Bambadjani","ru":"Бамбаджани","uk":"Бамбаджані","pl":"Bambadżani","hi":"बम्बादजानी","ar":"بامبادجاني"}},{"name":"Bouni","latitude":"-11.48694000","longitude":"43.38833000","native":"بوني","translations":{"br":"Bouni","ko":"부니","pt-BR":"Bouni","pt":"Bouni","nl":"Bouni","hr":"Bouni","fa":"بونی","de":"Bouni","es":"Bouni","fr":"Bouni","ja":"ブニ","it":"Bouni","zh-CN":"布尼","tr":"Bouni","ru":"Буни","uk":"Буні","pl":"Bouni","hi":"बौनी","ar":"بوني"}},{"name":"Chezani","latitude":"-11.43140000","longitude":"43.39625000","native":"شيزاني","translations":{"br":"Chezani","ko":"체자니","pt-BR":"Chezani","pt":"Chezani","nl":"Chezani","hr":"Chezani","fa":"چزانی","de":"Chezani","es":"Chezani","fr":"Chezani","ja":"チェザニ","it":"Chezani","zh-CN":"切扎尼","tr":"Çezani","ru":"Чезани","uk":"Чезані","pl":"Czezani","hi":"चेज़ानी","ar":"شيزاني"}},{"name":"Chindini","latitude":"-11.92328000","longitude":"43.49109000","native":"تشينديني","translations":{"br":"Chindini","ko":"친디니","pt-BR":"Chindini","pt":"Chindini","nl":"Chindini","hr":"Čindini","fa":"چیندینی","de":"Chindini","es":"Chindini","fr":"Chindini","ja":"チンディーニ","it":"Chindini","zh-CN":"钦迪尼","tr":"Çindini","ru":"Чиндини","uk":"Чіндіні","pl":"Chindini","hi":"चिंदिनी","ar":"تشينديني"}},{"name":"Chouani","latitude":"-11.82330000","longitude":"43.29429000","native":"شواني","translations":{"br":"Chouani","ko":"초아니","pt-BR":"Chouani","pt":"Chouani","nl":"Chouani","hr":"Chouani","fa":"چوانی","de":"Chouani","es":"Chouani","fr":"Chouani","ja":"シュアニ","it":"Chouani","zh-CN":"乔阿尼","tr":"Çuani","ru":"Шуани","uk":"Чуані","pl":"Chouani","hi":"चौआनी","ar":"شواني"}},{"name":"Dembéni","latitude":"-11.87361000","longitude":"43.39778000","native":"ديمبيني","translations":{"br":"Dembéni","ko":"뎀베니","pt-BR":"Dembéni","pt":"Dembéni","nl":"Dembéni","hr":"Dembéni","fa":"دمبنی","de":"Dembéni","es":"Dembéni","fr":"Dembéni","ja":"デンベニ","it":"Dembéni","zh-CN":"登贝尼","tr":"Dembéni","ru":"Дембени","uk":"Дембені","pl":"Dembéni","hi":"डेम्बेनी","ar":"ديمبيني"}},{"name":"Douniani","latitude":"-11.42111000","longitude":"43.28889000","native":"دونياني","translations":{"br":"Douniani","ko":"두니아니","pt-BR":"Douniani","pt":"Douniani","nl":"Douniani","hr":"Douniani","fa":"دونیانی","de":"Douniani","es":"Douniani","fr":"Douniani","ja":"ドゥニアニ","it":"Douniani","zh-CN":"杜尼亚尼","tr":"Douniani","ru":"Дуниани","uk":"Дуніані","pl":"Douniani","hi":"दूनियानी","ar":"دونياني"}},{"name":"Dzahadjou","latitude":"-11.85287000","longitude":"43.34987000","native":"دزاهاجو","translations":{"br":"Dzahadjou","ko":"자하주","pt-BR":"Dzahadjou","pt":"Dzahadjou","nl":"Dzahadjou","hr":"Džahadžou","fa":"زاهاجو","de":"Dzahadjou","es":"Dzahadjou","fr":"Dzahadjou","ja":"ザハジュ","it":"Dzahadjou","zh-CN":"扎哈朱","tr":"Dzahadjou","ru":"Дзахаджоу","uk":"Дзахаджоу","pl":"Dzahadjou","hi":"ज़ाहादजौ","ar":"دزاهاجو"}},{"name":"Foumbouni","latitude":"-11.86537000","longitude":"43.49529000","native":"فومبوني","translations":{"br":"Foumbouni","ko":"포움부니","pt-BR":"Foumbouni","pt":"Foumbouni","nl":"Foumbouni","hr":"Foumbouni","fa":"فومبونی","de":"Foumbouni","es":"Foumbouni","fr":"Foumbouni","ja":"フンブニ","it":"Foumbouni","zh-CN":"丰布尼","tr":"Foumbouni","ru":"Фумбуни","uk":"Фумбуні","pl":"Foumbouni","hi":"फौम्बौनी","ar":"فومبوني"}},{"name":"Hantsindzi","latitude":"-11.43178000","longitude":"43.41102000","native":"هانتسيندزي","translations":{"br":"Hantsindzi","ko":"한친지","pt-BR":"Hantsindzi","pt":"Hantsindzi","nl":"Hantsindzi","hr":"Hantsindzi","fa":"هانتسیندزی","de":"Hantsindzi","es":"Hantsindzi","fr":"Hantsindzi","ja":"ハンツィンジ","it":"Hantsindzi","zh-CN":"汉特辛德齐","tr":"Hantsindzi","ru":"Ханциндзи","uk":"Ганціндзі","pl":"Hantsindzi","hi":"हंटसिंड्ज़ी","ar":"هانتسيندزي"}},{"name":"Héroumbili","latitude":"-11.54389000","longitude":"43.37972000","native":"هيرومبيلي","translations":{"br":"Héroumbili","ko":"에룸빌리","pt-BR":"Héroumbili","pt":"Héroumbili","nl":"Héroumbili","hr":"Héroumbili","fa":"هرومبیلی","de":"Héroumbili","es":"Héroumbili","fr":"Héroumbili","ja":"エルンビリ","it":"Héroumbili","zh-CN":"埃鲁姆比利","tr":"Heroumbili","ru":"Херумбили","uk":"Ерумбілі","pl":"Héroumbili","hi":"हेरूम्बीली","ar":"هيرومبيلي"}},{"name":"Itsandra","latitude":"-11.67111000","longitude":"43.25472000","native":"إتساندرا","translations":{"br":"Itsandra","ko":"이산드라","pt-BR":"Itsandra","pt":"Itsandra","nl":"Itsandra","hr":"Itandra","fa":"ایساندرا","de":"Itsandra","es":"Itsandra","fr":"Itsandra","ja":"イサンドラ","it":"Itsandra","zh-CN":"伊桑德拉","tr":"Itsandra","ru":"Итсандра","uk":"Ісандра","pl":"Itsandra","hi":"इत्सांद्रा","ar":"إتساندرا"}},{"name":"Itsandzéni","latitude":"-11.47278000","longitude":"43.38444000","native":"Itsandzéni","translations":{"br":"Itsandzéni","ko":"이산드제니","pt-BR":"Itsandzéni","pt":"Itsandzéni","nl":"Itsandzéni","hr":"Itsandzéni","fa":"ایتساندزنی","de":"Itsandzéni","es":"Itsandzéni","fr":"Itsandzéni","ja":"イサンゼニ","it":"Itsandzéni","zh-CN":"伊桑泽尼","tr":"Itsandzéni","ru":"Ицандзени","uk":"Іцандзені","pl":"Itsandzéni","hi":"इट्सांडज़ेनी","ar":"Itsandzéni"}},{"name":"Ivouani","latitude":"-11.39157000","longitude":"43.39454000","native":"إيفواني","translations":{"br":"Ivouani","ko":"이부아니","pt-BR":"Ivouani","pt":"Ivouani","nl":"Ivouani","hr":"Ivouani","fa":"ایووانی","de":"Ivouani","es":"Ivouani","fr":"Ivouani","ja":"イヴォアニ","it":"Ivouani","zh-CN":"伊武阿尼","tr":"Ivouani","ru":"Ивуани","uk":"Івуані","pl":"Ivouani","hi":"इवौआनी","ar":"إيفواني"}},{"name":"Koua","latitude":"-11.42083000","longitude":"43.27639000","native":"كوا","translations":{"br":"Koua","ko":"코우아","pt-BR":"Koua","pt":"Koua","nl":"Koua","hr":"Koua","fa":"کوا","de":"Koua","es":"Koua","fr":"Koua","ja":"コア","it":"Koua","zh-CN":"库阿","tr":"Koua","ru":"Коуа","uk":"Коуа","pl":"Koua","hi":"कौआ","ar":"كوا"}},{"name":"Madjeouéni","latitude":"-11.82167000","longitude":"43.27806000","native":"مادجوييني","translations":{"br":"Madjeouéni","ko":"마주에니","pt-BR":"Madjeouéni","pt":"Madjeouéni","nl":"Madjeouéni","hr":"Madjeouéni","fa":"مادجونی","de":"Madjeouéni","es":"Madjeouéni","fr":"Madjeouéni","ja":"マジェウエニ","it":"Madjeouéni","zh-CN":"马德朱埃尼","tr":"Madjeouéni","ru":"Маджеуэни","uk":"Маджоуені","pl":"Madjeouéni","hi":"मादजेउएनी","ar":"مادجوييني"}},{"name":"Mandza","latitude":"-11.41806000","longitude":"43.29528000","native":"ماندزا","translations":{"br":"Mandza","ko":"만자","pt-BR":"Mandza","pt":"Mandza","nl":"Mandza","hr":"Mandza","fa":"ماندزا","de":"Mandza","es":"Mandza","fr":"Mandza","ja":"マンザ","it":"Mandza","zh-CN":"曼扎","tr":"Mandza","ru":"Мандза","uk":"Мандза","pl":"Mandza","hi":"मांड्ज़ा","ar":"ماندزا"}},{"name":"Mavingouni","latitude":"-11.71639000","longitude":"43.25250000","native":"مافينجوني","translations":{"br":"Mavingouni","ko":"마빙구니","pt-BR":"Mavingouni","pt":"Mavingouni","nl":"Mavingouni","hr":"Mavingouni","fa":"ماوینگونی","de":"Mavingouni","es":"Mavingouni","fr":"Mavingouni","ja":"マヴィンゴウニ","it":"Mavingouni","zh-CN":"马文古尼","tr":"Mavingouni","ru":"Мавингуни","uk":"Мавінгуні","pl":"Mavingouni","hi":"माविंगौनी","ar":"مافينجوني"}},{"name":"Mbéni","latitude":"-11.50139000","longitude":"43.37750000","native":"مبيني","translations":{"br":"Mbéni","ko":"음베니","pt-BR":"Mbéni","pt":"Mbéni","nl":"Mbéni","hr":"Mbéni","fa":"مبنی","de":"Mbéni","es":"Mbéni","fr":"Mbéni","ja":"ムベニ","it":"Mbéni","zh-CN":"姆贝尼","tr":"Mbéni","ru":"Мбени","uk":"Мбені","pl":"Mbéni","hi":"मबेनी","ar":"مبيني"}},{"name":"Mitsamiouli","latitude":"-11.38472000","longitude":"43.28444000","native":"ميتساميولي","translations":{"br":"Mitsamiouli","ko":"미차미울리","pt-BR":"Mitsamiouli","pt":"Mitsamiouli","nl":"Mitsamiouli","hr":"Mitsamiouli","fa":"میتسامیولی","de":"Mitsamiouli","es":"Mitsamiouli","fr":"Mitsamiouli","ja":"ミツァミウリ","it":"Mitsamiouli","zh-CN":"米察米乌利","tr":"Mitsamiouli","ru":"Митсамиоули","uk":"Міцаміулі","pl":"Mitsamiouli","hi":"मित्सामियोली","ar":"ميتساميولي"}},{"name":"Mitsoudjé","latitude":"-11.81209000","longitude":"43.28043000","native":"ميتسودجي","translations":{"br":"Mitsoudjé","ko":"미츠우제","pt-BR":"Mitsoudjé","pt":"Mitsoudjé","nl":"Mitsoudjé","hr":"Mitsoudjé","fa":"میتسوجی","de":"Mitsoudjé","es":"Mitsoudjé","fr":"Mitsoudjé","ja":"ミツジェ","it":"Mitsoudjé","zh-CN":"米特苏杰","tr":"Mitsoudjé","ru":"Мицудже","uk":"Міцудже","pl":"Mitsoudjé","hi":"मित्सौदजे","ar":"ميتسودجي"}},{"name":"Mnoungou","latitude":"-11.51778000","longitude":"43.37389000","native":"منونغو","translations":{"br":"Mnoungou","ko":"므눈구","pt-BR":"Mnoungou","pt":"Mnoungou","nl":"Mnoungou","hr":"Mnoungou","fa":"منوگو","de":"Mnoungou","es":"Mnoungou","fr":"Mnoungou","ja":"ムヌンゴ","it":"Mnoungou","zh-CN":"姆农古","tr":"Mnoungou","ru":"Мнунгу","uk":"Мнунґу","pl":"Mnoungou","hi":"मनौंगौ","ar":"منونغو"}},{"name":"Mohoro","latitude":"-11.82701000","longitude":"43.45436000","native":"موهورو","translations":{"br":"Mohoro","ko":"모호로","pt-BR":"Mohoro","pt":"Mohoro","nl":"Mohoro","hr":"Mohoro","fa":"موهرو","de":"Mohoro","es":"Mohoro","fr":"Mohoro","ja":"モホロ","it":"Mohoro","zh-CN":"莫霍罗","tr":"Mohoro","ru":"Мохоро","uk":"Мохоро","pl":"Mohoro","hi":"मोहोरो","ar":"موهورو"}},{"name":"Moroni","latitude":"-11.70216000","longitude":"43.25506000","native":"موروني","translations":{"br":"Moroni","ko":"모로나이","pt-BR":"Morôni","pt":"Morôni","nl":"Moroni","hr":"Moroni","fa":"مورونی","de":"Moroni","es":"Moroni","fr":"Moroni","ja":"モロナイ","it":"Moroni","zh-CN":"莫罗尼","tr":"Moroni","ru":"Мороний","uk":"Мороній","pl":"Moroni","hi":"मोरोनी","ar":"موروني"}},{"name":"Mtsamdou","latitude":"-11.60694000","longitude":"43.38056000","native":"متسامدو","translations":{"br":"Mtsamdou","ko":"므삼두","pt-BR":"Mtsamdou","pt":"Mtsamdou","nl":"Mtsamdou","hr":"Mtsamdou","fa":"متسامدو","de":"Mtsamdou","es":"Mtsamdou","fr":"Mtsamdou","ja":"ムツァムドゥ","it":"Mtsamdou","zh-CN":"姆察姆杜","tr":"Mtsamdou","ru":"Мцамду","uk":"Мцамду","pl":"Mtsamdou","hi":"मत्सामदोउ","ar":"متسامدو"}},{"name":"Mvouni","latitude":"-11.71611000","longitude":"43.26472000","native":"مفوني","translations":{"br":"Mvouni","ko":"음부니","pt-BR":"Mvouni","pt":"Mvouni","nl":"Mvouni","hr":"Mvouni","fa":"موونی","de":"Mvouni","es":"Mvouni","fr":"Mvouni","ja":"ムヴォーニ","it":"Mvouni","zh-CN":"姆沃尼","tr":"Mvouni","ru":"Мвуни","uk":"Мвуні","pl":"Mvouni","hi":"म्वौनी","ar":"مفوني"}},{"name":"Nioumamilima","latitude":"-11.85461000","longitude":"43.44607000","native":"نيوماميليما","translations":{"br":"Nioumamilima","ko":"니우마밀리마","pt-BR":"Nioumamilima","pt":"Nioumamilima","nl":"Nioumamilima","hr":"Nioumamilima","fa":"نیومامیلیما","de":"Nioumamilima","es":"Nioumamilima","fr":"Nioumamilima","ja":"ニウマミリマ","it":"Nioumamilima","zh-CN":"尼乌玛米利马","tr":"Nioumamilima","ru":"Ниумамилима","uk":"Ніумаміліма","pl":"Niumamilima","hi":"निओउमामिलिमा","ar":"نيوماميليما"}},{"name":"Ntsaouéni","latitude":"-11.46583000","longitude":"43.26278000","native":"نتساووني","translations":{"br":"Nsaouéni","ko":"은차우에니","pt-BR":"Ntsaouéni","pt":"Ntsaouéni","nl":"Ntsaouéni","hr":"Ntsaouéni","fa":"نتسائونی","de":"Ntsaouéni","es":"Ntsaouéni","fr":"Ntsaouéni","ja":"ンツァウェニ","it":"Ntsaouéni","zh-CN":"恩佐维尼","tr":"Ntsaouéni","ru":"Нцауэни","uk":"Нцауені","pl":"Ntsaouéni","hi":"नत्सौएनी","ar":"نتساووني"}},{"name":"Ntsoudjini","latitude":"-11.65972000","longitude":"43.26139000","native":"نتسودجيني","translations":{"br":"Ntsoudjini","ko":"은초우지니","pt-BR":"Ntsoudjini","pt":"Ntsoudjini","nl":"Ntsoudjini","hr":"Ntsoudjini","fa":"نتسوجینی","de":"Ntsoudjini","es":"Ntsoudjini","fr":"Ntsoudjini","ja":"ントソウジニ","it":"Ntsoudjini","zh-CN":"恩苏吉尼","tr":"Ntsoudjini","ru":"Нцуджини","uk":"Нтсуджіні","pl":"Ntsoudjini","hi":"न्त्सौदजिनी","ar":"نتسودجيني"}},{"name":"Ouellah","latitude":"-11.39028000","longitude":"43.33194000","native":"أويلاه","translations":{"br":"Ouellah","ko":"우엘라","pt-BR":"Ouellah","pt":"Ouellah","nl":"Ouellah","hr":"Ouellah","fa":"اوالله","de":"Ouellah","es":"Ouellah","fr":"Ouellah","ja":"ウエラ","it":"Ouellah","zh-CN":"瓦拉","tr":"Ouellah","ru":"Уэлла","uk":"Уелла","pl":"Ouellah","hi":"ओउएल्लाह","ar":"أويلاه"}},{"name":"Ouhozi","latitude":"-11.40500000","longitude":"43.28222000","native":"أوهوزي","translations":{"br":"Ouhozi","ko":"우호지","pt-BR":"Ouhozi","pt":"Ouhozi","nl":"Ouhozi","hr":"Ouhozi","fa":"اوهوزی","de":"Ouhozi","es":"Ouhozi","fr":"Ouhozi","ja":"ウホジ","it":"Ouhozi","zh-CN":"奥霍齐","tr":"Uhozi","ru":"Ухози","uk":"Ухозі","pl":"Ouhozi","hi":"ओउहोज़ी","ar":"أوهوزي"}},{"name":"Ourovéni","latitude":"-11.91375000","longitude":"43.49804000","native":"أوروفيني","translations":{"br":"Ourovéni","ko":"오우로베니","pt-BR":"Ourovéni","pt":"Ourovéni","nl":"Ourovéni","hr":"Ourovéni","fa":"اوروونی","de":"Ourovéni","es":"Ourovéni","fr":"Ourovéni","ja":"オウロヴェニ","it":"Ourovéni","zh-CN":"欧罗维尼","tr":"Ourovéni","ru":"Уровени","uk":"Уровені","pl":"Ourovéni","hi":"ओरोवेनी","ar":"أوروفيني"}},{"name":"Oussivo","latitude":"-11.58500000","longitude":"43.26722000","native":"أوسيفو","translations":{"br":"Oussivo","ko":"우시보","pt-BR":"Oussivo","pt":"Oussivo","nl":"Oussivo","hr":"Oussivo","fa":"اوسیوو","de":"Oussivo","es":"Oussivo","fr":"Oussivo","ja":"ウシヴォ","it":"Ussivo","zh-CN":"乌西沃","tr":"Oussivo","ru":"Уссиво","uk":"Усіво","pl":"Ussivo","hi":"ओउस्सिवो","ar":"أوسيفو"}},{"name":"Salimani","latitude":"-11.81150000","longitude":"43.26823000","native":"السليماني","translations":{"br":"Salimani","ko":"살리마니","pt-BR":"Salimani","pt":"Salimani","nl":"Salimani","hr":"Salimani","fa":"سلیمانی","de":"Salimani","es":"Salimani","fr":"Salimani","ja":"サリマニ","it":"Salimani","zh-CN":"萨利马尼","tr":"Salimani","ru":"Салимани","uk":"Салімані","pl":"Salimani","hi":"सलीमानी","ar":"السليماني"}},{"name":"Séléa","latitude":"-11.78444000","longitude":"43.26083000","native":"سيليا","translations":{"br":"Séléa","ko":"셀레아","pt-BR":"Séléa","pt":"Séléa","nl":"Séléa","hr":"Séléa","fa":"سلیا","de":"Séléa","es":"Séléa","fr":"Séléa","ja":"セレア","it":"Selea","zh-CN":"塞莱亚","tr":"Séléa","ru":"Селеа","uk":"Селеа","pl":"Selea","hi":"सेलिया","ar":"سيليا"}},{"name":"Singani","latitude":"-11.84784000","longitude":"43.31731000","native":"سينغاني","translations":{"br":"Singani","ko":"싱가니","pt-BR":"Singani","pt":"Singani","nl":"Singani","hr":"Singani","fa":"سینگانی","de":"Singani","es":"Singani","fr":"Singani","ja":"シンガニ","it":"Singani","zh-CN":"辛加尼","tr":"Singani","ru":"Сингани","uk":"Сінгані","pl":"Singani","hi":"सिंगानी","ar":"سينغاني"}},{"name":"Tsidjé","latitude":"-11.69806000","longitude":"43.26194000","native":"تسيدجي","translations":{"br":"Tsidjé","ko":"치제","pt-BR":"Tsidjé","pt":"Tsidjé","nl":"Tsidjé","hr":"Tsidžé","fa":"تسیجه","de":"Tsidjé","es":"Tsidjé","fr":"Tsidjé","ja":"ツィジェ","it":"Tsidjé","zh-CN":"齐杰","tr":"Tsidjé","ru":"Цидже","uk":"Цідже","pl":"Tsidjé","hi":"त्सिदजे","ar":"تسيدجي"}},{"name":"Vanadjou","latitude":"-11.60750000","longitude":"43.27611000","native":"فانادجو","translations":{"br":"Vanadjou","ko":"바나주","pt-BR":"Vanadjou","pt":"Vanadjou","nl":"Vanadjou","hr":"Vanadjou","fa":"واناجو","de":"Vanadjou","es":"Vanadjou","fr":"Vanadjou","ja":"ヴァナジュ","it":"Vanadjou","zh-CN":"瓦纳朱","tr":"Vanadjou","ru":"Ванаджоу","uk":"Ванаджу","pl":"Wanadżou","hi":"वनादजौ","ar":"فانادجو"}},{"name":"Vanambouani","latitude":"-11.61139000","longitude":"43.25306000","native":"فانامبواني","translations":{"br":"Vanambouani","ko":"바남부아니","pt-BR":"Vanambouani","pt":"Vanambouani","nl":"Vanambouani","hr":"Vanambouani","fa":"وانامبوانی","de":"Vanambouani","es":"Vanambouani","fr":"Vanambouani","ja":"ヴァナンブアニ","it":"Vanambouani","zh-CN":"瓦南布阿尼","tr":"Vanambouani","ru":"Ванамбоуани","uk":"Ванамбуані","pl":"Vanambouani","hi":"वनम्बौनी","ar":"فانامبواني"}}]},{"name":"Mohéli","state_code":"M","latitude":"-12.33773760","longitude":"43.73340890","cities":[{"name":"Djoyézi","latitude":"-12.30587000","longitude":"43.77425000","native":"دجويزي","translations":{"br":"Djoyézi","ko":"조예지","pt-BR":"Djoyézi","pt":"Djoyézi","nl":"Djoyézi","hr":"Djoyézi","fa":"دژوئیزی","de":"Djoyézi","es":"Djoyézi","fr":"Djoyézi","ja":"ジョイェジ","it":"Djoyézi","zh-CN":"乔耶齐","tr":"Djoyézi","ru":"Джойези","uk":"Джойєзі","pl":"Djoyézi","hi":"जोयेज़ी","ar":"دجويزي"}},{"name":"Fomboni","latitude":"-12.28759000","longitude":"43.74344000","native":"فومبوني","translations":{"br":"Fomboni","ko":"폼보니","pt-BR":"Fomboni","pt":"Fomboni","nl":"Fomboni","hr":"Fomboni","fa":"فومبونی","de":"Fomboni","es":"Fomboni","fr":"Fomboni","ja":"フォンボニ","it":"Fomboni","zh-CN":"丰博尼","tr":"Fomboni","ru":"Фомбони","uk":"Фомбоні","pl":"Fomboni","hi":"फोम्बोनी","ar":"فومبوني"}},{"name":"Hoani","latitude":"-12.25083000","longitude":"43.67472000","native":"هواني","translations":{"br":"Hoani","ko":"호아니","pt-BR":"Hoani","pt":"Hoani","nl":"Hoani","hr":"Hoani","fa":"هوانی","de":"Hoani","es":"Hoani","fr":"Hoani","ja":"ホアニ","it":"Hoani","zh-CN":"霍阿尼","tr":"Hoani","ru":"Хоани","uk":"Хоані","pl":"Hoani","hi":"होआनी","ar":"هواني"}},{"name":"Mtakoudja","latitude":"-12.26111000","longitude":"43.70361000","native":"متاكودجا","translations":{"br":"Mtakoudja","ko":"므타쿠자","pt-BR":"Mtakoudja","pt":"Mtakoudja","nl":"Mtakoudja","hr":"Mtakoudja","fa":"متاکودجا","de":"Mtakoudja","es":"Mtakoudja","fr":"Mtakoudja","ja":"ムタコウジャ","it":"Mtakoudja","zh-CN":"姆塔库贾","tr":"Mtakoudja","ru":"Мтакуджа","uk":"Мтакуджа","pl":"Mtakoudja","hi":"मटाकौदजा","ar":"متاكودجا"}},{"name":"Nioumachoua","latitude":"-12.36139000","longitude":"43.71528000","native":"نيوماتشوا","translations":{"br":"Nioumachoua","ko":"니우마초아","pt-BR":"Nioumachoua","pt":"Nioumachoua","nl":"Nioumachoua","hr":"Nioumachoua","fa":"نیوماچوا","de":"Nioumachoua","es":"Nioumachoua","fr":"Nioumachoua","ja":"ニウマチュア","it":"Nioumachoua","zh-CN":"尼乌马舒阿","tr":"Nioumachoua","ru":"Ниумачуа","uk":"Ніумачоуа","pl":"Nioumachoua","hi":"निओउमाचौआ","ar":"نيوماتشوا"}},{"name":"Ouanani","latitude":"-12.33750000","longitude":"43.79750000","native":"أواناني","translations":{"br":"Ouanani","ko":"오우나니","pt-BR":"Ouanani","pt":"Ouanani","nl":"Ouanani","hr":"Ouanani","fa":"اوانانی","de":"Ouanani","es":"Ouanani","fr":"Ouanani","ja":"ウアナニ","it":"Ouanani","zh-CN":"瓦纳尼","tr":"Ouanani","ru":"Уанани","uk":"Уанані","pl":"Ouanani","hi":"ओउआनानी","ar":"أواناني"}},{"name":"Ziroudani","latitude":"-12.33250000","longitude":"43.77750000","native":"زيروداني","translations":{"br":"Ziroudani","ko":"지로우다니","pt-BR":"Ziroudani","pt":"Ziroudani","nl":"Ziroudani","hr":"Ziroudani","fa":"زیرودانی","de":"Ziroudani","es":"Ziroudani","fr":"Ziroudani","ja":"ジロウダニ","it":"Ziroudani","zh-CN":"齐鲁达尼","tr":"Ziroudani","ru":"Зирудани","uk":"Зірудань","pl":"Ziroudani","hi":"ज़िरौदानी","ar":"زيروداني"}}]}]}