{"code":"LR","states":[{"name":"Bomi County","state_code":"BM","latitude":"6.75629260","longitude":"-10.84514670","cities":[{"name":"Tubmanburg","latitude":"6.87064000","longitude":"-10.82110000","native":"Tubmanburg","translations":{"br":"Tubmanburg","ko":"터브먼버그","pt-BR":"Tubmanburg","pt":"Tubmanburg","nl":"Tubmanburg","hr":"Tubmanburg","fa":"تابمنبورگ","de":"Tubmanburg","es":"Tubmanburgo","fr":"Tubmanburg","ja":"タブマンバーグ","it":"Tubmanburg","zh-CN":"杜布曼堡","tr":"Tubmanburg","ru":"Тубманбург","uk":"Табманбург","pl":"Tubmanburg","hi":"टबमैनबर्ग","ar":"توبمانبورغ"}}]},{"name":"Bong County","state_code":"BG","latitude":"6.82950190","longitude":"-9.36730840","cities":[{"name":"Gbarnga","latitude":"6.99543000","longitude":"-9.47122000","native":"Recurring","translations":{"br":"Gbarnga","ko":"그바른가","pt-BR":"Gbarnga","pt":"Gbarnga","nl":"Gbarnga","hr":"Gbarnga","fa":"گبارنگا","de":"Gbarnga","es":"Gbarnga","fr":"Gbarnga","ja":"ガバンガ","it":"Gbarnga","zh-CN":"邦加","tr":"Gbarnga","ru":"Гбарнга","uk":"Гбарнга","pl":"Gbarnga","hi":"ग्बरणगा","ar":"غبارنغا"}}]},{"name":"Gbarpolu County","state_code":"GP","latitude":"7.49526370","longitude":"-10.08072980","cities":[{"name":"Bopolu","latitude":"7.06667000","longitude":"-10.48750000","native":"Bopol","translations":{"br":"Bopolu","ko":"보폴루","pt-BR":"Bopolu","pt":"Bopolu","nl":"Bopolu","hr":"Bopolu","fa":"بوپولو","de":"Bopolu","es":"Bopolu","fr":"Bopolu","ja":"ボポル","it":"Bopolu","zh-CN":"博波卢","tr":"Bopolu","ru":"Бополу","uk":"Бополу","pl":"Bopolu","hi":"बोपोलू","ar":"بوبولو"}}]},{"name":"Grand Bassa County","state_code":"GB","latitude":"6.23084520","longitude":"-9.81249350","cities":[{"name":"Buchanan","latitude":"5.87693000","longitude":"-10.04964000","native":"Buchanan","translations":{"br":"Buchanan","ko":"뷰캐넌","pt-BR":"Buchanan","pt":"Buchanan","nl":"Buchanan","hr":"Buchanan","fa":"بوکانان","de":"Buchanan","es":"Buchanan","fr":"Buchanan","ja":"ブキャナン","it":"Buchanan","zh-CN":"布坎南","tr":"Buchanan","ru":"Бьюкенен","uk":"Б'юкенен","pl":"Buchanan","hi":"बुकानन","ar":"بوكانان"}}]},{"name":"Grand Cape Mount County","state_code":"CM","latitude":"7.04677580","longitude":"-11.07117580","cities":[{"name":"Robertsport","latitude":"6.75329000","longitude":"-11.36710000","native":"Robertsport","translations":{"br":"Robertsport","ko":"로버츠포트","pt-BR":"Robertsport","pt":"Robertsport","nl":"Robertsport","hr":"Robertsport","fa":"رابرتسپورت","de":"Robertsport","es":"Robertsport","fr":"Robertsport","ja":"ロバートズポート","it":"Robertsport","zh-CN":"罗伯茨波特","tr":"Robertsport","ru":"Робертспорт","uk":"Робертспорт","pl":"Robertsport","hi":"रॉबर्टस्पोर्ट","ar":"روبرتسبورت"}}]},{"name":"Grand Gedeh County","state_code":"GG","latitude":"5.92220780","longitude":"-8.22129790","cities":[{"name":"Zwedru","latitude":"6.06846000","longitude":"-8.13559000","native":"Zwedru","translations":{"br":"Zwedru","ko":"즈웨드루","pt-BR":"Zwedru","pt":"Zwedru","nl":"Zwedru","hr":"Zwedru","fa":"زودرو","de":"Zwedru","es":"Zwedru","fr":"Zwedru","ja":"ズウェドル","it":"Zwedru","zh-CN":"兹韦德鲁","tr":"Zwedru","ru":"Зведру","uk":"Зведру","pl":"Zwedru","hi":"ज़वेडृ","ar":"زويدرو"}}]},{"name":"Grand Kru County","state_code":"GK","latitude":"4.76138620","longitude":"-8.22129790","cities":[{"name":"Barclayville","latitude":"4.67443000","longitude":"-8.23306000","native":"Barclayville","translations":{"br":"Barclayville","ko":"바클레이빌","pt-BR":"Barclayville","pt":"Barclayville","nl":"Barclayville","hr":"Barclayville","fa":"بارکلیویل","de":"Barclayville","es":"Barclayville","fr":"Barclayville","ja":"バークレイビル","it":"Barclayville","zh-CN":"巴克莱维尔","tr":"Barclayville","ru":"Барклайвилл","uk":"Барклейвілл","pl":"Barclayville","hi":"बार्कलेविल","ar":"باركليفيل"}}]},{"name":"Lofa County","state_code":"LO","latitude":"8.19111840","longitude":"-9.72326730","cities":[{"name":"Voinjama","latitude":"8.42194000","longitude":"-9.74778000","native":"Butterfly","translations":{"br":"Voinjama","ko":"보인자마","pt-BR":"Voinjama","pt":"Voinjama","nl":"Voinjama","hr":"Voinjama","fa":"ووینجاما","de":"Voinjama","es":"Voinjama","fr":"Voinjama","ja":"ヴォインジャマ","it":"Voinjama","zh-CN":"沃因贾马","tr":"Voinjama","ru":"Воинджама","uk":"Войняма","pl":"Voinjama","hi":"वोइंजामा","ar":"فوينجاما"}}]},{"name":"Margibi County","state_code":"MG","latitude":"6.51518750","longitude":"-10.30488970","cities":[{"name":"Kakata","latitude":"6.53104000","longitude":"-10.35368000","native":"My grandmother","translations":{"br":"Kakata","ko":"카카타","pt-BR":"Kakata","pt":"Kakata","nl":"Kakata","hr":"Kakata","fa":"کاکاتا","de":"Kakata","es":"Kakata","fr":"Kakata","ja":"カカタ","it":"Kakata","zh-CN":"卡卡塔","tr":"Kakata","ru":"Каката","uk":"Каката","pl":"Kakata","hi":"काकाटा","ar":"كاكاتا"}}]},{"name":"Maryland County","state_code":"MY","latitude":"39.04575490","longitude":"-76.64127120","cities":[{"name":"Harper","latitude":"4.37820000","longitude":"-7.71081000","native":"Harper","translations":{"br":"Harper","ko":"하퍼","pt-BR":"Harper","pt":"Harper","nl":"Harper","hr":"Harper","fa":"هارپر","de":"Harper","es":"Harper","fr":"Harper","ja":"ハーパー","it":"Arpista","zh-CN":"哈珀","tr":"Harper","ru":"Харпер","uk":"Харпер","pl":"Harfiarka","hi":"बीन बजानेवाला","ar":"هاربر"}}]},{"name":"Montserrado County","state_code":"MO","latitude":"6.55258150","longitude":"-10.52961150","cities":[{"name":"Bensonville","latitude":"6.44716000","longitude":"-10.61283000","native":"Bensonville","translations":{"br":"Bensonville","ko":"벤슨빌","pt-BR":"Bensonville","pt":"Bensonville","nl":"Bensonville","hr":"Bensonville","fa":"بنسونویل","de":"Bensonville","es":"Bensonville","fr":"Bensonville","ja":"ベンソンビル","it":"Bensonville","zh-CN":"本森维尔","tr":"Bensonville","ru":"Бенсонвилл","uk":"Бенсонвілл","pl":"Bensonville","hi":"बेन्सनविले","ar":"بنسونفيل"}},{"name":"Monrovia","latitude":"6.30054000","longitude":"-10.79690000","native":"Monrovia","translations":{"br":"Monrovia","ko":"몬로비아","pt-BR":"Monróvia","pt":"Monróvia","nl":"Monrovia","hr":"Monrovija","fa":"مونروویا","de":"Monrovia","es":"Monrovia","fr":"Monrovia","ja":"モンロビア","it":"Monrovia","zh-CN":"蒙罗维亚","tr":"Monrovia","ru":"Монровия","uk":"Монровія","pl":"Monrovia","hi":"मोन्रोविया","ar":"مونروفيا"}}]},{"name":"Nimba","state_code":"NI","latitude":"7.61666670","longitude":"-8.41666670","cities":[{"name":"Ganta","latitude":"7.30222000","longitude":"-8.53083000","native":"Giant","translations":{"br":"Ganta","ko":"간타","pt-BR":"Ganta","pt":"Ganta","nl":"Ganta","hr":"Ganta","fa":"گانتا","de":"Ganta","es":"Ganta","fr":"Ganta","ja":"ガンタ","it":"Ganta","zh-CN":"甘塔","tr":"Ganta","ru":"Ганта","uk":"Ганта","pl":"Ganta","hi":"गंता","ar":"غانتا"}},{"name":"New Yekepa","latitude":"7.57944000","longitude":"-8.53778000","native":"New Yekepa","translations":{"br":"Yekepa Nevez","ko":"뉴 예케파","pt-BR":"Nova Yekepa","pt":"Nova Yekepa","nl":"Nieuwe Yekepa","hr":"Nova Yekepa","fa":"نیو یکپا","de":"Neues Yekepa","es":"Nueva Yekepa","fr":"Nouveau Yekepa","ja":"ニュー・イェケパ","it":"Nuovo Yekepa","zh-CN":"新耶克帕","tr":"Yeni Yekepa","ru":"Новая Екепа","uk":"Нью-Йекепа","pl":"Nowa Yekepa","hi":"न्यू येकेपा","ar":"ييكيبا الجديدة"}},{"name":"Sanniquellie","latitude":"7.36215000","longitude":"-8.71326000","native":"Sanniquellie","translations":{"br":"Sanniquellie","ko":"산니켈리","pt-BR":"Sanniquellie","pt":"Sanniquellie","nl":"Sanniquellie","hr":"Sanniquellie","fa":"سانیکولی","de":"Sanniquellie","es":"Sanniquellie","fr":"Sanniquellie","ja":"サンニケリー","it":"Sanniquellie","zh-CN":"桑尼奎利","tr":"Sanniquellie","ru":"Санниквелли","uk":"Саннікеллі","pl":"Sanniquellie","hi":"सैन्निक्वेली","ar":"سانيكويلي"}}]},{"name":"River Cess County","state_code":"RI","latitude":"5.90253280","longitude":"-9.45615500","cities":[{"name":"Cestos City","latitude":"5.45683000","longitude":"-9.58167000","native":"City Baskets","translations":{"br":"Kêr Cestos","ko":"세스토스 시티","pt-BR":"Cidade de Cestos","pt":"Cidade de Cestos","nl":"Cestos Stad","hr":"Grad Cestos","fa":"شهر سستوس","de":"Cestos Stadt","es":"Ciudad de Cestos","fr":"Ville de Cestos","ja":"セストス市","it":"Città di Cestos","zh-CN":"塞斯托斯城","tr":"Cestos Şehri","ru":"Город Сестос","uk":"Місто Сестос","pl":"Miasto Cestos","hi":"सेस्टोस शहर","ar":"مدينة سيستوس"}}]},{"name":"River Gee County","state_code":"RG","latitude":"5.26048940","longitude":"-7.87216000","cities":[{"name":"Fish Town","latitude":"5.19739000","longitude":"-7.87579000","native":"Fish Town","translations":{"br":"Kêr ar Pesketa","ko":"피시타운","pt-BR":"Cidade dos Peixes","pt":"Cidade dos Peixes","nl":"Visstad","hr":"Riblji grad","fa":"شهر ماهی","de":"Fischstadt","es":"Ciudad del pescado","fr":"Ville des poissons","ja":"フィッシュタウン","it":"Città dei pesci","zh-CN":"鱼镇","tr":"Balık Kasabası","ru":"Рыбный городок","uk":"Рибне містечко","pl":"Miasto Rybne","hi":"मछली शहर","ar":"مدينة الأسماك"}}]},{"name":"Sinoe County","state_code":"SI","latitude":"5.49871000","longitude":"-8.66005860","cities":[{"name":"Greenville","latitude":"5.01133000","longitude":"-9.03880000","native":"Greenville","translations":{"br":"Greenville","ko":"그린빌","pt-BR":"Greenville","pt":"Greenville","nl":"Greenville","hr":"Greenville","fa":"گرینویل","de":"Greenville","es":"Greenville","fr":"Greenville","ja":"グリーンビル","it":"Greenville","zh-CN":"格林维尔","tr":"Greenville","ru":"Гринвилл","uk":"Грінвілл","pl":"Greenville","hi":"Greenville","ar":"جرينفيل"}}]}]}