{"code":"LT","states":[{"name":"Akmenė District Municipality","state_code":"01","latitude":"56.24550290","longitude":"22.74711690","cities":[]},{"name":"Alytus City Municipality","state_code":"02","latitude":"54.39629380","longitude":"24.04587610","cities":[{"name":"Alytus","latitude":"54.39635000","longitude":"24.04142000","native":"Alytus","translations":{"br":"Alytus","ko":"알리투스","pt-BR":"Alytus","pt":"Alytus","nl":"Alytus","hr":"Alytus","fa":"آلیتوس","de":"Alytus","es":"Alytus","fr":"Alytus","ja":"アリートゥス","it":"Alytus","zh-CN":"阿利图斯","tr":"Alytus","ru":"Алитус","uk":"Алітус","pl":"Olita","hi":"एलीटस","ar":"أليتوس"}},{"name":"Daugai","latitude":"54.36667000","longitude":"24.33333000","native":"Daugai","translations":{"br":"Daugai","ko":"다우가이","pt-BR":"Daugai","pt":"Daugai","nl":"Daugai","hr":"Daugaj","fa":"داگای","de":"Daugai","es":"Daugai","fr":"Daugai","ja":"ダウガイ","it":"Daugai","zh-CN":"道盖","tr":"Daugai","ru":"Даугай","uk":"Даугай","pl":"Daugai","hi":"दौगाई","ar":"دوجاي"}},{"name":"Druskininkai","latitude":"54.01573000","longitude":"23.98703000","native":"Druskininkai","translations":{"br":"Druskininkai","ko":"드루스키닌카이","pt-BR":"Druskininkai","pt":"Druskininkai","nl":"Druskininkai","hr":"Druskininkai","fa":"دروسکینینکای","de":"Druskininkai","es":"Druskininkai","fr":"Druskininkai","ja":"ドルスキニンカイ","it":"Druskininkai","zh-CN":"德鲁斯基宁凯","tr":"Druskininkai","ru":"Друскининкай","uk":"Друскінінкай","pl":"Druskienniki","hi":"ड्रुस्किनिंकाई","ar":"دروسكينينكاي"}},{"name":"Lazdijai","latitude":"54.23333000","longitude":"23.51667000","native":"Lazdijai","translations":{"br":"Lazdijai","ko":"라즈디자이","pt-BR":"Lazdijai","pt":"Lazdijai","nl":"Lazdijai","hr":"Lazdijai","fa":"لازدیجی","de":"Lazdijai","es":"Lazdijai","fr":"Lazdijai","ja":"ラズディジャイ","it":"Lazdijai","zh-CN":"拉兹迪贾伊","tr":"Lazdijai","ru":"Лаздияй","uk":"Лаздіяй","pl":"Łoździeje","hi":"लाज़दीजाई","ar":"لازديجاي"}},{"name":"Simnas","latitude":"54.38200000","longitude":"23.64600000","native":"Simnas","translations":{"br":"Simnas","ko":"심나스","pt-BR":"Simnas","pt":"Simnas","nl":"Simnas","hr":"Simnas","fa":"سیمناس","de":"Simnas","es":"Simnas","fr":"Simnas","ja":"シムナス","it":"Simnas","zh-CN":"西姆纳斯","tr":"Simnas","ru":"Симнас","uk":"Сімнас","pl":"Simnas","hi":"सिम्नास","ar":"سيمناس"}},{"name":"Varėna","latitude":"54.21667000","longitude":"24.56667000","native":"Varėna","translations":{"br":"Varėna","ko":"바레나","pt-BR":"Varena","pt":"Varena","nl":"Varėna","hr":"Varėna","fa":"وارنا","de":"Varėna","es":"Varėna","fr":"Varėna","ja":"ヴァレナ","it":"Varėna","zh-CN":"瓦雷纳","tr":"Varėna","ru":"Варена","uk":"Варена","pl":"Orawa","hi":"Varena","ar":"فارينا"}},{"name":"Veisiejai","latitude":"54.10110000","longitude":"23.69614000","native":"Veisiejai","translations":{"br":"Veisiejai","ko":"베이시에자이","pt-BR":"Veisiejai","pt":"Veisiejai","nl":"Veisiejai","hr":"Veisiejai","fa":"ویسیجی","de":"Veisiejai","es":"Veisiejai","fr":"Veisiejai","ja":"ヴェイシエジャイ","it":"Veisiejai","zh-CN":"维西贾伊","tr":"Veisiejai","ru":"Вейсеяй","uk":"Вейсіеяй","pl":"Wiejsiejaj","hi":"वेइसीजाई","ar":"فيسيجاي"}}]},{"name":"Alytus County","state_code":"AL","latitude":"54.20002140","longitude":"24.15126340","cities":[]},{"name":"Alytus District Municipality","state_code":"03","latitude":"54.32974960","longitude":"24.19609310","cities":[]},{"name":"Birštonas Municipality","state_code":"05","latitude":"54.56696640","longitude":"24.00930980","cities":[]},{"name":"Biržai District Municipality","state_code":"06","latitude":"56.20177190","longitude":"24.75601180","cities":[]},{"name":"Druskininkai municipality","state_code":"07","latitude":"53.99336850","longitude":"24.03424380","cities":[]},{"name":"Elektrėnai municipality","state_code":"08","latitude":"54.76539340","longitude":"24.77405830","cities":[]},{"name":"Ignalina District Municipality","state_code":"09","latitude":"55.40903420","longitude":"26.32848930","cities":[]},{"name":"Jonava District Municipality","state_code":"10","latitude":"55.07272420","longitude":"24.27933370","cities":[]},{"name":"Joniškis District Municipality","state_code":"11","latitude":"56.23607300","longitude":"23.61365790","cities":[]},{"name":"Jurbarkas District Municipality","state_code":"12","latitude":"55.07740700","longitude":"22.74195690","cities":[]},{"name":"Kaišiadorys District Municipality","state_code":"13","latitude":"54.85886690","longitude":"24.42779290","cities":[]},{"name":"Kalvarija municipality","state_code":"14","latitude":"54.37616740","longitude":"23.19203210","cities":[]},{"name":"Kaunas City Municipality","state_code":"15","latitude":"54.91453260","longitude":"23.90535180","cities":[{"name":"Akademija (Kaunas)","latitude":"54.89640000","longitude":"23.82411000","native":"Akademija (Kaunas)","translations":{"br":"Akademija (Kaunas)","ko":"아카데미아(카우나스)","pt-BR":"Academia (Kaunas)","pt":"Academia (Kaunas)","nl":"Akademija (Kaunas)","hr":"Akademija (Kaunas)","fa":"آکادمیا (کائوناس)","de":"Akademija (Kaunas)","es":"Academia (Kaunas)","fr":"Académie (Kaunas)","ja":"アカデミー（カウナス）","it":"Accademia (Kaunas)","zh-CN":"Akademija（考纳斯）","tr":"Akademija (Kaunas)","ru":"Akademija (Kaunas)","uk":"Академія (Каунас)","pl":"Akademija (Kowno)","hi":"अकादमीजा (कौनास)","ar":"أكاديمية كاوناس"}},{"name":"Aleksotas","latitude":"54.88037000","longitude":"23.90842000","native":"Aleksotas","translations":{"br":"Aleksotas","ko":"알렉소타스","pt-BR":"Aleksotas","pt":"Aleksotas","nl":"Aleksotas","hr":"Aleksotas","fa":"الکسوتاس","de":"Aleksotas","es":"Alexotas","fr":"Aleksotas","ja":"アレクソタス","it":"Aleksotas","zh-CN":"阿列克索塔斯","tr":"Aleksotas","ru":"Алексотас","uk":"Алексотас","pl":"Aleksotas","hi":"अलेक्सोटास","ar":"أليكسوتاس"}},{"name":"Ariogala","latitude":"55.26200000","longitude":"23.47700000","native":"Ariogala","translations":{"br":"Ariogala","ko":"아리오갈라","pt-BR":"Ariogala","pt":"Ariogala","nl":"Ariogala","hr":"Ariogala","fa":"آریوگالا","de":"Ariogala","es":"Ariogala","fr":"Ariogala","ja":"アリオガラ","it":"Ariogala","zh-CN":"阿里奥加拉","tr":"Ariogala","ru":"Ариогала","uk":"Аріогала","pl":"Ariogala","hi":"अरियोगाला","ar":"أريوغالا"}},{"name":"Birštonas","latitude":"54.61667000","longitude":"24.03333000","native":"Birštonas","translations":{"br":"Birštonas","ko":"비르스토나스","pt-BR":"Birštonas","pt":"Birštonas","nl":"Birštonas","hr":"Birštonas","fa":"بیرشتوناس","de":"Birštonas","es":"Birštonas","fr":"Birštonas","ja":"ビルシュトナス","it":"Birštonas","zh-CN":"比尔托纳斯","tr":"Birštonas","ru":"Бирштонас","uk":"Бірштонас","pl":"Birsztany","hi":"Birstonas","ar":"بيرشتوناس"}},{"name":"Dainava (Kaunas)","latitude":"54.91525000","longitude":"23.96831000","native":"Dainava (Kaunas)","translations":{"br":"Dainava (Kaunas)","ko":"다이나바(카우나스)","pt-BR":"Dainava (Kaunas)","pt":"Dainava (Kaunas)","nl":"Dainava (Kaunas)","hr":"Dainava (Kaunas)","fa":"دایناوا (کائوناس)","de":"Dainava (Kaunas)","es":"Dainava (Kaunas)","fr":"Dainava (Kaunas)","ja":"ダイナヴァ（カウナス）","it":"Dainava (Kaunas)","zh-CN":"戴纳瓦（考纳斯）","tr":"Dainava (Kaunas)","ru":"Дайнава (Каунас)","uk":"Дайнава (Каунас)","pl":"Dainava (Kowno)","hi":"दैनावा (कौनास)","ar":"داينافا (كاوناس)"}},{"name":"Eiguliai","latitude":"54.93133000","longitude":"23.93243000","native":"Eiguliai","translations":{"br":"Eiguliai","ko":"에이굴리아이","pt-BR":"Eiguliai","pt":"Eiguliai","nl":"Eiguliai","hr":"Eiguliai","fa":"ایگولیای","de":"Eiguliai","es":"Eiguliai","fr":"Eiguliai","ja":"エイグリアイ","it":"Eiguliai","zh-CN":"艾古利艾","tr":"Eiguliai","ru":"Эйгуляй","uk":"Ейгуляй","pl":"Eiguliai","hi":"एइगुलियाई","ar":"إيجولياي"}},{"name":"Ežerėlis","latitude":"54.88315000","longitude":"23.60396000","native":"Ežerėlis","translations":{"br":"Ežerėlis","ko":"에제렐리스","pt-BR":"Ežerėlis","pt":"Ežerėlis","nl":"Ežerėlis","hr":"Ežerėlis","fa":"ایژرلیس","de":"Ežerėlis","es":"Ežerėlis","fr":"Ežerėlis","ja":"エジェリス","it":"Ežerėlis","zh-CN":"埃泽尔杰利斯","tr":"Ežerėlis","ru":"Эжерелис","uk":"Ежерєліс","pl":"Ežerėlis","hi":"एज़ेरेलिस","ar":"إيزيريليس"}},{"name":"Garliava","latitude":"54.82139000","longitude":"23.87130000","native":"Garliava","translations":{"br":"Garliava","ko":"갈리아바","pt-BR":"Garliava","pt":"Garliava","nl":"Knoflook","hr":"Garliava","fa":"گارلیاوا","de":"Garliava","es":"Garliava","fr":"Garliava","ja":"ガルリアバ","it":"Garliava","zh-CN":"加利亚瓦","tr":"Garliava","ru":"Гарлява","uk":"Гарлява","pl":"Garliava","hi":"गरलियावा","ar":"غارليافا"}},{"name":"Jieznas","latitude":"54.59937000","longitude":"24.17593000","native":"Jieznas","translations":{"br":"Jieznas","ko":"지예즈나스","pt-BR":"Jieznas","pt":"Jieznas","nl":"Jieznas","hr":"Jieznas","fa":"جیزناس","de":"Jieznas","es":"Jieznas","fr":"Jieznas","ja":"ジエズナス","it":"Jieznas","zh-CN":"杰兹纳斯","tr":"Jieznalar","ru":"Езнас","uk":"Єзнас","pl":"Jieznas","hi":"जिएज़नास","ar":"جيزناس"}},{"name":"Jonava","latitude":"55.08333000","longitude":"24.28333000","native":"Jonava","translations":{"br":"Jonava","ko":"조나바","pt-BR":"Jonava","pt":"Jonava","nl":"Jonava","hr":"Jonava","fa":"جوناوا","de":"Jonava","es":"Jonava","fr":"Jonava","ja":"ジョナバ","it":"Gionava","zh-CN":"约纳瓦","tr":"Jonava","ru":"Йонава","uk":"Йонава","pl":"Jonava","hi":"जोनावा","ar":"جونافا"}},{"name":"Kaišiadorys","latitude":"54.86667000","longitude":"24.45000000","native":"Kaišiadorys","translations":{"br":"Kaišiadorys","ko":"카이시아도리스","pt-BR":"Kaišiadorys","pt":"Kaišiadorys","nl":"Kaišiadorys","hr":"Kaišiadorys","fa":"کایشیادوریس","de":"Kaišiadorys","es":"Kaišiadorys","fr":"Kaišiadorys","ja":"カイシアドリス","it":"Kaišiadorys","zh-CN":"凯西亚多里斯","tr":"Kaišiadorys","ru":"Кайшядорис","uk":"Кайшядорис","pl":"Koszedary","hi":"Kaisiadorys","ar":"كايسيادوريس"}},{"name":"Karmėlava","latitude":"54.97055000","longitude":"24.06182000","native":"Karmėlava","translations":{"br":"Karmėlava","ko":"카르멜라바","pt-BR":"Karmelava","pt":"Karmelava","nl":"Karmėlava","hr":"Karmėlava","fa":"کارملاوا","de":"Karmėlava","es":"Karmėlava","fr":"Karmėlava","ja":"カルメラヴァ","it":"Karmėlava","zh-CN":"卡尔梅拉瓦","tr":"Karmėlava","ru":"Кармелава","uk":"Кармелава","pl":"Karmelawa","hi":"कर्मेलावा","ar":"كارميلافا"}},{"name":"Kaunas","latitude":"54.90272000","longitude":"23.90961000","native":"Kaunas","translations":{"br":"Kaunas","ko":"카우나스","pt-BR":"Kaunas","pt":"Kaunas","nl":"Kaunas","hr":"Kaunas","fa":"کاوناس","de":"Kaunas","es":"Kaunas","fr":"Kaunas","ja":"カウナス","it":"Kaunas","zh-CN":"考纳斯","tr":"Kaunas","ru":"Каунас","uk":"Каунас","pl":"Kowno","hi":"कौनास","ar":"كاوناس"}},{"name":"Kėdainiai","latitude":"55.28333000","longitude":"23.96667000","native":"Kėdainiai","translations":{"br":"Kėdainiai","ko":"케다이니아이","pt-BR":"Kėdainiai","pt":"Kėdainiai","nl":"Kėdainiai","hr":"Kėdainiai","fa":"کداینیای","de":"Kėdainiai","es":"Kėdainiai","fr":"Kėdainiai","ja":"ケダイニアイ","it":"Kėdainiai","zh-CN":"凯代尼艾","tr":"Kėdainiai","ru":"Кедайняй","uk":"Кедайняй","pl":"Kiejdany","hi":"विनियस","ar":"كيداينياي"}},{"name":"Kulautuva","latitude":"54.94212000","longitude":"23.64218000","native":"Kulautuva","translations":{"br":"Kulautuva","ko":"쿨라우투바","pt-BR":"Kulautuva","pt":"Kulautuva","nl":"Kulautuva","hr":"Kulautuva","fa":"کولائوتووا","de":"Kulautuva","es":"Kulautuva","fr":"Kulautuva","ja":"クラウトゥヴァ","it":"Kulautuva","zh-CN":"库劳图瓦","tr":"Kulautuva","ru":"Кулаутува","uk":"Кулаутува","pl":"Kulautuva","hi":"कुलाउतुवा","ar":"كولوتوفا"}},{"name":"Mastaiciai","latitude":"54.81998000","longitude":"23.84462000","native":"Mastaiciai","translations":{"br":"Mastaiciai","ko":"마스타이시아이","pt-BR":"Mastaiciai","pt":"Mastaiciai","nl":"Mastaiciai","hr":"Mastaiciai","fa":"ماستایسیا","de":"Mastaiciai","es":"Mastaiciai","fr":"Mastaiciai","ja":"マステイチャイ","it":"Mastaiciai","zh-CN":"马斯泰恰伊","tr":"Mastaiciai","ru":"Мастайчяй","uk":"Мастайчяй","pl":"Mastaiciai","hi":"मस्ताईसाई","ar":"ماستايسياي"}},{"name":"Prienai","latitude":"54.63333000","longitude":"23.95000000","native":"Prienai","translations":{"br":"Prienai","ko":"프리에나이","pt-BR":"Prienai","pt":"Prienai","nl":"Prienai","hr":"Prienai","fa":"پرینای","de":"Prienai","es":"Prienai","fr":"Prienai","ja":"プリエナイ","it":"Prienai","zh-CN":"普列奈","tr":"Prienai","ru":"Пренай","uk":"Прієнай","pl":"Prienai","hi":"प्रियेनै","ar":"بريناي"}},{"name":"Ramučiai","latitude":"54.94830000","longitude":"24.03050000","native":"Ramučiai","translations":{"br":"Ramučiai","ko":"라무치아이","pt-BR":"Ramučiai","pt":"Ramučiai","nl":"Ramučiai","hr":"Ramučiai","fa":"راموچیای","de":"Ramučiai","es":"Ramučiai","fr":"Ramučiai","ja":"ラムチアイ","it":"Ramučiai","zh-CN":"拉姆齐艾","tr":"Ramučiai","ru":"Рамучяй","uk":"Рамучяй","pl":"Ramučiai","hi":"रामुचियाई","ar":"راموتشياي"}},{"name":"Raseiniai","latitude":"55.36667000","longitude":"23.11667000","native":"Raseiniai","translations":{"br":"Raseiniai","ko":"라세이니아이","pt-BR":"Raseiniai","pt":"Raseiniai","nl":"Raseiniai","hr":"Raseiniai","fa":"راسینیای","de":"Raseiniai","es":"Raseiniai","fr":"Raseiniai","ja":"ラセイニアイ","it":"Raseiniai","zh-CN":"拉塞尼艾","tr":"Raseiniai","ru":"Расейняй","uk":"Расейняй","pl":"Rosieni","hi":"रसेनीई","ar":"راسينياي"}},{"name":"Sargėnai","latitude":"54.94933000","longitude":"23.88316000","native":"Sargėnai","translations":{"br":"Sargėnai","ko":"사르게나이","pt-BR":"Sargėnai","pt":"Sargėnai","nl":"Sargėnai","hr":"Sargenai","fa":"سارگنای","de":"Sargėnai","es":"Sargėnai","fr":"Sargans","ja":"サルゲナイ","it":"Sargėnai","zh-CN":"萨尔格奈","tr":"Sargėnai","ru":"Саргенай","uk":"Сарґенай","pl":"Sargėnai","hi":"सरगेनाई","ar":"سارجيناي"}},{"name":"Šilainiai","latitude":"54.92911000","longitude":"23.88599000","native":"Šilainiai","translations":{"br":"Šilainiai","ko":"실라이니아이","pt-BR":"Šilainiai","pt":"Šilainiai","nl":"Šilainiai","hr":"Šilainiai","fa":"شیلاینای","de":"Šilainiai","es":"Šilainiai","fr":"Šilainiai","ja":"シライニアイ","it":"Šilainiai","zh-CN":"希莱尼艾","tr":"Šilainiai","ru":"Шилайняй","uk":"Шилайняй","pl":"Šilainiai","hi":"Šilainiai","ar":"سيلينياي"}},{"name":"Vilkija","latitude":"55.04609000","longitude":"23.58552000","native":"Vilkija","translations":{"br":"Vilkija","ko":"빌키야","pt-BR":"Vilkija","pt":"Vilkija","nl":"Vilkija","hr":"Vilkija","fa":"ویلکیجا","de":"Vilkija","es":"Vilkija","fr":"Vilkija","ja":"ヴィルキヤ","it":"Vilkija","zh-CN":"维尔基娅","tr":"Vilkija","ru":"Вилькия","uk":"Вількія","pl":"Wilkija","hi":"विल्किजा","ar":"فيلكيا"}},{"name":"Žiežmariai","latitude":"54.80725000","longitude":"24.44073000","native":"Žiežmariai","translations":{"br":"Žiežmariai","ko":"지즈마리아이","pt-BR":"Žiežmariai","pt":"Žiežmariai","nl":"Žiežmariai","hr":"Žiežmariai","fa":"ژیژماریای","de":"Žiežmariai","es":"Žiežmariai","fr":"Žiežmariai","ja":"ジエシュマリアイ","it":"Žiežmariai","zh-CN":"齐日马里亚伊","tr":"Žiežmariai","ru":"Жежмаряй","uk":"Жежмаряй","pl":"Žiežmariai","hi":"Žiežmariai","ar":"Žiežmariai"}}]},{"name":"Kaunas County","state_code":"KU","latitude":"54.98728630","longitude":"23.95257360","cities":[]},{"name":"Kaunas District Municipality","state_code":"16","latitude":"54.99362360","longitude":"23.63249410","cities":[]},{"name":"Kazlų Rūda municipality","state_code":"17","latitude":"54.78075260","longitude":"23.48402430","cities":[]},{"name":"Kėdainiai District Municipality","state_code":"18","latitude":"55.35609470","longitude":"23.98326830","cities":[]},{"name":"Kelmė District Municipality","state_code":"19","latitude":"55.62663520","longitude":"22.87817200","cities":[]},{"name":"Klaipeda City Municipality","state_code":"20","latitude":"55.70329480","longitude":"21.14427950","cities":[]},{"name":"Klaipėda County","state_code":"KL","latitude":"55.65197440","longitude":"21.37439560","cities":[]},{"name":"Klaipėda District Municipality","state_code":"21","latitude":"55.68416150","longitude":"21.44164640","cities":[{"name":"Gargždai","latitude":"55.70951000","longitude":"21.39441000","native":"Gargždai","translations":{"br":"Gargždai","ko":"가르그즈다이","pt-BR":"Gargždai","pt":"Gargždai","nl":"Gargždai","hr":"Gargždai","fa":"گارگزدای","de":"Gargždai","es":"Gargždai","fr":"Gargždai","ja":"ガルグズダイ","it":"Gargždai","zh-CN":"加尔格日代","tr":"Gargždai","ru":"Гаргждай","uk":"Гаргждай","pl":"Gargždai","hi":"गर्गज़दाई","ar":"جارجزداي"}},{"name":"Klaipėda","latitude":"55.71667000","longitude":"21.11667000","native":"Klaipėda","translations":{"br":"Klaipėda","ko":"클라이페다","pt-BR":"Klaipeda","pt":"Klaipeda","nl":"Klaipeda","hr":"Klaipėda","fa":"کلایپدا","de":"Klaipėda","es":"Klaipeda","fr":"Klaipėda","ja":"クライペダ","it":"Klaipėda","zh-CN":"克莱佩达","tr":"Klaipėda","ru":"Клайпеда","uk":"Клайпеда","pl":"Kłajpeda","hi":"क्लैपेडा","ar":"كلايبيدا"}},{"name":"Kretinga","latitude":"55.88880000","longitude":"21.24448000","native":"Kretinga","translations":{"br":"Kretinga","ko":"크레팅가","pt-BR":"Kretinga","pt":"Kretinga","nl":"Kretinga","hr":"Kretinga","fa":"کرتینگا","de":"Kretinga","es":"Kretinga","fr":"Kretinga","ja":"クレティンガ","it":"Kretinga","zh-CN":"克雷廷加","tr":"Kretinga","ru":"Кретинга","uk":"Кретінга","pl":"Kretinga","hi":"विनियस","ar":"كريتينجا"}},{"name":"Neringa","latitude":"55.36667000","longitude":"21.06667000","native":"Neringa","translations":{"br":"Neringa","ko":"네링가","pt-BR":"Neringa","pt":"Neringa","nl":"Neringa","hr":"Neringa","fa":"نرینگا","de":"Neringa","es":"Neringa","fr":"Neringa","ja":"ネリンガ","it":"Neringa","zh-CN":"内林加","tr":"Neringa","ru":"Неринга","uk":"Нерінга","pl":"Neringa","hi":"नेरिंगा","ar":"نرينجا"}},{"name":"Nida","latitude":"55.30860000","longitude":"20.99651000","native":"Nida","translations":{"br":"Nida","ko":"니다","pt-BR":"Nida","pt":"Nida","nl":"Nida","hr":"Nida","fa":"نیدا","de":"Nida","es":"Nida","fr":"Nida","ja":"ニダ","it":"Nida","zh-CN":"奈达","tr":"Nida","ru":"Нида","uk":"Ніда","pl":"Nida","hi":"निदा","ar":"نيدا"}},{"name":"Palanga","latitude":"55.91750000","longitude":"21.06861000","native":"Palanga","translations":{"br":"Palanga","ko":"팔랑가","pt-BR":"Palanga","pt":"Palanga","nl":"Palanga","hr":"Palanga","fa":"پالانگا","de":"Palanga","es":"Palanga","fr":"Palanga","ja":"パランガ","it":"Palanga","zh-CN":"帕兰加","tr":"Palanga","ru":"Паланга","uk":"Паланга","pl":"Połąga","hi":"पलांगा","ar":"بالانغا"}},{"name":"Priekulė","latitude":"55.55427000","longitude":"21.31903000","native":"Priekulė","translations":{"br":"Priekulė","ko":"프리쿨레","pt-BR":"Priekulė","pt":"Priekulė","nl":"Priekulė","hr":"Priekulė","fa":"پریکوله","de":"Priekulė","es":"Priekulė","fr":"Priekulė","ja":"プリエクレ","it":"Priekulė","zh-CN":"普列库列","tr":"Priekulė","ru":"Приекуле","uk":"Прієкуле","pl":"Priekulė","hi":"प्रीकुले","ar":"بريكول"}},{"name":"Rusnė","latitude":"55.29820000","longitude":"21.37120000","native":"Rusnė","translations":{"br":"Rusnė","ko":"루스네","pt-BR":"Russo","pt":"Russo","nl":"Rusnė","hr":"Rusne","fa":"روسنه","de":"Rusnė","es":"Rusne","fr":"Rusnė","ja":"ルスネ","it":"Rusnė","zh-CN":"鲁斯内","tr":"Rusnė","ru":"Русне","uk":"Русне","pl":"Rusnė","hi":"रुस्ने","ar":"روسني"}},{"name":"Salantai","latitude":"56.05650000","longitude":"21.56890000","native":"Salantai","translations":{"br":"Salantai","ko":"살란타이","pt-BR":"Salantai","pt":"Salantai","nl":"Salantai","hr":"Salantai","fa":"سالانتای","de":"Salantai","es":"Salantai","fr":"Salantaï","ja":"サランタイ","it":"Salantai","zh-CN":"萨兰泰","tr":"Salantai","ru":"Салантай","uk":"Салантай","pl":"Salantai","hi":"सलंताई","ar":"سالانتاي"}},{"name":"Silute","latitude":"55.34889000","longitude":"21.48306000","native":"Silute","translations":{"br":"Silute","ko":"실루트","pt-BR":"Silute","pt":"Silute","nl":"Silute","hr":"Silute","fa":"سیلوت","de":"Silute","es":"Silueta","fr":"Silute","ja":"沈黙","it":"Silute","zh-CN":"西卢特","tr":"Silüt","ru":"Шилуте","uk":"Силут","pl":"Silute","hi":"सिलुटे","ar":"سيلويت"}},{"name":"Skuodas","latitude":"56.26667000","longitude":"21.53333000","native":"Skuodas","translations":{"br":"Skuodas","ko":"스쿠오다스","pt-BR":"Skuodas","pt":"Skuodas","nl":"Skuodas","hr":"Skuodas","fa":"اسکوداس","de":"Skuodas","es":"Skuodas","fr":"Skuodas","ja":"スクオダス","it":"Skuodas","zh-CN":"斯库奥达斯","tr":"Skuodas","ru":"Скуодас","uk":"Скуодас","pl":"Skudy","hi":"स्कुओदास","ar":"سكوداس"}},{"name":"Šventoji","latitude":"56.02610000","longitude":"21.08411000","native":"Šventoji","translations":{"br":"Šventoji","ko":"슈벤토지","pt-BR":"Šventoji","pt":"Šventoji","nl":"Šventoji","hr":"Šventoji","fa":"شونتوجی","de":"Šventoji","es":"Šventoji","fr":"Šventoji","ja":"シュヴェントジ","it":"Šventoji","zh-CN":"什文托伊","tr":"Šventoji","ru":"Швянтойи","uk":"Швянтої","pl":"Święta","hi":"Šventoji","ar":"شفينتوجي"}},{"name":"Žemaičių Naumiestis","latitude":"55.35941000","longitude":"21.70364000","native":"Žemaičių Naumiestis","translations":{"br":"Žemaičių Naumiestis","ko":"Žemaičių Naumiestis","pt-BR":"Žemaičių Naumiestis","pt":"Žemaičių Naumiestis","nl":"Žemaičių Naumiestis","hr":"Žemaičių Naumiestis","fa":"ژمایچی نائومیِستیس","de":"Žemaičių Naumiestis","es":"Žemaičių Naumiestis","fr":"Žemaičių Naumiestis","ja":"Žemaičių Naumiestis","it":"Žemaičių Naumiestis","zh-CN":"Žemaičių Naumiestis","tr":"Žemaičių Naumiestis","ru":"Žemaičių Naumiestis","uk":"Жемайчів Науместіс","pl":"Žemaičių Naumiestis","hi":"Žemaičių Naumiestis","ar":"Žemaičių Naumiestis"}}]},{"name":"Kretinga District Municipality","state_code":"22","latitude":"55.88384200","longitude":"21.23509190","cities":[]},{"name":"Kupiškis District Municipality","state_code":"23","latitude":"55.84287410","longitude":"25.02958160","cities":[]},{"name":"Lazdijai District Municipality","state_code":"24","latitude":"54.23432670","longitude":"23.51565050","cities":[]},{"name":"Marijampolė County","state_code":"MR","latitude":"54.78199710","longitude":"23.13413650","cities":[]},{"name":"Marijampolė Municipality","state_code":"25","latitude":"54.57110940","longitude":"23.48593710","cities":[{"name":"Gelgaudiškis","latitude":"55.07688000","longitude":"22.97699000","native":"Gelgaudiškis","translations":{"br":"Gelgaudiškis","ko":"겔가우디스키스","pt-BR":"Gelgaudiškis","pt":"Gelgaudiškis","nl":"Gelgaudiškis","hr":"Gelgaudiškis","fa":"گلگاودیشکیس","de":"Gelgaudiškis","es":"Gelgaudiškis","fr":"Gelgaudiškis","ja":"ゲルガウディシュキス","it":"Gelgaudiškis","zh-CN":"盖尔高迪什基斯","tr":"Gelgaudiškis","ru":"Гелгаудишкис","uk":"Гельгаудішкіс","pl":"Gelgaudiškis","hi":"गेलगौडिस्किस","ar":"جيلجاوديشكيس"}},{"name":"Kalvarija","latitude":"54.41700000","longitude":"23.22300000","native":"Kalvarija","translations":{"br":"Kalvarija","ko":"칼바리야","pt-BR":"Kalvarija","pt":"Kalvarija","nl":"Kalvarija","hr":"Kalvarija","fa":"کالواریا","de":"Kalvarija","es":"Kalvarija","fr":"Kalvarija","ja":"カルヴァリヤ","it":"Kalvarija","zh-CN":"卡尔瓦里贾","tr":"Kalvariya","ru":"Калвария","uk":"Калварія","pl":"Kalwaria","hi":"कलवारिजा","ar":"كالفاريا"}},{"name":"Kalvarija Municipality","latitude":"54.41468000","longitude":"23.22484000","native":"Kalvarija savivaldybė","translations":{"br":"Kumuniezh-kumunioù Kalvarija","ko":"칼바리야 지방 자치 단체","pt-BR":"Município de Kalvarija","pt":"Município de Kalvarija","nl":"Gemeente Kalvarija","hr":"Općina Kalvarija","fa":"شهرداری کالواریجا","de":"Gemeinde Kalvarija","es":"Municipio de Kalvarija","fr":"Municipalité de Kalvarija","ja":"カルヴァリヤ市","it":"Comune di Kalvarija","zh-CN":"卡尔瓦里亚市","tr":"Kalvarija Belediyesi","ru":"Муниципалитет Калвария","uk":"Муніципалітет Калварія","pl":"Gmina Kalwaria","hi":"कलवारिजा नगर पालिका","ar":"بلدية كالفاريا"}},{"name":"Kazlų Rūda","latitude":"54.74900000","longitude":"23.49000000","native":"Kazlų Rūda","translations":{"br":"Kazlų Rūda","ko":"카즐루 루다","pt-BR":"Kazlų Rūda","pt":"Kazlų Rūda","nl":"Kazlų Rūda","hr":"Kazlu Ruda","fa":"کازلو رودا","de":"Kazlų Rūda","es":"Kazlų Rūda","fr":"Kazlų Rūda","ja":"カズルー・ルーダ","it":"Kazlų Rūda","zh-CN":"卡兹勒·鲁达","tr":"Kazlų Rūda","ru":"Казлу Руда","uk":"Казлу Руда","pl":"Kazlų Rūda","hi":"काज़लू रुदा","ar":"كازلو رودا"}},{"name":"Kazlų Rūda Municipality","latitude":"54.74751000","longitude":"23.49272000","native":"Kazlų Rūda Municipality","translations":{"br":"Kumuniezh Kazlų Rūda","ko":"카즐루 루다 지방 자치 단체","pt-BR":"Município de Kazlų Rūda","pt":"Município de Kazlų Rūda","nl":"Kazlų Rūda Municipality","hr":"Općina Kazlų Rūda","fa":"شهرداری کازلو رودا","de":"Gemeinde Kazlų Rūda","es":"Municipio de Kazlų Rūda","fr":"Municipalité de Kazlų Rūda","ja":"カズルー・ルーダ市","it":"Comune di Kazlų Rūda","zh-CN":"卡兹勒鲁达市","tr":"Kazlų Rūda Belediyesi","ru":"Муниципалитет Казлу-Руда","uk":"Муніципалітет Казлу-Руда","pl":"Gmina Kazlų Rūda","hi":"काज़लू रुडा नगर पालिका","ar":"بلدية كازلو رودا"}},{"name":"Kudirkos Naumiestis","latitude":"54.77353000","longitude":"22.86138000","native":"Kudirkos Naumiestis","translations":{"br":"Kudirkos Naumiestis","ko":"쿠디르코스 나우미에스티스","pt-BR":"Kudirkos Naumiestis","pt":"Kudirkos Naumiestis","nl":"Kudirkos Naumiestis","hr":"Kudirkos Naumiestis","fa":"کودیرکوس نائومیِستیس","de":"Kudirkos Naumiestis","es":"Kudirkos Naumiestis","fr":"Kudirkos Naumiestis","ja":"クディルコス・ナウミエスティス","it":"Kudirkos Naumiestis","zh-CN":"库迪尔科斯·瑙米斯蒂斯","tr":"Kudirkos Naumiestis","ru":"Кудиркос Науместис","uk":"Кудіркос Наумістіс","pl":"Kudirkos Naumiestis","hi":"कुदिरकोस नौमिएस्टिस","ar":"كوديركوس نوميستيس"}},{"name":"Kybartai","latitude":"54.63858000","longitude":"22.76316000","native":"Kybartai","translations":{"br":"Kybartai","ko":"키바르타이","pt-BR":"Kybartai","pt":"Kybartai","nl":"Kybartai","hr":"Kybartai","fa":"کیبارتای","de":"Kybartai","es":"Kybartai","fr":"Kybartaï","ja":"キバルタイ","it":"Kybartai","zh-CN":"基巴尔泰","tr":"Kybartai","ru":"Кибартай","uk":"Кібартай","pl":"Kybartai","hi":"क्यबरताई","ar":"كيبارتاي"}},{"name":"Marijampolė","latitude":"54.55991000","longitude":"23.35412000","native":"Marijampolė","translations":{"br":"Marijampolė","ko":"마리얌폴레","pt-BR":"Marijampolė","pt":"Marijampolė","nl":"Marijampolė","hr":"Marijampole","fa":"ماریجامپوله","de":"Marijampolė","es":"Marijampolė","fr":"Marijampolė","ja":"マリヤンポレ","it":"Marijampolė","zh-CN":"马里扬泊列","tr":"Marijampolė","ru":"Мариямполе","uk":"Маріямполе","pl":"Mariampol","hi":"Marijampole","ar":"ماريجامبولي"}},{"name":"Marijampolė Municipality","latitude":"54.56667000","longitude":"23.35000000","native":"Marijampolė Municipality","translations":{"br":"Kumun Marijampolė","ko":"마리얌폴레 시정촌","pt-BR":"Município de Marijampolė","pt":"Município de Marijampolė","nl":"Gemeente Marijampolė","hr":"Općina Marijampolė","fa":"شهرداری ماریامپوله","de":"Gemeinde Marijampolė","es":"Municipio de Marijampolė","fr":"Municipalité de Marijampolė","ja":"マリヤンポレ市","it":"Comune di Marijampolė","zh-CN":"马里扬泊列市","tr":"Marijampolė Belediyesi","ru":"Мариямпольский муниципалитет","uk":"Муніципалітет Маріямполе","pl":"Gmina Mariampol","hi":"मारिजम्पोले नगर पालिका","ar":"بلدية ماريامبولي"}},{"name":"Sakiai","latitude":"54.95000000","longitude":"23.05000000","native":"Sakiai","translations":{"br":"Sakiai","ko":"사키아이","pt-BR":"Sakiai","pt":"Sakiai","nl":"Sakiai","hr":"Sakiai","fa":"ساکیای","de":"Sakiai","es":"Sakiai","fr":"Sakiai","ja":"咲合","it":"Sakiai","zh-CN":"崎合","tr":"Sakiai","ru":"Шакяй","uk":"Сакіай","pl":"Sakiai","hi":"Šakiai","ar":"ساكياي"}},{"name":"Vilkaviskis","latitude":"54.65167000","longitude":"23.03222000","native":"Vilkaviskis","translations":{"br":"Vilkaviskis","ko":"빌카비스키스","pt-BR":"Vilkaviskis","pt":"Vilkaviskis","nl":"Vilkaviskis","hr":"Vilkaviškis","fa":"ویلکاویسکیس","de":"Vilkaviskis","es":"Vilkaviskis","fr":"Vilkaviskis","ja":"ヴィルカヴィスキス","it":"Vilkaviskis","zh-CN":"维尔卡维斯基斯","tr":"Vilkaviskis","ru":"Вилкавишкис","uk":"Вілкавішкіс","pl":"Vilkaviskis","hi":"विल्काविस्किस","ar":"فيلكافيسكيس"}},{"name":"Vilkaviškis District Municipality","latitude":"54.65000000","longitude":"23.03333000","native":"Vilkaviškis District Municipality","translations":{"br":"Kumuniezh-kumunioù distrig Vilkaviškis","ko":"빌카비슈키스 지구 자치단체","pt-BR":"Município do distrito de Vilkaviškis","pt":"Município do distrito de Vilkaviškis","nl":"Gemeente Vilkaviškis","hr":"Općina kotara Vilkaviškis","fa":"شهرداری منطقه ویلکاویسکیس","de":"Bezirksgemeinde Vilkaviškis","es":"Municipio distrital de Vilkaviškis","fr":"Municipalité du district de Vilkaviškis","ja":"ヴィルカヴィシュキス地区自治体","it":"Comune distrettuale di Vilkaviškis","zh-CN":"维尔卡维斯基斯区市政府","tr":"Vilkaviškis İlçe Belediyesi","ru":"Самоуправление Вилкавишкисского района","uk":"Вілкавишкіський районний муніципалітет","pl":"Gmina Rejonowa Wilkawiszki","hi":"विलकविस्किस जिला नगर पालिका","ar":"بلدية منطقة فيلكافيسكيس"}},{"name":"Virbalis","latitude":"54.62858000","longitude":"22.82272000","native":"Virbalis","translations":{"br":"Virbalis","ko":"비르발리스","pt-BR":"Virbalis","pt":"Virbalis","nl":"Virbalis","hr":"Virbalis","fa":"ویربالیس","de":"Virbalis","es":"Virbalis","fr":"Virbalis","ja":"ヴィルバリス","it":"Virbalis","zh-CN":"维尔巴利斯","tr":"Virbalis","ru":"Вирбалис","uk":"Вірбаліс","pl":"Virbalis","hi":"विरबालिस","ar":"فيرباليس"}}]},{"name":"Mažeikiai District Municipality","state_code":"26","latitude":"56.30924390","longitude":"22.34146800","cities":[]},{"name":"Molėtai District Municipality","state_code":"27","latitude":"55.22653090","longitude":"25.41800110","cities":[]},{"name":"Neringa Municipality","state_code":"28","latitude":"55.45724030","longitude":"21.08390050","cities":[]},{"name":"Pagėgiai municipality","state_code":"29","latitude":"55.17213200","longitude":"21.96836140","cities":[]},{"name":"Pakruojis District Municipality","state_code":"30","latitude":"56.07326050","longitude":"23.93899060","cities":[]},{"name":"Palanga City Municipality","state_code":"31","latitude":"55.92019800","longitude":"21.06776140","cities":[]},{"name":"Panevėžys City Municipality","state_code":"32","latitude":"55.73479150","longitude":"24.35747740","cities":[]},{"name":"Panevėžys County","state_code":"PN","latitude":"55.97480490","longitude":"25.07947670","cities":[]},{"name":"Panevėžys District Municipality","state_code":"33","latitude":"55.61667280","longitude":"24.31422830","cities":[{"name":"Birzai","latitude":"56.20000000","longitude":"24.75000000","native":"Birzai","translations":{"br":"Birzai","ko":"비르자이","pt-BR":"Birzai","pt":"Birzai","nl":"Birzai","hr":"Birzai","fa":"بیرزایی","de":"Birzai","es":"birzai","fr":"Birzaï","ja":"ビルザイ","it":"Birzai","zh-CN":"比尔扎伊","tr":"Birzai","ru":"Биржай","uk":"Біржай","pl":"Birzai","hi":"बिरजई","ar":"بيرزاي"}},{"name":"Juodupė","latitude":"56.08700000","longitude":"25.60700000","native":"Juodupė","translations":{"br":"Juodupė","ko":"주오두페","pt-BR":"Juodupė","pt":"Juodupė","nl":"Juodupė","hr":"Juodupė","fa":"جودوپه","de":"Juodupė","es":"Juodupė","fr":"Juodupė","ja":"ジュオドゥペ","it":"Juodupė","zh-CN":"尤奥杜佩","tr":"Juodupė","ru":"Юодупе","uk":"Юодупе","pl":"Juodupė","hi":"जुओडुपे","ar":"جودوبي"}},{"name":"Kupiskis","latitude":"55.84027000","longitude":"24.97976000","native":"Rankogalį","translations":{"br":"Kupiskis","ko":"쿠피스키스","pt-BR":"Kupiskis","pt":"Kupiskis","nl":"Kupiskis","hr":"Kupiškis","fa":"کوپیسکیس","de":"Kupiskis","es":"Kupiskis","fr":"Kupiskis","ja":"クピスキス","it":"Kupiskis","zh-CN":"库皮斯基斯","tr":"Kupiskis","ru":"Купишкис","uk":"Купішкис","pl":"Kupiskis","hi":"कुपिस्किस","ar":"كوبيسكيس"}},{"name":"Obeliai","latitude":"55.96895000","longitude":"25.15648000","native":"Obeliai","translations":{"br":"Obeliai","ko":"오벨리아이","pt-BR":"Obeliai","pt":"Obeliai","nl":"Obeliai","hr":"Obeliai","fa":"اوبلیای","de":"Obeliai","es":"Obeliai","fr":"Obéliai","ja":"オベリアイ","it":"Obeliai","zh-CN":"奥贝利艾","tr":"Obeliai","ru":"Обелиай","uk":"Обеляй","pl":"Obeliai","hi":"ओबेलियाई","ar":"أوبيلاي"}},{"name":"Panevėžys","latitude":"55.73333000","longitude":"24.35000000","native":"Panevėžys","translations":{"br":"Panevėžys","ko":"파네베지스","pt-BR":"Panevėžys","pt":"Panevėžys","nl":"Panevėžys","hr":"Panevėžys","fa":"پانه‌ژیس","de":"Panevėžys","es":"Panevėžys","fr":"Panevėžys","ja":"パネヴェジース","it":"Panevėžys","zh-CN":"帕内韦日斯","tr":"Panevėžys","ru":"Паневежис","uk":"Паневежис","pl":"Poniewież","hi":"Panevezys","ar":"بانيفيزيس"}},{"name":"Panevėžys City","latitude":"55.73600000","longitude":"24.34347000"},{"name":"Panevėžys District Municipality","latitude":"55.73301000","longitude":"24.37609000","native":"Panevėžys rajono savivaldybė","translations":{"br":"Kumuniezh-kumunioù Panevėžys","ko":"파네베지스 지구 자치단체","pt-BR":"Município do distrito de Panevėžys","pt":"Município do distrito de Panevėžys","nl":"Districtsgemeente Panevėžys","hr":"Općina okruga Panevėžys","fa":"شهرداری منطقه پانیوژیس","de":"Bezirksgemeinde Panevėžys","es":"Municipio distrital de Panevėžys","fr":"Municipalité du district de Panevėžys","ja":"パネヴェジース地区自治体","it":"Comune distrettuale di Panevėžys","zh-CN":"帕内韦日斯区市政府","tr":"Panevėžys İlçe Belediyesi","ru":"Самоуправление Паневежского района","uk":"Паневежська районна самоуправа","pl":"Gmina Rejonowa Poniewież","hi":"पनेवेज़िस जिला नगर पालिका","ar":"بلدية منطقة بانيفيزيس"}},{"name":"Pasvalys","latitude":"56.06667000","longitude":"24.40000000","native":"Pasvalys","translations":{"br":"Pasvalys","ko":"파스발리스","pt-BR":"Pasvalys","pt":"Pasvalys","nl":"Pasvalys","hr":"Pasvalys","fa":"پاسوالیس","de":"Pasvalys","es":"Pasvalys","fr":"Pasvalys","ja":"パスヴァリス","it":"Pasvalys","zh-CN":"帕斯瓦利斯","tr":"Pasvalys","ru":"Пасвалис","uk":"Пасваліс","pl":"Paswalys","hi":"पास्वालिस","ar":"باسفاليس"}},{"name":"Ramygala","latitude":"55.51400000","longitude":"24.30000000","native":"Ramygala","translations":{"br":"Ramygala","ko":"라미갈라","pt-BR":"Ramygala","pt":"Ramygala","nl":"Ramygala","hr":"Ramygala","fa":"رامیگالا","de":"Ramygala","es":"Ramygala","fr":"Ramygala","ja":"ラミガラ","it":"Ramygala","zh-CN":"拉米加拉","tr":"Ramygala","ru":"Рамигала","uk":"Рамиґала","pl":"Ramygala","hi":"राम्यगाला","ar":"راميغالا"}},{"name":"Rokiškis","latitude":"55.96667000","longitude":"25.58333000","native":"Rokiškis","translations":{"br":"Rokiškis","ko":"로키스키스","pt-BR":"Rokiškis","pt":"Rokiškis","nl":"Rokiškis","hr":"Rokiškis","fa":"روکیشکیس","de":"Rokiškis","es":"Rokiškis","fr":"Rokiškis","ja":"ロキシュキス","it":"Rokiškis","zh-CN":"罗基什基斯","tr":"Rokiškis","ru":"Рокишкис","uk":"Рокішкіс","pl":"Rokiszki","hi":"रोकिस्किस","ar":"روكيسكيس"}},{"name":"Vabalninkas","latitude":"55.98151000","longitude":"24.74828000","native":"Vabalninkas","translations":{"br":"Vabalninkas","ko":"바발닌카스","pt-BR":"Vabalninkas","pt":"Vabalninkas","nl":"Vabalninkas","hr":"Vabalninkas","fa":"وابالینکاس","de":"Vabalninkas","es":"Vabalninkas","fr":"Vabalninkas","ja":"ヴァバルニンカス","it":"Vabalninkas","zh-CN":"瓦巴尔宁卡斯","tr":"Vabalninkalar","ru":"Вабальнинкас","uk":"Вабальнінкас","pl":"Wabalniki","hi":"वाबल्निंकास","ar":"فابالنينكا"}}]},{"name":"Pasvalys District Municipality","state_code":"34","latitude":"56.06046190","longitude":"24.39629100","cities":[]},{"name":"Plungė District Municipality","state_code":"35","latitude":"55.91078400","longitude":"21.84540690","cities":[]},{"name":"Prienai District Municipality","state_code":"36","latitude":"54.63835800","longitude":"23.94680090","cities":[]},{"name":"Radviliškis District Municipality","state_code":"37","latitude":"55.81083990","longitude":"23.54648700","cities":[]},{"name":"Raseiniai District Municipality","state_code":"38","latitude":"55.38194990","longitude":"23.11561290","cities":[]},{"name":"Rietavas municipality","state_code":"39","latitude":"55.70217190","longitude":"21.99865640","cities":[]},{"name":"Rokiškis District Municipality","state_code":"40","latitude":"55.95550390","longitude":"25.58592490","cities":[]},{"name":"Šakiai District Municipality","state_code":"41","latitude":"54.95267100","longitude":"23.04801990","cities":[]},{"name":"Šalčininkai District Municipality","state_code":"42","latitude":"54.30976700","longitude":"25.38756400","cities":[]},{"name":"Šiauliai City Municipality","state_code":"43","latitude":"55.93490850","longitude":"23.31368230","cities":[{"name":"Akmenė","latitude":"56.25000000","longitude":"22.75000000","native":"Akmenė","translations":{"br":"Akmenė","ko":"아크메네","pt-BR":"Akmenė","pt":"Akmenė","nl":"Akmenė","hr":"Akmene","fa":"آکمنه","de":"Akmenė","es":"Akmenė","fr":"Akmenė","ja":"アクメネ","it":"Akmenė","zh-CN":"阿克梅内","tr":"Akmenė","ru":"Акмяне","uk":"Акмене","pl":"Okmenė","hi":"अक्मेने","ar":"أكميني"}},{"name":"Joniškis","latitude":"56.23333000","longitude":"23.61667000","native":"Joniškis","translations":{"br":"Joniškis","ko":"요니슈키스","pt-BR":"Joniškis","pt":"Joniškis","nl":"Joniškis","hr":"Joniškis","fa":"جونیشکیس","de":"Joniškis","es":"Joniškis","fr":"Joniškis","ja":"ヨニシュキス","it":"Joniškis","zh-CN":"约尼什基斯","tr":"Joniškis","ru":"Йонишкис","uk":"Йонішкіс","pl":"Joniškis","hi":"जोनिस्किस","ar":"جونيسكيس"}},{"name":"Kelmė","latitude":"55.63333000","longitude":"22.93333000","native":"Kelmė","translations":{"br":"Kelmė","ko":"켈메","pt-BR":"Kelme","pt":"Kelme","nl":"Kelmė","hr":"Kelmė","fa":"کلمی","de":"Kelmė","es":"Kelmė","fr":"Kelmė","ja":"ケルメ","it":"Kelmė","zh-CN":"凯尔梅","tr":"Kelmė","ru":"Кельме","uk":"Кельме","pl":"Kelme","hi":"Kelme","ar":"كيلمي"}},{"name":"Kuršėnai","latitude":"56.00318000","longitude":"22.93662000","native":"Kuršėnai","translations":{"br":"Kuršėnai","ko":"쿠르셰나이","pt-BR":"Kuršėnai","pt":"Kuršėnai","nl":"Kuršėnai","hr":"Kuršenai","fa":"کورشنای","de":"Kuršėnai","es":"Kuršėnai","fr":"Kuršėnai","ja":"クルシェナイ","it":"Kuršėnai","zh-CN":"库尔什奈","tr":"Kuršėnai","ru":"Куршенай","uk":"Куршенай","pl":"Kuršėnai","hi":"कुर्सेनाई","ar":"كورشيناي"}},{"name":"Linkuva","latitude":"56.08596000","longitude":"23.97061000","native":"Susieta","translations":{"br":"Linkuva","ko":"링쿠바","pt-BR":"Linkuva","pt":"Linkuva","nl":"Linkuva","hr":"Linkuva","fa":"لینکووا","de":"Linkuva","es":"Enlace","fr":"Linkuva","ja":"リンクヴァ","it":"Linkuva","zh-CN":"林库瓦","tr":"Bağlantı","ru":"Линкува","uk":"Лінкува","pl":"Linkuva","hi":"लिंकुवा","ar":"لينكوفا"}},{"name":"Naujoji Akmene","latitude":"56.31667000","longitude":"22.90000000","native":"Naujoji Akmene","translations":{"br":"Naujoji Akmene","ko":"나우조지 아크메네","pt-BR":"Naujoji Akmene","pt":"Naujoji Akmene","nl":"Naujoji Akmene","hr":"Naujoji Akmene","fa":"نائوجوجی آکمنه","de":"Naujoji Akmene","es":"Naujoji Akmene","fr":"Naujoji Akmene","ja":"ナウジョジ・アクメネ","it":"Naujoji Akmene","zh-CN":"瑙乔吉·阿克梅内","tr":"Naujoji Akmene","ru":"Науйоджи Акмене","uk":"Науджоджі Акмене","pl":"Naujoji Akmene","hi":"नौजोजी अकमेने","ar":"نوجوجي أكميني"}},{"name":"Pakruojis","latitude":"55.96667000","longitude":"23.86667000","native":"Pakruojis","translations":{"br":"Pakruojis","ko":"파크루오지스","pt-BR":"Pakruojis","pt":"Pakruojis","nl":"Pakruojis","hr":"Pakruojis","fa":"پاکروجی‌ها","de":"Pakruojis","es":"Pakruojis","fr":"Pakruojis","ja":"パクルオジス","it":"Pakruojis","zh-CN":"帕克鲁奥吉斯","tr":"Pakruojiler","ru":"Пакруойис","uk":"Пакруойс","pl":"Pakruojis","hi":"पकरुओजिस","ar":"باكروجيس"}},{"name":"Radviliskis","latitude":"55.81667000","longitude":"23.53333000","native":"Radviliskis","translations":{"br":"Radviliskis","ko":"라드빌리스키스","pt-BR":"Radviliskis","pt":"Radviliskis","nl":"Radviliskis","hr":"Radviliškis","fa":"رادویلیسکیس","de":"Radviliskis","es":"Radviliskis","fr":"Radviliskis","ja":"ラドヴィリスキス","it":"Radviliskis","zh-CN":"拉德维利斯基斯","tr":"Radviliskis","ru":"Радвилишкис","uk":"Радвіліскіс","pl":"Radziwiliszki","hi":"Radviliškis","ar":"رادفيليسكيس"}},{"name":"Šeduva","latitude":"55.74930000","longitude":"23.75610000","native":"Sheduva","translations":{"br":"Šeduva","ko":"셰두바","pt-BR":"Šeduva","pt":"Šeduva","nl":"Šeduva","hr":"Šeduva","fa":"شدووا","de":"Šeduva","es":"Šeduva","fr":"Šeduva","ja":"シェドゥヴァ","it":"Šeduva","zh-CN":"谢杜瓦","tr":"Şeduva","ru":"Шедува","uk":"Шедува","pl":"Šeduva","hi":"सेदुवा","ar":"شيدوفا"}},{"name":"Šiauliai","latitude":"55.93333000","longitude":"23.31667000","native":"Šiauliai","translations":{"br":"Šiauliai","ko":"샤울리아이","pt-BR":"Šiauliai","pt":"Šiauliai","nl":"Šiauliai","hr":"Šiauliai","fa":"شاولیای","de":"Šiauliai","es":"Šiauliai","fr":"Šiauliai","ja":"シャウレイ","it":"Šiauliai","zh-CN":"希奥利艾","tr":"Šiauliai","ru":"Шяуляй","uk":"Шяуляй","pl":"Szawle","hi":"शियाउलिया","ar":"شياولياي"}},{"name":"Tytuvėnėliai","latitude":"55.62345000","longitude":"23.17162000","native":"Tytuvėnėliai","translations":{"br":"Tytuvėnėliai","ko":"티투베네리아이","pt-BR":"Tytuvėnėliai","pt":"Tytuvėnėliai","nl":"Tytuvėnėliai","hr":"Tytuvėnėliai","fa":"تیتوونلیایی","de":"Tytuvėnėliai","es":"Tytuvėnėliai","fr":"Tytuvėnėliai","ja":"ティトゥヴェネリアイ","it":"Tytuvėnėliai","zh-CN":"泰图温尼利艾","tr":"Tytuvėnėliai","ru":"Титувенеляй","uk":"Титувенеляй","pl":"Tytuvėnėliai","hi":"Tytuvėnėliai","ar":"تيتوفينيلياي"}},{"name":"Venta","latitude":"56.19162000","longitude":"22.69528000","native":"Venta","translations":{"br":"Venta","ko":"벤타","pt-BR":"Venda","pt":"Venda","nl":"Verkoop","hr":"Venta","fa":"ونتا","de":"Venta","es":"Venta","fr":"Vente","ja":"ベンタ","it":"Vendita","zh-CN":"文塔","tr":"Satış","ru":"Вента","uk":"Вента","pl":"Venta","hi":"वेंटा","ar":"فينتا"}},{"name":"Žagarė","latitude":"56.36149000","longitude":"23.25094000","native":"Žagarė","translations":{"br":"Žagarė","ko":"자가레","pt-BR":"Žagarė","pt":"Žagarė","nl":"Žagarė","hr":"Žagarė","fa":"ژاگاره","de":"Žagarė","es":"Žagarė","fr":"Žagarė","ja":"ジャガレ","it":"Žagarė","zh-CN":"扎加雷","tr":"Žagarė","ru":"Жагаре","uk":"Жагаре","pl":"Żagary","hi":"Zagare","ar":"زغاري"}}]},{"name":"Šiauliai County","state_code":"SA","latitude":"55.99857510","longitude":"23.13800510","cities":[]},{"name":"Šiauliai District Municipality","state_code":"44","latitude":"55.97214560","longitude":"23.03323710","cities":[]},{"name":"Šilalė District Municipality","state_code":"45","latitude":"55.49268000","longitude":"22.18455590","cities":[]},{"name":"Šilutė District Municipality","state_code":"46","latitude":"55.35041400","longitude":"21.46598590","cities":[]},{"name":"Širvintos District Municipality","state_code":"47","latitude":"55.04310200","longitude":"24.95698100","cities":[]},{"name":"Skuodas District Municipality","state_code":"48","latitude":"56.27021690","longitude":"21.52143310","cities":[]},{"name":"Švenčionys District Municipality","state_code":"49","latitude":"55.10280980","longitude":"26.00718550","cities":[]},{"name":"Tauragė County","state_code":"TA","latitude":"55.30725860","longitude":"22.35729390","cities":[{"name":"Būgai","latitude":"55.41387000","longitude":"22.60894000","native":"Būgai","translations":{"br":"Bugai","ko":"부가이","pt-BR":"Bugai","pt":"Bugai","nl":"Būgai","hr":"Būgai","fa":"بوگای","de":"Bugai","es":"Bugai","fr":"Būgai","ja":"ブガイ","it":"Būgai","zh-CN":"布盖","tr":"Bugai","ru":"Бугай","uk":"Бугай","pl":"Būgai","hi":"बुगाई","ar":"بوغاي"}},{"name":"Jurbarkas","latitude":"55.10859000","longitude":"22.79885000","native":"Jurbarkas","translations":{"br":"Jurbarkas","ko":"주르바르카스","pt-BR":"Jurbarkas","pt":"Jurbarkas","nl":"Jurbarkas","hr":"Jurbarkas","fa":"جوربارکاس","de":"Jurbarkas","es":"Jurbarkas","fr":"Jurbarkas","ja":"ユルバルカス","it":"Jurbarkas","zh-CN":"尤尔巴尔卡斯","tr":"Jurbarkas","ru":"Юрбаркас","uk":"Юрбаркас","pl":"Jurbarkas","hi":"जुर्बर्कास","ar":"جورباركاس"}},{"name":"Pagėgiai","latitude":"55.13400000","longitude":"21.90446000","native":"Pagėgiai","translations":{"br":"Pagėgiai","ko":"페이지기아이","pt-BR":"Pagėgiai","pt":"Pagėgiai","nl":"Pagėgiai","hr":"Pagėgiai","fa":"پاگیا","de":"Pagėgiai","es":"Pagėgiai","fr":"Pagėgiai","ja":"パゲギアイ","it":"Pagėgiai","zh-CN":"页面","tr":"Sayfalar","ru":"Пагегяй","uk":"Пагегяй","pl":"Pagėgiai","hi":"पगेगियाई","ar":"باجيجياي"}},{"name":"Šilalė","latitude":"55.46667000","longitude":"22.20000000","native":"Šilalė","translations":{"br":"Šilalė","ko":"실랄레","pt-BR":"Silalė","pt":"Silalė","nl":"Šilalė","hr":"Šilalė","fa":"شیلاله","de":"Šilalė","es":"Šilalė","fr":"Šilalė","ja":"シラレ","it":"Šilalė","zh-CN":"希拉莱","tr":"Šilalė","ru":"Шилале","uk":"Шилале","pl":"Szyłalnia","hi":"Silale","ar":"شيلالي"}},{"name":"Taurage","latitude":"55.25222000","longitude":"22.28972000","native":"Tauražas","translations":{"br":"Taurage","ko":"타우라지","pt-BR":"Taurage","pt":"Taurage","nl":"Taurage","hr":"Taurage","fa":"تاوراژ","de":"Taurage","es":"Taurage","fr":"Taurage","ja":"タウラージ","it":"Taurage","zh-CN":"陶拉格","tr":"Taurage","ru":"Таураге","uk":"Таураге","pl":"Taurage","hi":"टौरागे","ar":"توراج"}}]},{"name":"Tauragė District Municipality","state_code":"50","latitude":"55.25036600","longitude":"22.29095000","cities":[]},{"name":"Telšiai County","state_code":"TE","latitude":"56.10266160","longitude":"22.11139150","cities":[]},{"name":"Telšiai District Municipality","state_code":"51","latitude":"55.91752150","longitude":"22.34518400","cities":[{"name":"Mazeikiai","latitude":"56.31667000","longitude":"22.33333000","native":"Mazeikiai","translations":{"br":"Mazeikiai","ko":"마제이키아이","pt-BR":"Mazeikiai","pt":"Mazeikiai","nl":"Mazeikiai","hr":"Mazeikiai","fa":"مازئیکیای","de":"Mazeikiai","es":"Mazeikiai","fr":"Mazeikiai","ja":"マゼイキアイ","it":"Mazeikiai","zh-CN":"马泽基艾","tr":"Mazeikiai","ru":"Мажейкяй","uk":"Мажейкяй","pl":"Możejki","hi":"माज़ेइकाई","ar":"مازييكياي"}},{"name":"Plateliai","latitude":"56.04657000","longitude":"21.81615000","native":"Plateliai","translations":{"br":"Plateliai","ko":"플라텔리아이","pt-BR":"Plateliai","pt":"Plateliai","nl":"Plateliai","hr":"Plateliai","fa":"پلاتلیای","de":"Plateliai","es":"Plateliai","fr":"Plateliai","ja":"プラテリアイ","it":"Plateliai","zh-CN":"普拉特利艾","tr":"Plateliai","ru":"Плателяй","uk":"Плателяй","pl":"Plateliai","hi":"प्लेटेलियाई","ar":"بلاتيلياي"}},{"name":"Plunge","latitude":"55.91139000","longitude":"21.84417000","native":"Pasinerti","translations":{"br":"Splujañ","ko":"돌진","pt-BR":"Mergulhar","pt":"Mergulhar","nl":"Duik","hr":"Poniranje","fa":"غوطه‌ور شدن","de":"Stürzen","es":"Inmersión","fr":"Plonger","ja":"プランジ","it":"Immergiti","zh-CN":"跳水","tr":"Dalma","ru":"Нырять","uk":"Занурення","pl":"Wpaść","hi":"डुबकी","ar":"غطس"}},{"name":"Rietavas","latitude":"55.72375000","longitude":"21.93266000","native":"Rietavas","translations":{"br":"Rietavas","ko":"리에타바스","pt-BR":"Rietavas","pt":"Rietavas","nl":"Rietavas","hr":"Rietavas","fa":"ریتاوا","de":"Rietavas","es":"Rietavas","fr":"Rietavas","ja":"リエタヴァス","it":"Rietavas","zh-CN":"里埃塔瓦斯","tr":"Rietavas","ru":"Риетавас","uk":"Рієтавас","pl":"Rietavas","hi":"रीतावास","ar":"رييتافاس"}},{"name":"Seda","latitude":"56.16854000","longitude":"22.09071000","native":"Tai","translations":{"br":"Seda","ko":"세다","pt-BR":"Seda","pt":"Seda","nl":"Seda","hr":"Seda","fa":"سدا","de":"Seda","es":"Seda","fr":"Soie","ja":"セダ","it":"Seda","zh-CN":"色达","tr":"Seda","ru":"Седа","uk":"Седа","pl":"Seda","hi":"सेडा","ar":"سيدا"}},{"name":"Telsiai","latitude":"55.98139000","longitude":"22.24722000","native":"Telsiai","translations":{"br":"Telsiai","ko":"텔시아이","pt-BR":"Telsiai","pt":"Telsiai","nl":"Telsiai","hr":"Telsiai","fa":"تلسیای","de":"Telsiai","es":"Telsiai","fr":"Telsiai","ja":"テルシアイ","it":"Telsiai","zh-CN":"特尔西艾","tr":"Telsiai","ru":"Тельшяй","uk":"Тельшяй","pl":"Telsze","hi":"तेल्सियाई","ar":"تيلسياي"}},{"name":"Varniai","latitude":"55.74435000","longitude":"22.37251000","native":"Varniai","translations":{"br":"Varniai","ko":"바르니아이","pt-BR":"Varniai","pt":"Varniai","nl":"Varniai","hr":"Varniai","fa":"وارنیای","de":"Varniai","es":"Varniai","fr":"Varniai","ja":"ヴァルニアイ","it":"Varniai","zh-CN":"瓦尔尼艾","tr":"Varniai","ru":"Варняй","uk":"Варняй","pl":"Warniai","hi":"वर्नियाई","ar":"فارنياي"}},{"name":"Viekšniai","latitude":"56.23598000","longitude":"22.51667000","native":"Viekšniai","translations":{"br":"Viekšniai","ko":"비에크슈니아이","pt-BR":"Viekšniai","pt":"Viekšniai","nl":"Viekšniai","hr":"Viekšniai","fa":"ویکشنیای","de":"Viekšniai","es":"Viekšniai","fr":"Viekšniai","ja":"ヴィエクシュニアイ","it":"Viekšniai","zh-CN":"维克什尼亚伊","tr":"Vietnam","ru":"Векшняй","uk":"Вікшняй","pl":"Viekšniai","hi":"विएकश्नियाई","ar":"فيكسنياي"}}]},{"name":"Trakai District Municipality","state_code":"52","latitude":"54.63791130","longitude":"24.93468940","cities":[]},{"name":"Ukmergė District Municipality","state_code":"53","latitude":"55.24526500","longitude":"24.77607490","cities":[]},{"name":"Utena County","state_code":"UT","latitude":"55.53189690","longitude":"25.79046990","cities":[{"name":"Anyksciai","latitude":"55.52557000","longitude":"25.10264000","native":"Anyksciai","translations":{"br":"Anyksciai","ko":"아니크샤이","pt-BR":"Anyksciai","pt":"Anyksciai","nl":"Anyksciai","hr":"Anyksciai","fa":"آنیکسیا","de":"Anyksciai","es":"Anyksciai","fr":"Anyksciai","ja":"アニークシチャイ","it":"Anyksciai","zh-CN":"阿尼克什恰伊","tr":"Anyksciai","ru":"Аникщяй","uk":"Анікщяй","pl":"Onikszty","hi":"अनीक्सियाई","ar":"أنيكسياي"}},{"name":"Dūkštas","latitude":"55.52200000","longitude":"26.32100000","native":"Vėžlys","translations":{"br":"Dūkštas","ko":"두크슈타스","pt-BR":"Dūkštas","pt":"Dūkštas","nl":"Dūkštas","hr":"Dūkštas","fa":"دوکشتاها","de":"Dūkštas","es":"Dūkštas","fr":"Dūkštas","ja":"ドゥクスタス","it":"Dūkštas","zh-CN":"杜克什塔斯","tr":"Dūkštas","ru":"Дукштас","uk":"Дукштас","pl":"Dūkštas","hi":"डुक्स्टास","ar":"دوكشاتاس"}},{"name":"Ignalina","latitude":"55.35000000","longitude":"26.16667000","native":"Ignalina","translations":{"br":"Ignalina","ko":"이그날리나","pt-BR":"Ignalina","pt":"Ignalina","nl":"Ignalina","hr":"Ignalina","fa":"ایگنالینا","de":"Ignalina","es":"Ignalina","fr":"Ignalina","ja":"イグナリナ","it":"Ignalina","zh-CN":"伊格纳利纳","tr":"Ignalina","ru":"Игналина","uk":"Ігналіна","pl":"Ignalina","hi":"इग्नालिना","ar":"إغنالينا"}},{"name":"Moletai","latitude":"55.23333000","longitude":"25.41667000","native":"Moletai","translations":{"br":"Moletai","ko":"몰레타이","pt-BR":"Moletai","pt":"Moletai","nl":"Moletai","hr":"Moletai","fa":"مولتای","de":"Moletai","es":"Moletai","fr":"Moletai","ja":"モレタイ","it":"Moletai","zh-CN":"莫莱泰","tr":"Moletai","ru":"Молетай","uk":"Молетай","pl":"Moletai","hi":"मोलेटाई","ar":"مولتاي"}},{"name":"Utena","latitude":"55.49764000","longitude":"25.59918000","native":"Utena","translations":{"br":"Utena","ko":"우테나","pt-BR":"Utena","pt":"Utena","nl":"Utena","hr":"Utena","fa":"اوتنا","de":"Utena","es":"Utena","fr":"Utena","ja":"ウテナ","it":"Utena","zh-CN":"欧蒂娜","tr":"Utena","ru":"Утена","uk":"Утена","pl":"Uciana","hi":"उटेना","ar":"أوتينا"}},{"name":"Visaginas","latitude":"55.60000000","longitude":"26.41667000","native":"Visaginas","translations":{"br":"Visaginas","ko":"비사기나스","pt-BR":"Visaginas","pt":"Visaginas","nl":"Visaginas","hr":"Visaginas","fa":"ویساگیناس","de":"Visaginas","es":"Visaginas","fr":"Visaginas","ja":"ヴィサギナス","it":"Visaginas","zh-CN":"维萨吉纳斯","tr":"Vizginalar","ru":"Висагинас","uk":"Вісагінас","pl":"Wisaginia","hi":"विसागिनास","ar":"فيساجيناس"}},{"name":"Zarasai","latitude":"55.73333000","longitude":"26.25000000","native":"Zarasai","translations":{"br":"Zarasai","ko":"자라사이","pt-BR":"Zarasai","pt":"Zarasai","nl":"Zarasai","hr":"Zarasai","fa":"زاراسای","de":"Zarasai","es":"Zarasai","fr":"Zarasaï","ja":"ザラサイ","it":"Zarasai","zh-CN":"扎拉赛","tr":"Zarasai","ru":"Зарасай","uk":"Зарасай","pl":"Zarasai","hi":"ज़रासाई","ar":"زاراساي"}}]},{"name":"Utena District Municipality","state_code":"54","latitude":"55.50846140","longitude":"25.68326420","cities":[]},{"name":"Varėna District Municipality","state_code":"55","latitude":"54.22033300","longitude":"24.57899700","cities":[]},{"name":"Vilkaviškis District Municipality","state_code":"56","latitude":"54.65194500","longitude":"23.03515500","cities":[]},{"name":"Vilnius City Municipality","state_code":"57","latitude":"54.67107610","longitude":"25.28787210","cities":[{"name":"Aukstadvaris","latitude":"54.57946000","longitude":"24.52683000","native":"Šalta","translations":{"br":"Aukstadvaris","ko":"오크스타드바리스","pt-BR":"Aukstadvaris","pt":"Aukstadvaris","nl":"Aukstadvaris","hr":"Aukstadvaris","fa":"اوکستاواریس","de":"Aukstadvaris","es":"Aukstadvaris","fr":"Aukstadvaris","ja":"オークスタドヴァリス","it":"Aukstadvaris","zh-CN":"奥克斯塔德瓦里斯","tr":"Aukstadvaris","ru":"Аукштадварис","uk":"Аукстадварис","pl":"Aukstadvaris","hi":"ऑकस्टेडवारिस","ar":"أوكستافاريس"}},{"name":"Baltoji Vokė","latitude":"54.60002000","longitude":"25.19318000","native":"Baltoji Vokė","translations":{"br":"Baltoji Vokė","ko":"발토지 보케","pt-BR":"Baltoji Vokė","pt":"Baltoji Vokė","nl":"Baltoji Vokė","hr":"Baltoji Vokė","fa":"بالتوجی ووکی","de":"Baltoji Vokė","es":"Baltoji Vokė","fr":"Baltoji Vokė","ja":"バルトジ・ヴォケ","it":"Baltoji Vokė","zh-CN":"巴尔托吉·沃克","tr":"Baltoji Vokė","ru":"Baltoji Vokė","uk":"Балтойї Воке","pl":"Biała Woka","hi":"बाल्टोजी वोके","ar":"بالتوجي فوكي"}},{"name":"Eišiškės","latitude":"54.17414000","longitude":"24.99917000","native":"Eišiškės","translations":{"br":"Eišiskės","ko":"에이시슈케스","pt-BR":"Eišiškės","pt":"Eišiškės","nl":"Eišiškės","hr":"Eišiškės","fa":"ایشیشک‌ها","de":"Eišiškės","es":"Eišiškės","fr":"Eišiškės","ja":"エイシケス","it":"Eišiškės","zh-CN":"艾希什克斯","tr":"Eišiškės","ru":"Эйшишкес","uk":"Ейшішкес","pl":"Ejszyszki","hi":"एइशिस्केस","ar":"آيسيشكيس"}},{"name":"Elektrėnai","latitude":"54.78544000","longitude":"24.66302000","native":"Elektrėnai","translations":{"br":"Elektrėnai","ko":"일렉트레나이","pt-BR":"Elektrėnai","pt":"Elektrėnai","nl":"Elektrėnai","hr":"Elektrėnai","fa":"برق","de":"Elektrėnai","es":"Elektrėnai","fr":"Électricité","ja":"エレクトレナイ","it":"Elektrėnai","zh-CN":"埃莱克特雷奈","tr":"Elektrėnai","ru":"Электренай","uk":"Електренай","pl":"Elektreny","hi":"Elektrenai","ar":"إليكتروناي"}},{"name":"Fabijoniškės","latitude":"54.73333000","longitude":"25.24167000","native":"Fabijoniškės","translations":{"br":"Fabijoniškės","ko":"파비조니슈케스","pt-BR":"Fabijoniškės","pt":"Fabijoniškės","nl":"Fabijoniškės","hr":"Fabijoniškės","fa":"فابیجونیشکس","de":"Fabijoniškės","es":"Fabijoniškės","fr":"Fabijoniškės","ja":"ファビヨニシュケス","it":"Fabijoniškės","zh-CN":"法比约尼什克斯","tr":"Fabijoniškės","ru":"Фабиёнишкес","uk":"Фабійонішкес","pl":"Fabijoniškės","hi":"फैबिजोनिस्केस","ar":"فابيجونيشكيس"}},{"name":"Grigiškės","latitude":"54.68333000","longitude":"25.08333000","native":"Grigiškės","translations":{"br":"Grigiškės","ko":"그리기슈케스","pt-BR":"Grigiškės","pt":"Grigiškės","nl":"Grigiškės","hr":"Grigiškės","fa":"گریگیشکس","de":"Grigiškės","es":"Grigiškės","fr":"Grigiškės","ja":"グリギシュケス","it":"Grigiškės","zh-CN":"格里吉什凯斯","tr":"Grigiškės","ru":"Григишкес","uk":"Григішкес","pl":"Grigiškės","hi":"ग्रिगिस्केस","ar":"غريغيشكيس"}},{"name":"Justiniškės","latitude":"54.71664000","longitude":"25.21740000","native":"Justiniškės","translations":{"br":"Justiniškės","ko":"유스티니슈케스","pt-BR":"Justiniškės","pt":"Justiniškės","nl":"Justiniškės","hr":"Justiniškes","fa":"جاستینیشکِس","de":"Justiniškės","es":"Justiniškės","fr":"Justiniškės","ja":"ユスティニシュケス","it":"Justiniškės","zh-CN":"贾斯蒂尼什克斯","tr":"Justiniškės","ru":"Юстинишкес","uk":"Юстинішкес","pl":"Justiniškės","hi":"जस्टिनिस्केस","ar":"جوستينيشكيس"}},{"name":"Lazdynai","latitude":"54.66815000","longitude":"25.20684000","native":"Lazdynai","translations":{"br":"Lazdynai","ko":"라즈디나이","pt-BR":"Lazdynai","pt":"Lazdynai","nl":"Lazdynai","hr":"Lazdynai","fa":"لازدینای","de":"Lazdynai","es":"Lazdynai","fr":"Lazdynai","ja":"ラズディナイ","it":"Lazdynai","zh-CN":"拉兹德奈","tr":"Lazdynai","ru":"Лаздинай","uk":"Лаздинай","pl":"Lazdynai","hi":"लाज़्डिनाई","ar":"لازديناي"}},{"name":"Lentvaris","latitude":"54.64364000","longitude":"25.05162000","native":"Lentvaris","translations":{"br":"Lentvaris","ko":"렌트바리스","pt-BR":"Lentvaris","pt":"Lentvaris","nl":"Lentvaris","hr":"Lentvaris","fa":"لنتواریس","de":"Lentvaris","es":"Lentvaris","fr":"Lentvaris","ja":"レントバリス","it":"Lentvaris","zh-CN":"伦特瓦里斯","tr":"Lentvaris","ru":"Лентварис","uk":"Лентваріс","pl":"Lentwarów","hi":"लेंटवारिस","ar":"لينتفاريس"}},{"name":"Naujamiestis","latitude":"54.67951000","longitude":"25.26855000","native":"Naujamiestis","translations":{"br":"Naujamiestis","ko":"나우자미에스티스","pt-BR":"Naujamiestis","pt":"Naujamiestis","nl":"Naujamiestis","hr":"Naujamiestis","fa":"ناوجامیست","de":"Naujamiestis","es":"Naujamiestis","fr":"Naujamiestis","ja":"ナウジャミエスティス","it":"Naujamiestis","zh-CN":"瑙贾米斯蒂斯","tr":"Naujamiestis","ru":"Науяместис","uk":"Науямістіс","pl":"Nowe miasto","hi":"नौजामिएस्टिस","ar":"ناوجيامييستيس"}},{"name":"Nemenčinė","latitude":"54.84776000","longitude":"25.46992000","native":"Nemenčinė","translations":{"br":"Nemenčinė","ko":"네멘치네","pt-BR":"Nemenčinė","pt":"Nemenčinė","nl":"Nemenčinė","hr":"Nemenčinė","fa":"نمنچینه","de":"Nemenčinė","es":"Nemenčinė","fr":"Nemenčinė","ja":"ネメンチネ","it":"Nemenčinė","zh-CN":"涅门奇内","tr":"Nemenčinė","ru":"Неменчине","uk":"Неменчіне","pl":"Niemenczyn","hi":"नेमेन्चिन","ar":"نيمينشيني"}},{"name":"Pabradė","latitude":"54.98100000","longitude":"25.76100000","native":"Pabradė","translations":{"br":"Pabradė","ko":"파브라데","pt-BR":"Pabradė","pt":"Pabradė","nl":"Pabradė","hr":"Pabradė","fa":"پابراده","de":"Pabradė","es":"Pabrade","fr":"Pabradė","ja":"パブラデ","it":"Pabradė","zh-CN":"帕布拉德","tr":"Pabradė","ru":"Пабраде","uk":"Пабраде","pl":"Pabradė","hi":"पाब्राडे","ar":"بابراد"}},{"name":"Pašilaičiai","latitude":"54.73429000","longitude":"25.21912000","native":"Pašilaičiai","translations":{"br":"Pašilaičiai","ko":"파실라이치아이","pt-BR":"Pašilaičiai","pt":"Pašilaičiai","nl":"Pašilaičiai","hr":"Pašilaičiai","fa":"پاشیلایسی","de":"Pašilaičiai","es":"Pašilaičiai","fr":"Pašilaičiai","ja":"パシライチアイ","it":"Pašilaičiai","zh-CN":"帕西莱奇亚伊","tr":"Pašilaičiai","ru":"Пашилайчяй","uk":"Пашилайчяй","pl":"Pašilaičiai","hi":"पासिलाइसियाई","ar":"باسيلايتشياي"}},{"name":"Pilaitė","latitude":"54.69981000","longitude":"25.18393000","native":"Pilaitė","translations":{"br":"Pilaitė","ko":"필라이테","pt-BR":"Pilaite","pt":"Pilaite","nl":"Pilaitė","hr":"Pilaitė","fa":"پیلایته","de":"Pilaitė","es":"Pilaitė","fr":"Pilaitė","ja":"ピライテ","it":"Pilaitė","zh-CN":"皮莱特","tr":"Pilaitė","ru":"Пилайте","uk":"Пілайте","pl":"Pilaitė","hi":"पिलाटे","ar":"بيلايتي"}},{"name":"Rasos","latitude":"54.67877000","longitude":"25.31173000","native":"Rasos","translations":{"br":"Rasos","ko":"라소스","pt-BR":"Rasos","pt":"Rasos","nl":"Rasos","hr":"Rasos","fa":"راسوس","de":"Rasos","es":"Rasos","fr":"Rasos","ja":"ラソス","it":"Rasos","zh-CN":"拉索斯","tr":"Rasos","ru":"Расос","uk":"Расос","pl":"Rasos","hi":"रसोस","ar":"راسوس"}},{"name":"Rūdiškės","latitude":"54.51609000","longitude":"24.83084000","native":"Rūdiškės","translations":{"br":"Rūdiškės","ko":"루디슈케스","pt-BR":"Rūdiškės","pt":"Rūdiškės","nl":"Rūdiškės","hr":"Rudiškės","fa":"رودیشک‌ها","de":"Rūdiškės","es":"Rūdiškės","fr":"Rūdiškės","ja":"ルディシュケス","it":"Rūdiškės","zh-CN":"鲁迪什克斯","tr":"Rūdiškės","ru":"Рудишкес","uk":"Рудішкес","pl":"Rudiszki","hi":"रुडिस्केस","ar":"روديشكيس"}},{"name":"Šalčininkai","latitude":"54.30000000","longitude":"25.38333000","native":"Šalčininkai","translations":{"br":"Šalčininkai","ko":"Šalčininkai","pt-BR":"Šalčininkai","pt":"Šalčininkai","nl":"Šalčininkai","hr":"Šalčininkai","fa":"شالچینینکای","de":"Šalčininkai","es":"Šalčininkai","fr":"Šalčininkai","ja":"シャルチニンカイ","it":"Šalčininkai","zh-CN":"沙尔奇宁凯","tr":"Šalčininkai","ru":"Шальчининкай","uk":"Шальчінінкай","pl":"Soleczniki","hi":"Šalčininkai","ar":"Šalčininkai"}},{"name":"Senieji Trakai","latitude":"54.60900000","longitude":"24.98000000","native":"Senieji Trakai","translations":{"br":"Senieji Trakai","ko":"세니에지 트라카이","pt-BR":"Senieji Trakai","pt":"Senieji Trakai","nl":"Senieji Trakai","hr":"Senieji Trakai","fa":"سنیجی تراکای","de":"Senieji Trakai","es":"Senieji Trakai","fr":"Senieji Trakai","ja":"セニエジ・トラカイ","it":"Senieji Trakai","zh-CN":"塞涅吉特拉凯","tr":"Senieji Trakai","ru":"Старый Тракай","uk":"Сеньєї Тракай","pl":"Stare Troki","hi":"सेनीजी ट्रकाई","ar":"سينيجي تراكاي"}},{"name":"Šeškinė","latitude":"54.70972000","longitude":"25.25053000","native":"Šeškinė","translations":{"br":"Šeškinė","ko":"셰슈키네","pt-BR":"Šeškinė","pt":"Šeškinė","nl":"Šeškinė","hr":"Šeškine","fa":"ششکینه","de":"Šeškinė","es":"Šeškinė","fr":"Šeškinė","ja":"シェシュキネ","it":"Šeškinė","zh-CN":"谢什金","tr":"Şeškinė","ru":"Шешкине","uk":"Шешкіне","pl":"Szeszkin","hi":"शेस्किन","ar":"شيشكين"}},{"name":"Sirvintos","latitude":"55.05000000","longitude":"24.95000000","native":"Sirvintai","translations":{"br":"Sirvintos","ko":"시르빈토스","pt-BR":"Sirvintos","pt":"Sirvintos","nl":"Sirvintos","hr":"Sirvintos","fa":"سیروینتوس","de":"Sirvintos","es":"Sirvintos","fr":"Sirvintos","ja":"サービントス","it":"Sirvintos","zh-CN":"西尔文托斯","tr":"Sirvintos","ru":"Ширвинтос","uk":"Сірвінтос","pl":"Sirvintos","hi":"सिरविंटोस","ar":"سيرفينتوس"}},{"name":"Skaidiškės","latitude":"54.61398000","longitude":"25.39573000","native":"Skaidiškės","translations":{"br":"Skaidiškės","ko":"스카이디슈케스","pt-BR":"Skaidiškės","pt":"Skaidiškės","nl":"Skaidiškės","hr":"Skaidiškes","fa":"اسکایدیشکس","de":"Skaidiškės","es":"Skaidiškės","fr":"Skaidiškės","ja":"スカイディシュケス","it":"Skaidiškės","zh-CN":"斯凯迪什凯斯","tr":"Skaidiškės","ru":"Скайдишкес","uk":"Скайдішкес","pl":"Skaidiškės","hi":"स्काइडिस्केस","ar":"سكايديسكيس"}},{"name":"Švenčionėliai","latitude":"55.16163000","longitude":"26.00177000","native":"Švenčionėliai","translations":{"br":"Švenčionėliai","ko":"슈벤치오넬리아이","pt-BR":"Švenčionėliai","pt":"Švenčionėliai","nl":"Švenčionėliai","hr":"Švenčionėliai","fa":"شونچیونیلیایی","de":"Švenčionėliai","es":"Švenčionėliai","fr":"Švenčionėliai","ja":"シュヴェンチョネリアイ","it":"Švenčionėliai","zh-CN":"Švenčionėliai","tr":"Švenčionėliai","ru":"Швенчёнеляй","uk":"Швенчонеляй","pl":"Švenčionėliai","hi":"Švenčionėliai","ar":"Švenčionėliai"}},{"name":"Svencionys","latitude":"55.15000000","longitude":"26.16667000","native":"Svencionys","translations":{"br":"Svencionys","ko":"스벤시오니스","pt-BR":"Svencionys","pt":"Svencionys","nl":"Svencionys","hr":"Švencionys","fa":"سونسیونیس","de":"Svencionys","es":"Svencionys","fr":"Svencionys","ja":"スヴェンシオニス","it":"Svencionys","zh-CN":"斯文乔尼斯","tr":"Svencionys","ru":"Швенчёнис","uk":"Швенчоніс","pl":"Święciany","hi":"स्वेन्सियोनीस","ar":"سفينسيونيس"}},{"name":"Trakai","latitude":"54.63783000","longitude":"24.93433000","native":"Trakai","translations":{"br":"Trakai","ko":"트라카이","pt-BR":"Trakai","pt":"Trakai","nl":"Trakai","hr":"Trakai","fa":"تراکای","de":"Trakai","es":"Trakai","fr":"Trakai","ja":"トラカイ","it":"Trakai","zh-CN":"特拉凯","tr":"Trakai","ru":"Тракай","uk":"Тракай","pl":"Troki","hi":"ट्रैकइ","ar":"تراكاي"}},{"name":"Ukmerge","latitude":"55.25000000","longitude":"24.75000000","native":"Ukmerge","translations":{"br":"Ukmerge","ko":"우크메르게","pt-BR":"Ukmerge","pt":"Ukmerge","nl":"Ukmerge","hr":"Ukmerge","fa":"اوکمرگه","de":"Ukmerge","es":"Ukmerge","fr":"Ukmerge","ja":"ウクメルゲ","it":"Ukmerge","zh-CN":"乌克梅尔格","tr":"Ukmerge","ru":"Укмерге","uk":"Укмерге","pl":"Wiłkomierz","hi":"उकमर्जे","ar":"أوكمرج"}},{"name":"Vievis","latitude":"54.76667000","longitude":"24.80000000","native":"Vievis","translations":{"br":"Gwelet","ko":"비에비스","pt-BR":"Vievis","pt":"Vievis","nl":"Vievis","hr":"Vievis","fa":"ویویس","de":"Vievis","es":"Vievis","fr":"Vievis","ja":"ヴィエヴィス","it":"Vievis","zh-CN":"维维斯","tr":"Vievis","ru":"Вевис","uk":"Вієвіс","pl":"Vievis","hi":"विविस","ar":"فيفيس"}},{"name":"Vilkpėdė","latitude":"54.66969000","longitude":"25.24770000","native":"Vilkpėdė","translations":{"br":"Vilkpėdė","ko":"빌크페데","pt-BR":"Vilkpėdė","pt":"Vilkpėdė","nl":"Vilkpėdė","hr":"Vilkpėdė","fa":"ویلکپده","de":"Vilkpėdė","es":"Vilkpėdė","fr":"Vilkpėdė","ja":"ヴィルクペデ","it":"Vilkpėdė","zh-CN":"维尔克佩德","tr":"Vilkpėdė","ru":"Вилкпеде","uk":"Вілкпеде","pl":"Vilkpėdė","hi":"विल्कपेडे","ar":"فيلكبيدي"}},{"name":"Vilnius","latitude":"54.68916000","longitude":"25.27980000","native":"Vilnius","translations":{"br":"Vilnius","ko":"빌니우스","pt-BR":"Vilnius","pt":"Vilnius","nl":"Vilnius","hr":"Vilnius","fa":"ویلنیوس","de":"Wilna","es":"Vilna","fr":"Vilnius","ja":"ビリニュス","it":"Vilnius","zh-CN":"维尔纽斯","tr":"Vilnius","ru":"Вильнюс","uk":"Вільнюс","pl":"Wilno","hi":"विनियस","ar":"فيلنيوس"}},{"name":"Vilnius District Municipality","latitude":"54.73333000","longitude":"25.38333000","native":"Vilnius rajono savivaldybė","translations":{"br":"Kumuniezh-kumunioù distrig Vilnius","ko":"빌니우스 지방 자치 단체","pt-BR":"Município do Distrito de Vilnius","pt":"Município do Distrito de Vilnius","nl":"Gemeente Vilnius","hr":"Općina Vilnius","fa":"شهرداری ناحیه ویلنیوس","de":"Bezirksverwaltung Vilnius","es":"Municipio del distrito de Vilna","fr":"Municipalité du district de Vilnius","ja":"ヴィリニュス地区自治体","it":"Comune distrettuale di Vilnius","zh-CN":"维尔纽斯区政府","tr":"Vilnius İlçe Belediyesi","ru":"Самоуправление Вильнюсского района","uk":"Вільнюський районний муніципалітет","pl":"Samorząd Rejonu Wileńskiego","hi":"विल्नियस जिला नगर पालिका","ar":"بلدية منطقة فيلنيوس"}}]},{"name":"Vilnius County","state_code":"VL","latitude":"54.80865020","longitude":"25.21821390","cities":[]},{"name":"Vilnius District Municipality","state_code":"58","latitude":"54.77325780","longitude":"25.58671130","cities":[]},{"name":"Visaginas Municipality","state_code":"59","latitude":"55.59411800","longitude":"26.43079540","cities":[]},{"name":"Zarasai District Municipality","state_code":"60","latitude":"55.73096090","longitude":"26.24529500","cities":[]}]}