{"code":"LU","states":[{"name":"Canton of Capellen","state_code":"CA","latitude":"49.64039310","longitude":"5.95538460","cities":[{"name":"Bascharage","latitude":"49.56727000","longitude":"5.90730000","native":"Bachar joard","translations":{"br":"Bascharage","ko":"바샤라지","pt-BR":"Bascharage","pt":"Bascharage","nl":"Bascharage","hr":"Bascharage","fa":"باشچاراج","de":"Niederkerschen","es":"Bascharage","fr":"Bascharage","ja":"バシャラージュ","it":"Bascharage","zh-CN":"巴沙拉日","tr":"Bascharage","ru":"Башараж","uk":"Башараж","pl":"Bascharage","hi":"बास्चरेज","ar":"باشاراج","hy":"Բաշարաժ"}},{"name":"Bridel","latitude":"49.65579000","longitude":"6.07999000","native":"Bridel","translations":{"br":"Bridel","ko":"브라이델","pt-BR":"Bridel","pt":"Bridel","nl":"Bruid","hr":"Bridel","fa":"برایدل","de":"Bridel","es":"Bridel","fr":"Bridel","ja":"ブリデル","it":"Bridel","zh-CN":"布里德尔","tr":"Gelin","ru":"Бридель","uk":"Брідель","pl":"Bridel","hi":"ब्राइडल","ar":"برايدل","hy":"Բրիդել"}},{"name":"Capellen","latitude":"49.64500000","longitude":"5.99083000","native":"Rond","translations":{"br":"Capellen","ko":"카펠렌","pt-BR":"Capellen","pt":"Capellen","nl":"Capellen","hr":"Capellen","fa":"کاپلن","de":"Capellen","es":"Capellen","fr":"Capellen","ja":"カペレン","it":"Capellen","zh-CN":"卡佩伦","tr":"Capellen","ru":"Капеллен","uk":"Капеллен","pl":"Capellen","hi":"कैपेलेन","ar":"كابيلين","hy":"Կապելեն"}},{"name":"Clemency","latitude":"49.59667000","longitude":"5.87583000","native":"Clémence","translations":{"br":"Trugarez","ko":"관용","pt-BR":"Clemência","pt":"Clemência","nl":"clementie","hr":"Pomilovanje","fa":"بخشش","de":"Milde","es":"Clemencia","fr":"Clémence","ja":"恩赦","it":"Clemenza","zh-CN":"赦免","tr":"Merhamet","ru":"Помилование","uk":"Помилування","pl":"Łaska","hi":"दया","ar":"الرحمة","hy":"Կլեմենսի"}},{"name":"Dippach","latitude":"49.58701000","longitude":"5.98330000","native":"Dippach","translations":{"br":"Dippach","ko":"디파흐","pt-BR":"Dippach","pt":"Dippach","nl":"Dippach","hr":"Dippach","fa":"دیپاخ","de":"Dippach","es":"Dippach","fr":"Dippach","ja":"ディパッハ","it":"Dippach","zh-CN":"迪帕赫","tr":"Dippach","ru":"Диппах","uk":"Діппах","pl":"Dippach","hi":"डिप्पाच","ar":"ديباخ","hy":"Դիպաղ"}},{"name":"Eischen","latitude":"49.68556000","longitude":"5.87861000","native":"Démontrer","translations":{"br":"Eischen","ko":"아이센","pt-BR":"Eischen","pt":"Eischen","nl":"Eischen","hr":"Eischen","fa":"آیشن","de":"Eischen","es":"Eischen","fr":"Eischen","ja":"アイシェン","it":"Ghiaccio","zh-CN":"艾申","tr":"Eischen","ru":"Эйшен","uk":"Айшен","pl":"Eischen","hi":"आइशेन","ar":"آيشن","hy":"Այշեն"}},{"name":"Garnich","latitude":"49.61667000","longitude":"5.95250000","native":"Yarnich","translations":{"br":"Garnich","ko":"가르니히","pt-BR":"Garnich","pt":"Garnich","nl":"Garnich","hr":"Garnich","fa":"گارنیچ","de":"Garnich","es":"Garnich","fr":"Garnich","ja":"ガルニッチ","it":"Garnich","zh-CN":"加尼希","tr":"Garniç","ru":"Гарнич","uk":"Гарніч","pl":"Garnich","hi":"गार्निच","ar":"جارنيش","hy":"Գարնիղ"}},{"name":"Hautcharage","latitude":"49.57499000","longitude":"5.90970000","native":"Marge de peau","translations":{"br":"Hautcharge","ko":"하우차라주","pt-BR":"Carga máxima","pt":"Carga máxima","nl":"Hautcharage","hr":"Hautcharage","fa":"هاوچاراژ","de":"Hautcharage","es":"Hautcharage","fr":"Hautcharage","ja":"オートチャラージュ","it":"Hautcharage","zh-CN":"奥查拉热","tr":"Hautcharage","ru":"Отшараж","uk":"Hautcharage","pl":"Hautcharage","hi":"हाउचरेज","ar":"هوتشاراج","hy":"Հաուտշարաժ"}},{"name":"Hobscheid","latitude":"49.68861000","longitude":"5.91472000","native":"Hobscreen","translations":{"br":"Hobscheid","ko":"홉샤이드","pt-BR":"Hobscheid","pt":"Hobscheid","nl":"Hobscheid","hr":"Hobscheid","fa":"هابشاید","de":"Hobscheid","es":"Hobscheid","fr":"Hobscheid","ja":"ホブシャイト","it":"Hobscheid","zh-CN":"霍布沙伊德","tr":"Hobscheid","ru":"Хобшайд","uk":"Гобшайд","pl":"Hobscheid","hi":"हॉब्सचाइड","ar":"هوبشايد","hy":"Հոբշայդ"}},{"name":"Käerjeng","latitude":"49.58311000","longitude":"5.89892000","native":"Karaäerjengen","translations":{"br":"Käerjeng","ko":"케르젱","pt-BR":"Käerjeng","pt":"Käerjeng","nl":"Käerjeng","hr":"Käerjeng","fa":"کِرجنگ","de":"Käerjeng","es":"Käerjeng","fr":"Käerjeng","ja":"ケルジェン","it":"Käerjeng","zh-CN":"凯尔珍","tr":"Käerjeng","ru":"Кэрженг","uk":"Кер'єнг","pl":"Käerjeng","hi":"केर्जेंग","ar":"كيرجينغ","hy":"Կեերյենգ"}},{"name":"Kehlen","latitude":"49.66833000","longitude":"6.03583000","native":"Gorge","translations":{"br":"Kehlen","ko":"켈렌","pt-BR":"Kehlen","pt":"Kehlen","nl":"Kehlen","hr":"Kehlen","fa":"کهلن","de":"Kehlen","es":"Kehlen","fr":"Kehlen","ja":"ケーレン","it":"Kehlen","zh-CN":"凯伦","tr":"Kehlen","ru":"Келен","uk":"Келен","pl":"Kehlen","hi":"केहलेन","ar":"كيهلين","hy":"Կեհլեն"}},{"name":"Koerich","latitude":"49.67000000","longitude":"5.95000000","native":"Koerich","translations":{"br":"Koerich","ko":"코에리히","pt-BR":"Koerich","pt":"Koerich","nl":"Koerich","hr":"Koerich","fa":"کوئریچ","de":"Koerich","es":"Koerich","fr":"Koerich","ja":"ケーリッチ","it":"Koerich","zh-CN":"科里奇","tr":"Koerich","ru":"Кёрих","uk":"Керіх","pl":"Koerich","hi":"कोएरिच","ar":"كوريتش","hy":"Կոերիղ"}},{"name":"Kopstal","latitude":"49.66444000","longitude":"6.07306000","native":"Copyal","translations":{"br":"Kopstal","ko":"코프스탈","pt-BR":"Kopstal","pt":"Kopstal","nl":"Kopstal","hr":"Kopstal","fa":"کوپستال","de":"Kopstal","es":"Kopstal","fr":"Kopstal","ja":"コプスタル","it":"Kopstal","zh-CN":"科普斯塔尔","tr":"Kopstal","ru":"Копсталь","uk":"Копстал","pl":"Kopstal","hi":"कोपस्टल","ar":"كوبستال","hy":"Կոպստալ"}},{"name":"Mamer","latitude":"49.62750000","longitude":"6.02333000","native":"Mameller","translations":{"br":"Mamer","ko":"마머","pt-BR":"Mamer","pt":"Mamer","nl":"Mamer","hr":"Mamer","fa":"مامر","de":"Mamer","es":"Mamer","fr":"Mamer","ja":"ママー","it":"Mamer","zh-CN":"马默","tr":"Anne","ru":"Мамер","uk":"Мамер","pl":"Mamer","hi":"मामेर","ar":"مامر","hy":"Մամեր"}},{"name":"Schouweiler","latitude":"49.58250000","longitude":"5.95639000","native":"Les écoles font","translations":{"br":"Schouweiler","ko":"슈바일러","pt-BR":"Schouweiler","pt":"Schouweiler","nl":"Schouweiler","hr":"Schouweiler","fa":"شویلر","de":"Schouweiler","es":"Schouweiler","fr":"Schouweiler","ja":"ショウワイラー","it":"Schouweiler","zh-CN":"舒韦勒","tr":"Schouweiler","ru":"Шаувайлер","uk":"Шувайлер","pl":"Schouweiler","hi":"शॉवेइलर","ar":"شوويلر","hy":"Շուվայլեր"}},{"name":"Septfontaines","latitude":"49.70111000","longitude":"5.96722000","native":"Septfontaines","translations":{"br":"Septfontaines","ko":"셉트폰테인스","pt-BR":"Septfontaines","pt":"Septfontaines","nl":"Septfontaines","hr":"Septfontaines","fa":"سپتفونتین","de":"Septfontaines","es":"Septfontaines","fr":"Septfontaines","ja":"セプトフォンテーヌ","it":"Septfontaines","zh-CN":"塞普方丹","tr":"Septfontaines","ru":"Септфонтены","uk":"Сепфонтейн","pl":"Septfontaines","hi":"सेप्टफोंटेन्स","ar":"سبتفونتين","hy":"Սեպտֆոնտեն"}},{"name":"Steinfort","latitude":"49.66139000","longitude":"5.91917000","native":"Fait confortable","translations":{"br":"Steinfort","ko":"슈타인포트","pt-BR":"Steinfort","pt":"Steinfort","nl":"Steinfort","hr":"Steinfort","fa":"اشتاینفورت","de":"Steinfort","es":"Steinfort","fr":"Steinfort","ja":"シュタインフォート","it":"Steinfort","zh-CN":"施泰因福特","tr":"Steinfort","ru":"Штайнфорт","uk":"Штайнфорт","pl":"Steinfort","hi":"स्टाइनफोर्ट","ar":"شتاينفورت","hy":"Շտայնֆորտ"}}]},{"name":"Canton of Clervaux","state_code":"CL","latitude":"50.05463130","longitude":"6.02858750","cities":[{"name":"Clervaux","latitude":"50.05472000","longitude":"6.03139000","native":"Clervaux","translations":{"br":"Clervaux","ko":"클레르보","pt-BR":"Clervaux","pt":"Clervaux","nl":"Clervaux","hr":"Clervaux","fa":"کلروو","de":"Clerf","es":"Clervaux","fr":"Clervaux","ja":"クレルヴォー","it":"Clervaux","zh-CN":"克莱沃","tr":"Clervaux","ru":"Клерво","uk":"Клерво","pl":"Clervaux","hi":"क्लेरवॉक्स","ar":"كليرفو","hy":"Կլերվո"}},{"name":"Hosingen","latitude":"50.01218000","longitude":"6.09089000","native":"Former","translations":{"br":"Hosingen","ko":"호싱겐","pt-BR":"Hosingen","pt":"Hosingen","nl":"Hosingen","hr":"Hosingen","fa":"هوزینگن","de":"Hosingen","es":"Hosingen","fr":"Hosingen","ja":"ホジンゲン","it":"Hosingen","zh-CN":"霍辛根","tr":"Hosingen","ru":"Хозинген","uk":"Хозінген","pl":"Hosingen","hi":"होसिंगेन","ar":"هوسينجن","hy":"Հոզինգեն"}},{"name":"Parc Hosingen","latitude":"49.99744000","longitude":"6.09067000","native":"Pertes de parc","translations":{"br":"Park Hosingen","ko":"파크 호싱겐","pt-BR":"Parque Hosingen","pt":"Parque Hosingen","nl":"Park Hosingen","hr":"Park Hosingen","fa":"پارک هوزینگن","de":"Parc Hosingen","es":"Parque Hosingen","fr":"Parc Hosingen","ja":"オジンゲン公園","it":"Parco Hosingen","zh-CN":"霍辛根公园","tr":"Hosingen Parkı","ru":"Парк Хозинген","uk":"Парк Хозінген","pl":"Park Hosingen","hi":"पार्क होसिंगेन","ar":"حديقة هوسينجن","hy":"Պարկ Հոզինգեն"}},{"name":"Troisvierges","latitude":"50.12111000","longitude":"6.00028000","native":"Troisavierges","translations":{"br":"Troisvierges","ko":"트루아비에르주스","pt-BR":"Troisvierges","pt":"Troisvierges","nl":"Troisvierges","hr":"Troisvierges","fa":"تروایسویرژ","de":"Troisvierges","es":"Troisvierges","fr":"Troisvierges","ja":"トロワヴィエルジュ","it":"Troisvierges","zh-CN":"特鲁瓦维耶日","tr":"Troisvierges","ru":"Труавьерж","uk":"Труав'єрж","pl":"Troisvierges","hi":"ट्रोइसविएर्जेस","ar":"ترويسفيرجيس","hy":"Տրուավիերժ"}},{"name":"Weiswampach","latitude":"50.13722000","longitude":"6.07500000","native":"Weiswampach","translations":{"br":"Weiswampach","ko":"바이스바흐","pt-BR":"Weiswampach","pt":"Weiswampach","nl":"Weiswampach","hr":"Weiswampach","fa":"وایسوامپاچ","de":"Weiswampach","es":"Weiswampach","fr":"Weiswampach","ja":"ワイスワンパック","it":"Weiswampach","zh-CN":"魏斯万帕赫","tr":"Weiswampach","ru":"Вайсвампах","uk":"Вайсвампах","pl":"Weiswampach","hi":"वेइस्वाम्पाच","ar":"وايسواباش","hy":"Վայսվամպաղ"}},{"name":"Wincrange","latitude":"50.05333000","longitude":"5.91917000","native":"Wincrerange","translations":{"br":"Wincrange","ko":"윈크랜지","pt-BR":"Wincrange","pt":"Wincrange","nl":"Wincrange","hr":"Wincrange","fa":"وینکرنج","de":"Wintger","es":"Wincrange","fr":"Wincrange","ja":"ウィンクレンジ","it":"Wincrange","zh-CN":"温克兰奇","tr":"Wincrange","ru":"Винкранж","uk":"Вінкрандж","pl":"Wincrange","hi":"विंक्रेंज","ar":"وينكرانج","hy":"Վինկրանժ"}}]},{"name":"Canton of Diekirch","state_code":"DI","latitude":"49.86717840","longitude":"6.15956330","cities":[{"name":"Bettendorf","latitude":"49.87667000","longitude":"6.21806000","native":"Bettendorf","translations":{"br":"Bettendorf","ko":"베텐도르프","pt-BR":"Bettendorf","pt":"Bettendorf","nl":"Bettendorf","hr":"Bettendorf","fa":"بتندورف","de":"Bettendorf","es":"Bettendorf","fr":"Bettendorf","ja":"ベッテンドルフ","it":"Bettendorf","zh-CN":"贝滕多夫","tr":"Bettendorf","ru":"Беттендорф","uk":"Беттендорф","pl":"Bettendorf","hi":"बेटेनडॉर्फ","ar":"بيتندورف","hy":"Բետենդորֆ"}},{"name":"Bourscheid","latitude":"49.90862000","longitude":"6.06750000","native":"Se soutenir","translations":{"br":"Bourscheid","ko":"부르샤이드","pt-BR":"Bourscheid","pt":"Bourscheid","nl":"Bourscheid","hr":"Bourscheid","fa":"بورشاید","de":"Burscheid","es":"Bourscheid","fr":"Bourscheid","ja":"ブルシャイト","it":"Bourscheid","zh-CN":"布尔沙伊德","tr":"Bourscheid","ru":"Буршайд","uk":"Буршайд","pl":"Bourscheid","hi":"बोरशेड","ar":"بورشايد","hy":"Բուրշայդ"}},{"name":"Commune de la Vallée de l’Ernz","latitude":"49.82149000","longitude":"6.21746000","native":"Commune de la le Lallée's L'erz","translations":{"br":"Kumun Traoñienn an Ernz","ko":"Commune de la Vallée de l'Ernz","pt-BR":"Comuna de la Vallée de l'Ernz","pt":"Comuna de la Vallée de l'Ernz","nl":"Commune de la Vallée de l'Ernz","hr":"Commune de la Vallée de l’Ernz","fa":"Commune de la Vallée de l’Ernz","de":"Commune de la Vallée de l’Ernz","es":"Comuna del Valle de l'Ernz","fr":"Commune de la Vallée de l'Ernz","ja":"コミューン・ド・ラ・ヴァレ・ド・エルンズ","it":"Comune della Valle dell'Ernz","zh-CN":"恩茨山谷公社","tr":"Komün de la Vallée de l'Ernz","ru":"Коммуна Валле де л'Эрнц","uk":"Комуна де ла Валле де л’Ернц","pl":"Gmina de la Vallée de l’Ernz","hi":"कम्यून डे ला वल्ली डे ल'अर्न्ज़","ar":"كوميون دي لا فالي دي ليرنز"}},{"name":"Diekirch","latitude":"49.86778000","longitude":"6.15583000","native":"Diekkch","translations":{"br":"Diekirch","ko":"디키르히","pt-BR":"Diekirch","pt":"Diekirch","nl":"Diekirch","hr":"Diekirch","fa":"دیکیرش","de":"Diekirch","es":"Diekirch","fr":"Diekirch","ja":"ディーキルヒ","it":"Diekirch","zh-CN":"迪基希","tr":"Diekirch","ru":"Дикирх","uk":"Дікірх","pl":"Diekirch","hi":"डायकिर्च","ar":"ديكيرش","hy":"Դիկիրղ"}},{"name":"Erpeldange","latitude":"49.86472000","longitude":"6.11472000","native":"Erpeldange","translations":{"br":"Erpeldange","ko":"에르펠당게","pt-BR":"Erpeldange","pt":"Erpeldange","nl":"Erpeldange","hr":"Erpeldange","fa":"ارپلدانگه","de":"Erpeldingen","es":"Erpeldange","fr":"Erpeldange","ja":"エルペルダンジュ","it":"Erpeldange","zh-CN":"埃佩尔当日","tr":"Erpeldange","ru":"Эрпельданж","uk":"Ерпельданж","pl":"Erpeldange","hi":"एर्पेलडांगे","ar":"إربيلدانج","hy":"Էրպելդանժ"}},{"name":"Ettelbruck","latitude":"49.84750000","longitude":"6.10417000","native":"Geodup Burrousr","translations":{"br":"Ettelbruck","ko":"에텔브뤼크","pt-BR":"Ettelbruck","pt":"Ettelbruck","nl":"Ettelbruck","hr":"Ettelbruck","fa":"اتلبروک","de":"Ettelbrück","es":"Ettelbruck","fr":"Ettelbruck","ja":"エッテルブルック","it":"Ettelbruck","zh-CN":"埃特尔布吕克","tr":"Ettelbruck","ru":"Эттельбрюк","uk":"Еттельбрук","pl":"Ettelbruck","hi":"एटलब्रुक","ar":"إيتلبروك","hy":"Էտելբրուկ"}},{"name":"Feulen","latitude":"49.85000000","longitude":"6.01667000","native":"Excréments","translations":{"br":"Feulen","ko":"포일렌","pt-BR":"Feulen","pt":"Feulen","nl":"Feulen","hr":"Feulen","fa":"فولن","de":"Feulen","es":"Feulen","fr":"Feulen","ja":"フーレン","it":"Feulen","zh-CN":"费伦","tr":"Ateş","ru":"Фейлен","uk":"Фейлен","pl":"Feulen","hi":"फ्यूलेन","ar":"فولين","hy":"Ֆյուլեն"}},{"name":"Medernach","latitude":"49.80955000","longitude":"6.21521000","native":"Mederelas","translations":{"br":"Medernach","ko":"메데르나흐","pt-BR":"Medernach","pt":"Medernach","nl":"Medernach","hr":"Medernach","fa":"مدرناخ","de":"Medernach","es":"Medernach","fr":"Médernach","ja":"メデルナッハ","it":"Medernach","zh-CN":"梅德纳赫","tr":"Medernach","ru":"Медернах","uk":"Медернах","pl":"Medernach","hi":"मेडेर्नाच","ar":"ميديرناخ","hy":"Մեդերնաղ"}},{"name":"Mertzig","latitude":"49.83389000","longitude":"6.00750000","native":"Ertzgg","translations":{"br":"Mertzig","ko":"메르치히","pt-BR":"Mertzig","pt":"Mertzig","nl":"Mertzig","hr":"Mertzig","fa":"مرتزیگ","de":"Mertzig","es":"Mertzig","fr":"Mertzig","ja":"メルツィヒ","it":"Mertzig","zh-CN":"梅尔齐格","tr":"Mertzig","ru":"Мерциг","uk":"Мерціґ","pl":"Mertzig","hi":"मर्ट्ज़िग","ar":"ميرتزيج","hy":"Մերցիգ"}},{"name":"Niederfeulen","latitude":"49.85556000","longitude":"6.04722000","native":"Nathersesses","translations":{"br":"Niederfeulen","ko":"니더포일렌","pt-BR":"Niederfeulen","pt":"Niederfeulen","nl":"Niederfeulen","hr":"Niederfeulen","fa":"نیدرفولن","de":"Niederfeulen","es":"Niederfeulen","fr":"Niederfeulen","ja":"ニーダーフォイレン","it":"Niederfeulen","zh-CN":"下弗伊伦","tr":"Niederfeulen","ru":"Нидерфойлен","uk":"Нідерфейлен","pl":"Niederfeulen","hi":"निडरफ्यूलेन","ar":"نيدرفولين","hy":"Նիդերֆյուլեն"}},{"name":"Reisdorf","latitude":"49.86861000","longitude":"6.26778000","native":"Dispositifs de riz","translations":{"br":"Reisdorf","ko":"라이스도르프","pt-BR":"Reisdorf","pt":"Reisdorf","nl":"Reisdorf","hr":"Reisdorf","fa":"رایزدورف","de":"Reisdorf","es":"Reisdorf","fr":"Reisdorf","ja":"ライスドルフ","it":"Reisdorf","zh-CN":"赖斯多夫","tr":"Reisdorf","ru":"Рейсдорф","uk":"Райсдорф","pl":"Reisdorf","hi":"रीसडॉर्फ","ar":"رايسدورف","hy":"Ռայսդորֆ"}},{"name":"Schieren","latitude":"49.83056000","longitude":"6.09861000","native":"Hangar","translations":{"br":"Schieren","ko":"쉬렌","pt-BR":"Schieren","pt":"Schieren","nl":"Schieren","hr":"Schieren","fa":"شیرن","de":"Schieren","es":"Schieren","fr":"Schieren","ja":"シーレン","it":"Schieren","zh-CN":"席伦","tr":"Schieren","ru":"Ширен","uk":"Ширен","pl":"Schieren","hi":"शिएरेन","ar":"شيرين","hy":"Շիերեն"}},{"name":"Warken","latitude":"49.85918000","longitude":"6.08415000","native":"Lavé","translations":{"br":"Warken","ko":"워켄","pt-BR":"Warken","pt":"Warken","nl":"Warken","hr":"Warken","fa":"وارکن","de":"Warken","es":"Warken","fr":"Warken","ja":"ウォーケン","it":"Warken","zh-CN":"沃肯","tr":"Warken","ru":"Уоркен","uk":"Воркен","pl":"Warken","hi":"वार्केन","ar":"واركن","hy":"Վարկեն"}}]},{"name":"Canton of Echternach","state_code":"EC","latitude":"49.81141330","longitude":"6.41756350","cities":[{"name":"Beaufort","latitude":"49.83583000","longitude":"6.29167000","native":"Beaufort","translations":{"br":"Beaufort","ko":"보퍼트","pt-BR":"Beaufort","pt":"Beaufort","nl":"Beaufort","hr":"Beaufort","fa":"بوفورت","de":"Beaufort","es":"Beaufort","fr":"Beaufort","ja":"ボーフォート","it":"Beaufort","zh-CN":"博福特","tr":"Beaufort","ru":"Бофорт","uk":"Бофорт","pl":"Beaufort","hi":"ब्यूफोर्ट","ar":"بوفورت","hy":"Բոֆոր"}},{"name":"Bech","latitude":"49.75260000","longitude":"6.36379000","native":"Bec","translations":{"br":"Bech","ko":"베크","pt-BR":"Bech","pt":"Bech","nl":"Bech","hr":"Bech","fa":"بِچ","de":"Bech","es":"Playa","fr":"Bech","ja":"ベック","it":"Spiaggia","zh-CN":"贝克","tr":"Bech","ru":"Бек","uk":"Беч","pl":"Bech","hi":"बेच","ar":"بيتش","hy":"Բեղ"}},{"name":"Berdorf","latitude":"49.82051000","longitude":"6.34945000","native":"Berdorf","translations":{"br":"Berdorf","ko":"베르도르프","pt-BR":"Berdorf","pt":"Berdorf","nl":"Berdorf","hr":"Berdorf","fa":"بردورف","de":"Berdorf","es":"Berdorf","fr":"Berdorf","ja":"ベルドルフ","it":"Berdorf","zh-CN":"贝尔多夫","tr":"Berdorf","ru":"Бердорф","uk":"Бердорф","pl":"Berdorf","hi":"बर्डोर्फ","ar":"بيردورف","hy":"Բերդորֆ"}},{"name":"Consdorf","latitude":"49.78018000","longitude":"6.33950000","native":"Consdorf","translations":{"br":"Consdorf","ko":"콘스도르프","pt-BR":"Consdorf","pt":"Consdorf","nl":"Consdorf","hr":"Consdorf","fa":"کونسدورف","de":"Consdorf","es":"Consdorf","fr":"Consdorf","ja":"コンスドルフ","it":"Consdorf","zh-CN":"康斯多夫","tr":"Consdorf","ru":"Консдорф","uk":"Консдорф","pl":"Consdorf","hi":"कॉन्सडॉर्फ","ar":"كونسدورف","hy":"Կոնսդորֆ"}},{"name":"Echternach","latitude":"49.81212000","longitude":"6.41846000","native":"Empire","translations":{"br":"Echternach","ko":"에히터나흐","pt-BR":"Echternach","pt":"Echternach","nl":"Echternach","hr":"Echternach","fa":"اشترناخ","de":"Echternach","es":"Echternach","fr":"Echternach","ja":"エヒテルナハ","it":"Echternach","zh-CN":"埃希特纳赫","tr":"Echternach","ru":"Эхтернах","uk":"Ехтернах","pl":"Echternach","hi":"इचेर्नाच","ar":"إخترناخ","hy":"Էղտերնաղ"}},{"name":"Mompach","latitude":"49.74611000","longitude":"6.46500000","native":"Mombragère","translations":{"br":"Mompach","ko":"몸파치","pt-BR":"Mompach","pt":"Mompach","nl":"Mompach","hr":"Mompach","fa":"مومپاچ","de":"Mompach","es":"Mompach","fr":"Mompach","ja":"モンパチ","it":"Mompach","zh-CN":"蒙帕赫","tr":"Mompach","ru":"Момпач","uk":"Момпах","pl":"Mompach","hi":"मोम्पाच","ar":"مومباش","hy":"Մոմպաղ"}},{"name":"Rosport","latitude":"49.80470000","longitude":"6.50532000","native":"Rosport","translations":{"br":"Rosport","ko":"로스포트","pt-BR":"Rosport","pt":"Rosport","nl":"Rosport","hr":"Rosport","fa":"روسپورت","de":"Rosport","es":"Rosport","fr":"Rosport","ja":"ロスポート","it":"Rosport","zh-CN":"罗斯波特","tr":"Rosport","ru":"Роспорт","uk":"Роспорт","pl":"Rosport","hi":"रोसपोर्ट","ar":"روسبورت","hy":"Ռոսպորտ"}},{"name":"Waldbillig","latitude":"49.79636000","longitude":"6.28431000","native":"Waldbillig","translations":{"br":"Waldbillig","ko":"발드빌리그","pt-BR":"Waldbillig","pt":"Waldbillig","nl":"Waldbillig","hr":"Waldbillig","fa":"والدبیلیگ","de":"Waldbillig","es":"Waldbillig","fr":"Waldbillig","ja":"ヴァルドビリグ","it":"Waldbillig","zh-CN":"瓦尔德比利格","tr":"Waldbillig","ru":"Вальдбиллиг","uk":"Вальдбілліг","pl":"Waldbillig","hi":"वाल्डबिलिग","ar":"والدبيليج","hy":"Վալդբիլիգ"}}]},{"name":"Canton of Esch-sur-Alzette","state_code":"ES","latitude":"49.50088050","longitude":"5.98609250","cities":[{"name":"Aspelt","latitude":"49.52278000","longitude":"6.22472000","native":"Faire un air","translations":{"br":"Aspell","ko":"아스펠트","pt-BR":"Aspelt","pt":"Aspelt","nl":"Aspelt","hr":"Aspelt","fa":"آسپلت","de":"Aspelt","es":"Aspelt","fr":"Aspelt","ja":"アスペルト","it":"Aspelt","zh-CN":"阿斯佩尔特","tr":"Aspelt","ru":"Аспельт","uk":"Аспелт","pl":"Aspelt","hi":"एस्पेल्ट","ar":"أسبيلت","hy":"Ասպելտ"}},{"name":"Belvaux","latitude":"49.51014000","longitude":"5.92414000","native":"Belvaux","translations":{"br":"Belvaux","ko":"벨보","pt-BR":"Belvaux","pt":"Belvaux","nl":"Belvaux","hr":"Belvaux","fa":"بلوو","de":"Belvaux","es":"Belvaux","fr":"Belvaux","ja":"ベルヴォー","it":"Belvaux","zh-CN":"贝尔沃","tr":"Belvaux","ru":"Бельво","uk":"Белво","pl":"Belvaux","hi":"बेलवॉक्स","ar":"بيلفو","hy":"Բելվո"}},{"name":"Bergem","latitude":"49.52500000","longitude":"6.04222000","native":"Rouler","translations":{"br":"Bergem","ko":"베르겜","pt-BR":"Bergem","pt":"Bergem","nl":"Bergem","hr":"Bergem","fa":"برگم","de":"Bergem","es":"Bergem","fr":"Bergem","ja":"ベルゲム","it":"Bergem","zh-CN":"贝尔赫姆","tr":"Bergem","ru":"Бергем","uk":"Бергем","pl":"Bergem","hi":"बर्गेम","ar":"بيرجيم","hy":"Բերգեմ"}},{"name":"Bettembourg","latitude":"49.51861000","longitude":"6.10278000","native":"En plus","translations":{"br":"Bettembourg","ko":"베템부르그","pt-BR":"Bettembourg","pt":"Bettembourg","nl":"Bettembourg","hr":"Bettembourg","fa":"بتمبورگ","de":"Bettemburg","es":"Bettembourg","fr":"Bettembourg","ja":"ベッテンブール","it":"Bettembourg","zh-CN":"贝唐堡","tr":"Bettembourg","ru":"Беттембург","uk":"Беттембург","pl":"Bettembourg","hi":"बेट्टमबर्ग","ar":"بيتيمبورغ","hy":"Բետեմբուրգ"}},{"name":"Crauthem","latitude":"49.53556000","longitude":"6.14694000","native":"Carathme","translations":{"br":"Crauthem","ko":"크라우템","pt-BR":"Crauthem","pt":"Crauthem","nl":"Crauthem","hr":"Crauthem","fa":"کراوتم","de":"Crauthem","es":"Crauthem","fr":"Crauthem","ja":"クラウセム","it":"Crauthem","zh-CN":"克劳瑟姆","tr":"Crauthem","ru":"Краутем","uk":"Краутем","pl":"Crauthem","hi":"क्राउथेम","ar":"كراوثيم","hy":"Կրաութեմ"}},{"name":"Differdange","latitude":"49.52417000","longitude":"5.89139000","native":"DIFFÉRENT","translations":{"br":"Dañjer disheñvel","ko":"디페르당주","pt-BR":"Differdange","pt":"Differdange","nl":"Differdange","hr":"Differdange","fa":"دیفردانژ","de":"Differdingen","es":"Differdange","fr":"Differdange","ja":"ディフェルダンジュ","it":"Differdange","zh-CN":"迪弗当日","tr":"Farklılık","ru":"Дифферданж","uk":"Діфферданж","pl":"Differdange","hi":"डिफरडैंज","ar":"ديفيردانج","hy":"Դիֆերդանժ"}},{"name":"Dudelange","latitude":"49.48056000","longitude":"6.08750000","native":"Dudelange","translations":{"br":"Dudelange","ko":"뒤들랑주","pt-BR":"Dudelange","pt":"Dudelange","nl":"Dudelange","hr":"Dudelange","fa":"دودلانژ","de":"Düdelingen","es":"Dudelange","fr":"Dudelange","ja":"デュドランジュ","it":"Dudelange","zh-CN":"迪德朗日","tr":"Dudelange","ru":"Дюделанж","uk":"Дюделанж","pl":"Dudelange","hi":"डुडेलांगे","ar":"دوديلانج","hy":"Դուդելանժ"}},{"name":"Esch-sur-Alzette","latitude":"49.49583000","longitude":"5.98056000","native":"Plancher-sur-alzette","translations":{"br":"Esch-sur-Alzette","ko":"에슈쉬르알제트","pt-BR":"Esch-sur-Alzette","pt":"Esch-sur-Alzette","nl":"Esch-sur-Alzette","hr":"Esch-sur-Alzette","fa":"اش-سور-آلزت","de":"Esch-sur-Alzette","es":"Esch-sur-Alzette","fr":"Esch-sur-Alzette","ja":"エシュ＝シュル＝アルゼット","it":"Esch-sur-Alzette","zh-CN":"阿尔泽特河畔埃施","tr":"Esch-sur-Alzette","ru":"Эш-сюр-Альзетт","uk":"Еш-сюр-Альзетт","pl":"Esch-sur-Alzette","hi":"एश-सुर-अल्ज़ेट","ar":"إيش سور ألزيت","hy":"Էշ-սուր-Ալցետ"}},{"name":"Frisange","latitude":"49.51616000","longitude":"6.18858000","native":"Fissgence","translations":{"br":"Frisañj","ko":"프리상주","pt-BR":"Frisange","pt":"Frisange","nl":"Frisange","hr":"Frisange","fa":"فریزانژ","de":"Frisange","es":"Frisange","fr":"Frisange","ja":"フリサンジュ","it":"Frisage","zh-CN":"弗里桑格","tr":"Frisange","ru":"Фризанж","uk":"Фрізанж","pl":"Fryzange","hi":"फ्रिसांगे","ar":"فريسانج","hy":"Ֆրիզանժ"}},{"name":"Kayl","latitude":"49.48917000","longitude":"6.03972000","native":"Kyshyl","translations":{"br":"Kayl","ko":"케일","pt-BR":"Kayl","pt":"Kayl","nl":"Kayl","hr":"Kayl","fa":"کیل","de":"Kayl","es":"Kayl","fr":"Kayl","ja":"ケイル","it":"Kayl","zh-CN":"凯尔","tr":"Kayl","ru":"Кайл","uk":"Кейл","pl":"Kayl","hi":"कायल","ar":"كايل","hy":"Կայլ"}},{"name":"Lamadelaine","latitude":"49.54639000","longitude":"5.85639000","native":"Lamadeinee","translations":{"br":"Lamadelaine","ko":"라마들렌","pt-BR":"Lamadelaine","pt":"Lamadelaine","nl":"Lamadelaine","hr":"Lamadelaine","fa":"لامادلین","de":"Lamadelaine","es":"Lamadelaine","fr":"Lamadelaine","ja":"ラマデレーヌ","it":"Lamadelaine","zh-CN":"拉玛德莱娜","tr":"Lamadelaine","ru":"Ламаделейн","uk":"Ламаделайн","pl":"Lamadelaine","hi":"लामाडेलाइन","ar":"لامادلين","hy":"Լամադելեն"}},{"name":"Leudelange","latitude":"49.56833000","longitude":"6.06528000","native":"Ledelange","translations":{"br":"Leudelange","ko":"뢰델랑게","pt-BR":"Leudelange","pt":"Leudelange","nl":"Leudelange","hr":"Leudelange","fa":"لودلانژ","de":"Leudelange","es":"Leudelange","fr":"Leudelange","ja":"ルーデランジュ","it":"Leudelange","zh-CN":"勒德朗日","tr":"Leudelange","ru":"Лёделанж","uk":"Лейделанж","pl":"Leudelange","hi":"ल्यूडेलेंज","ar":"ليودلانجي","hy":"Լյուդելանժ"}},{"name":"Mondercange","latitude":"49.53306000","longitude":"5.98833000","native":"Mât","translations":{"br":"Mondercange","ko":"몬데르캉주","pt-BR":"Mondercange","pt":"Mondercange","nl":"Mondercange","hr":"Mondercange","fa":"موندرکانژ","de":"Mondercange","es":"Mondercange","fr":"Mondercange","ja":"モンデルカンジュ","it":"Mondercange","zh-CN":"蒙德坎日","tr":"Mondercange","ru":"Мондерканж","uk":"Мондеркейндж","pl":"Mondercange","hi":"मोंडरकांगे","ar":"موندركانج","hy":"Մոնդերկանժ"}},{"name":"Niedercorn","latitude":"49.53611000","longitude":"5.89306000","native":"Nierescorn","translations":{"br":"Niedercorn","ko":"니더콘","pt-BR":"Niedercorn","pt":"Niedercorn","nl":"Niedercorn","hr":"Niedercorn","fa":"نیدرکورن","de":"Niedercorn","es":"Niedercorn","fr":"Niedercorn","ja":"ニーダーコーン","it":"Niedercorn","zh-CN":"尼德科恩","tr":"Niedercorn","ru":"Нидеркорн","uk":"Нідеркорн","pl":"Niedercorn","hi":"नीडरकॉर्न","ar":"نيدركورن","hy":"Նիդերկոռն"}},{"name":"Obercorn","latitude":"49.51361000","longitude":"5.89611000","native":"Obercorn","translations":{"br":"Obercorn","ko":"오버콘","pt-BR":"Obercorn","pt":"Obercorn","nl":"Obercorn","hr":"Obercorn","fa":"اوبرکورن","de":"Obercorn","es":"Obercorn","fr":"Obercorn","ja":"オーバーコーン","it":"Obercorn","zh-CN":"奥伯康","tr":"Obercorn","ru":"Оберкорн","uk":"Оберкорн","pl":"Obercorn","hi":"ओबरकॉर्न","ar":"أوبركورن","hy":"Օբերկոռն"}},{"name":"Pétange","latitude":"49.55833000","longitude":"5.88056000","native":"Passage","translations":{"br":"Pétange","ko":"페탕주","pt-BR":"Pétange","pt":"Pétange","nl":"Pétange","hr":"Petange","fa":"پتانژ","de":"Petingen","es":"Pétange","fr":"Pétange","ja":"ペタンジュ","it":"Pétange","zh-CN":"佩坦日","tr":"Petank","ru":"Петанж","uk":"Петанж","pl":"Petange","hi":"पेटांगे","ar":"بيتانج","hy":"Պետանժ"}},{"name":"Pontpierre","latitude":"49.53639000","longitude":"6.02944000","native":"Pontpière","translations":{"br":"Pontpier","ko":"퐁피에르","pt-BR":"Pontpierre","pt":"Pontpierre","nl":"Pontpierre","hr":"Pontpierre","fa":"پونپیر","de":"Pontpierre","es":"Pontpierre","fr":"Pontpierre","ja":"ポンピエール","it":"Pontpierre","zh-CN":"蓬皮埃尔","tr":"Pontpierre","ru":"Понтпьер","uk":"Понтп'єр","pl":"Pontpierre","hi":"पोंटपियरे","ar":"بونتيير","hy":"Պոնտպիեր"}},{"name":"Reckange-sur-Mess","latitude":"49.56250000","longitude":"6.00889000","native":"Rythme-sun-mess","translations":{"br":"Reckange-war-Mess","ko":"레캉주쉬르메스","pt-BR":"Reckange-sur-Mess","pt":"Reckange-sur-Mess","nl":"Reckange-sur-Mess","hr":"Reckange-sur-Mess","fa":"رکانژ-سور-مس","de":"Reckange-sur-Mess","es":"Reckange-sur-Mess","fr":"Reckange-sur-Mess","ja":"レッカンジュ・シュル・メス","it":"Reckange-sur-Mess","zh-CN":"雷康日叙梅斯","tr":"Reckange-sur-Mess","ru":"Реканж-сюр-Месс","uk":"Реканж-сюр-Месс","pl":"Reckange-sur-Mess","hi":"Reckange-सुर-मैस","ar":"ريكانج سور ميس","hy":"Ռեկանժ-սուր-Մես"}},{"name":"Rodange","latitude":"49.54639000","longitude":"5.84083000","native":"Rodange","translations":{"br":"Rodange","ko":"로당주","pt-BR":"Rodange","pt":"Rodange","nl":"Rodange","hr":"Rodange","fa":"رودانگ","de":"Rodange","es":"Rodange","fr":"Rodange","ja":"ロダンジュ","it":"Rodange","zh-CN":"罗当日","tr":"Rodange","ru":"Роданж","uk":"Роданж","pl":"Rodange","hi":"रोडांगे","ar":"رودانج","hy":"Ռոդանժ"}},{"name":"Roeser","latitude":"49.53721000","longitude":"6.14629000","native":"Roesser","translations":{"br":"Roeser","ko":"로저","pt-BR":"Roeser","pt":"Roeser","nl":"Roeser","hr":"Roeser","fa":"روسر","de":"Röser","es":"Roeser","fr":"Roeser","ja":"ローザー","it":"Roeser","zh-CN":"罗瑟","tr":"Roeser","ru":"Резер","uk":"Розер","pl":"Roeser","hi":"रोएसर","ar":"روسر","hy":"Ռեզեր"}},{"name":"Rumelange","latitude":"49.45964000","longitude":"6.03089000","native":"RinmelRange","translations":{"br":"Rumelange","ko":"루멜랑게","pt-BR":"Rumelange","pt":"Rumelange","nl":"Rumelange","hr":"Rumelange","fa":"روملانژ","de":"Rümelingen","es":"Rumelange","fr":"Rumelange","ja":"ルメランジュ","it":"Rumelange","zh-CN":"鲁梅朗日","tr":"Rumelange","ru":"Рюмеланж","uk":"Румеланж","pl":"Rumelange","hi":"रुमेलेंज","ar":"روميلانج","hy":"Ռումելանժ"}},{"name":"Sanem","latitude":"49.54806000","longitude":"5.92889000","native":"Sanem","translations":{"br":"Sanem","ko":"사넴","pt-BR":"Sanem","pt":"Sanem","nl":"Sanem","hr":"Sanem","fa":"صنم","de":"Sanem","es":"Sanem","fr":"Sanem","ja":"サネム","it":"Sanem","zh-CN":"萨内姆","tr":"Sanem","ru":"Санем","uk":"Санем","pl":"Sanem","hi":"सनम","ar":"سانيم","hy":"Սանեմ"}},{"name":"Schifflange","latitude":"49.50639000","longitude":"6.01278000","native":"Équipes","translations":{"br":"Schifflange","ko":"쉬플랑게","pt-BR":"Schifflange","pt":"Schifflange","nl":"Schifflange","hr":"Šiflange","fa":"شیفلانژ","de":"Schifflange","es":"Schifflange","fr":"Schifflange","ja":"シフランジュ","it":"Schifflange","zh-CN":"希夫朗","tr":"Schifflange","ru":"Шиффланж","uk":"Шиффланж","pl":"Łuk okrętowy","hi":"शिफ़्लांगे","ar":"شيفلانج","hy":"Շիֆլանժ"}},{"name":"Soleuvre","latitude":"49.52148000","longitude":"5.93781000","native":"Couvre","translations":{"br":"Dilennadeg","ko":"솔루브르","pt-BR":"Soleuvre","pt":"Soleuvre","nl":"Soleuvre","hr":"Soleuvre","fa":"سولور","de":"Soleuvre","es":"Soleuvre","fr":"Soleuvre","ja":"ソルーヴル","it":"Soleuvre","zh-CN":"索勒夫尔","tr":"Soleuvre","ru":"Солевер","uk":"Солевр","pl":"Soleuvre","hi":"सोलेव्रे","ar":"سولوفر","hy":"Սոլևր"}},{"name":"Tétange","latitude":"49.47583000","longitude":"6.04222000","native":"Téchanger","translations":{"br":"Tétange","ko":"테탕지","pt-BR":"Tétange","pt":"Tétange","nl":"Tétange","hr":"Tétange","fa":"تتانژ","de":"Tetange","es":"Tétange","fr":"Tétange","ja":"テタンジュ","it":"Tétange","zh-CN":"特坦日","tr":"Tetange","ru":"Тетанж","uk":"Тетанж","pl":"Tétange","hi":"टेटेंज","ar":"تيتانج","hy":"Տետանժ"}}]},{"name":"Canton of Grevenmacher","state_code":"GR","latitude":"49.68084100","longitude":"6.44075930","cities":[{"name":"Betzdorf","latitude":"49.68333000","longitude":"6.35000000","native":"Betzdorf","translations":{"br":"Betzdorf","ko":"베츠도르프","pt-BR":"Betzdorf","pt":"Betzdorf","nl":"Betzdorf","hr":"Betzdorf","fa":"بتزدورف","de":"Betzdorf","es":"Betzdorf","fr":"Betzdorf","ja":"ベッツドルフ","it":"Betzdorf","zh-CN":"贝茨多夫","tr":"Betzdorf","ru":"Бецдорф","uk":"Бецдорф","pl":"Betzdorf","hi":"बेट्ज़डॉर्फ","ar":"بيتزدورف","hy":"Բեցդորֆ"}},{"name":"Biwer","latitude":"49.70605000","longitude":"6.37201000","native":"Plus gros","translations":{"br":"Biwer","ko":"비워","pt-BR":"Biwer","pt":"Biwer","nl":"Biwer","hr":"Biwer","fa":"بایور","de":"Biwer","es":"Biwer","fr":"Biwer","ja":"ビワー","it":"Biwer","zh-CN":"比韦尔","tr":"Biwer","ru":"Бивер","uk":"Бівер","pl":"Biwer","hi":"बिवर","ar":"بوير","hy":"Բիվեր"}},{"name":"Flaxweiler","latitude":"49.66602000","longitude":"6.34321000","native":"Linseau de lin","translations":{"br":"Gwenn-lien","ko":"플랙스바일러","pt-BR":"Flaxweiler","pt":"Flaxweiler","nl":"Vlasweiler","hr":"Flaxweiler","fa":"فلکسویلر","de":"Flaxweiler","es":"Flaxweiler","fr":"Flaxweiler","ja":"フラックスヴァイラー","it":"Lino","zh-CN":"弗拉克斯韦勒","tr":"Keten tohumu","ru":"Флаксвайлер","uk":"Флексвайлер","pl":"Flaxweiler","hi":"फ्लैक्सवीलर","ar":"فلاكسويلر","hy":"Ֆլաքսվայլեր"}},{"name":"Gonderange","latitude":"49.69537000","longitude":"6.24577000","native":"Goderange","translations":{"br":"Gonderange","ko":"곤데랑게","pt-BR":"Gonderange","pt":"Gonderange","nl":"Gonderange","hr":"Gonderange","fa":"گوندرانژ","de":"Gonderange","es":"Gonderang","fr":"Gonderange","ja":"ゴンデランジュ","it":"Gonderange","zh-CN":"贡德朗日","tr":"Gonderange","ru":"Гондеранж","uk":"Гондеранж","pl":"Gonderange","hi":"गोंडरेंज","ar":"غونديرانج","hy":"Գոնդերանժ"}},{"name":"Grevenmacher","latitude":"49.67751000","longitude":"6.44022000","native":"Great","translations":{"br":"Grevenmacher","ko":"그레벤마허","pt-BR":"Grevenmacher","pt":"Grevenmacher","nl":"Grevenmacher","hr":"Grevenmacher","fa":"گرونماخر","de":"Grevenmacher","es":"Grevenmacher","fr":"Grevenmacher","ja":"グレーヴェンマッハー","it":"Grevenmacher","zh-CN":"格雷文马赫","tr":"Grevenmacher","ru":"Гревенмахер","uk":"Гревенмахер","pl":"Grevenmacher","hi":"ग़्रेवेन्मचेर","ar":"جريفينماشر","hy":"Գրևենմաղեր"}},{"name":"Junglinster","latitude":"49.70722000","longitude":"6.25306000","native":"Junglinster","translations":{"br":"Junglinster","ko":"정린스터","pt-BR":"Junglinster","pt":"Junglinster","nl":"Junglinster","hr":"Junglinster","fa":"جونگلینستر","de":"Junglinster","es":"Junglinster","fr":"Junglinster","ja":"ユングリンスター","it":"Junglinster","zh-CN":"荣林斯特","tr":"Junglinster","ru":"Юнглинстер","uk":"Юнглінстер","pl":"Junglinster","hi":"जंगलिनस्टर","ar":"جانجلينستر","hy":"Յունգլինստեր"}},{"name":"Manternach","latitude":"49.70278000","longitude":"6.42639000","native":"Maternelle","translations":{"br":"Manternach","ko":"만테르나흐","pt-BR":"Manternach","pt":"Manternach","nl":"Manternach","hr":"Manternach","fa":"مانترناخ","de":"Manternach","es":"Manternach","fr":"Manternach","ja":"マンテルナッハ","it":"Manternach","zh-CN":"曼特纳赫","tr":"Manternach","ru":"Мантернах","uk":"Мантернах","pl":"Manternach","hi":"मैन्टरनाच","ar":"مانترناش","hy":"Մանտերնաղ"}},{"name":"Mertert","latitude":"49.70261000","longitude":"6.47966000","native":"Berton","translations":{"br":"Mertert","ko":"메르테르트","pt-BR":"Mertert","pt":"Mertert","nl":"Mertert","hr":"Mertert","fa":"مرترت","de":"Mertert","es":"Mertert","fr":"Mertert","ja":"メルテルト","it":"Mertert","zh-CN":"默特尔特","tr":"Mertert","ru":"Мертерт","uk":"Мертерт","pl":"Mertert","hi":"मेरटेर्ट","ar":"ميرترت","hy":"Մերտերտ"}},{"name":"Wasserbillig","latitude":"49.71534000","longitude":"6.49861000","native":"Wasserbillig","translations":{"br":"Wasserbillig","ko":"바서빌리그","pt-BR":"Águas residuais","pt":"Águas residuais","nl":"Waterbestendig","hr":"Wasserbillig","fa":"واسربیلیگ","de":"Wasserbillig","es":"Billete de agua","fr":"Wasserbillig","ja":"ヴァッサービリッヒ","it":"Wasserbillig","zh-CN":"水比利希","tr":"Su faturası","ru":"Вассербиллиг","uk":"Вассербілліг","pl":"Woda pitna","hi":"वासेरबिलिग","ar":"مياه الشرب","hy":"Վասերբիլիգ"}},{"name":"Wormeldange","latitude":"49.61114000","longitude":"6.40546000","native":"Ver","translations":{"br":"Gwermeldange","ko":"웜멜당게","pt-BR":"Wormeldange","pt":"Wormeldange","nl":"Wormeldange","hr":"Wormeldange","fa":"ورملدانژ","de":"Wormeldingen","es":"Peligro de gusanos","fr":"Wormeldange","ja":"ワーメルダンジュ","it":"Wormeldange","zh-CN":"沃尔默尔丹格","tr":"Wormeldange","ru":"Вормельданж","uk":"Вормельданж","pl":"Wormeldange","hi":"वर्मेलडांगे","ar":"وورميلدانج","hy":"Վորմելդանժ"}}]},{"name":"Canton of Luxembourg","state_code":"LU","latitude":"49.63010250","longitude":"6.15201850","cities":[{"name":"Alzingen","latitude":"49.56500000","longitude":"6.16361000","native":"Alzins","translations":{"br":"Alzingen","ko":"알징겐","pt-BR":"Alzheimer","pt":"Alzheimer","nl":"Alzheimer","hr":"Alzingen","fa":"آلزینگن","de":"Alzingen","es":"Alzheimer","fr":"Alzingen","ja":"アルツィンゲン","it":"Alzingen","zh-CN":"阿尔辛根","tr":"Alzingen","ru":"Альцинген","uk":"Альцінген","pl":"Alzingen","hi":"अलज़िंगन","ar":"ألزينجن","hy":"Ալցինգեն"}},{"name":"Béreldange","latitude":"49.65507000","longitude":"6.11874000","native":"Béreldange","translations":{"br":"Béreldange","ko":"베렐당주","pt-BR":"Béreldange","pt":"Béreldange","nl":"Béreldange","hr":"Béreldange","fa":"برلدانژ","de":"Béreldange","es":"Béreldange","fr":"Béreldange","ja":"ベレルダンジュ","it":"Béreldange","zh-CN":"贝雷尔当日","tr":"Béreldange","ru":"Берельданж","uk":"Берельданж","pl":"Béreldange","hi":"बेरेलडांगे","ar":"بيريلدانج","hy":"Բերելդանժ"}},{"name":"Bertrange","latitude":"49.61111000","longitude":"6.05000000","native":"Bertrrange","translations":{"br":"Bertrange","ko":"베르트랑주","pt-BR":"Bertrange","pt":"Bertrange","nl":"Bertrange","hr":"Bertrange","fa":"برترانژ","de":"Bertrange","es":"Bertrange","fr":"Bertrange","ja":"ベルトランジュ","it":"Bertrange","zh-CN":"贝尔特朗日","tr":"Bertrange","ru":"Бертранж","uk":"Бертранж","pl":"Bertrange","hi":"बर्ट्रेंज","ar":"بيرترانج","hy":"Բերտրանժ"}},{"name":"Contern","latitude":"49.58194000","longitude":"6.22667000","native":"Continu","translations":{"br":"Contern","ko":"컨턴","pt-BR":"Contern","pt":"Contern","nl":"Contern","hr":"Contern","fa":"کانترن","de":"Contern","es":"Contern","fr":"Contern","ja":"コンターン","it":"Contern","zh-CN":"康特恩","tr":"İçerik","ru":"Контерн","uk":"Контерн","pl":"Kontern","hi":"कॉन्टर्न","ar":"كونترن","hy":"Կոնտեռն"}},{"name":"Fentange","latitude":"49.56278000","longitude":"6.15389000","native":"Escrime","translations":{"br":"Fentange","ko":"펜탕게","pt-BR":"Fentange","pt":"Fentange","nl":"Fentange","hr":"Fentange","fa":"فنتانژ","de":"Fentange","es":"Fentange","fr":"Fentange","ja":"フェンタンジュ","it":"Fentange","zh-CN":"芬坦格","tr":"Fentange","ru":"Фентанж","uk":"Фентанж","pl":"Fentange","hi":"फेंटांज","ar":"فنتانج","hy":"Ֆենտանժ"}},{"name":"Heisdorf","latitude":"49.67207000","longitude":"6.14202000","native":"Heisdorf","translations":{"br":"Heisdorf","ko":"하이스도르프","pt-BR":"Heisdorf","pt":"Heisdorf","nl":"Heisdorf","hr":"Heisdorf","fa":"هایزدورف","de":"Heisdorf","es":"Heisdorf","fr":"Heisdorf","ja":"ハイスドルフ","it":"Heisdorf","zh-CN":"海斯多夫","tr":"Heisdorf","ru":"Гейсдорф","uk":"Гайсдорф","pl":"Heisdorf","hi":"हाइस्डॉर्फ","ar":"هايسدورف","hy":"Հայսդորֆ"}},{"name":"Helmsange","latitude":"49.65278000","longitude":"6.14139000","native":"Casque","translations":{"br":"Helmsange","ko":"헬름상게","pt-BR":"Elmo","pt":"Elmo","nl":"Helmsange","hr":"Helmsange","fa":"هلمسانگ","de":"Helmsange","es":"Helmsange","fr":"Helmsange","ja":"ヘルムゼンゲ","it":"Helmsange","zh-CN":"赫尔姆桑格","tr":"Helmsange","ru":"Хельмсанге","uk":"Гельмсанге","pl":"Helmsange","hi":"हेल्म्सैंज","ar":"هلمسانج","hy":"Հելմսանժ"}},{"name":"Hesperange","latitude":"49.56806000","longitude":"6.15139000","native":"Empiètement","translations":{"br":"Hesperañjez","ko":"헤스페랑주","pt-BR":"Hesperange","pt":"Hesperange","nl":"Hesperange","hr":"Hesperange","fa":"هسپرانژ","de":"Hesperingen","es":"Hesperange","fr":"Hesperange","ja":"ヘスペランジュ","it":"Hesperange","zh-CN":"赫斯佩兰奇","tr":"Hesperange","ru":"Эсперанж","uk":"Гесперанж","pl":"Hesperange","hi":"हेस्पेरेंज","ar":"هسبيرانج","hy":"Հեսպերանժ"}},{"name":"Itzig","latitude":"49.58769000","longitude":"6.17065000","native":"Itzgg","translations":{"br":"Itzig","ko":"이치그","pt-BR":"Itzig","pt":"Itzig","nl":"Itzig","hr":"Itzig","fa":"ایتزیگ","de":"Itzig","es":"Itzig","fr":"Itzig","ja":"イツィヒ","it":"Itzig","zh-CN":"伊齐格","tr":"Itzig","ru":"Ициг","uk":"Іциг","pl":"Itzig","hi":"इत्ज़िग","ar":"إيتزيغ","hy":"Իցիգ"}},{"name":"Kirchberg","latitude":"49.62389000","longitude":"6.14944000","native":"Kirchberg","translations":{"br":"Kirchberg","ko":"키르히베르크","pt-BR":"Kirchberg","pt":"Kirchberg","nl":"Kirchberg","hr":"Kirchberg","fa":"کیرشبرگ","de":"Kirchberg","es":"Kirchberg","fr":"Kirchberg","ja":"キルヒベルク","it":"Kirchberg","zh-CN":"基希贝格","tr":"Kirchberg","ru":"Кирхберг","uk":"Кірхберг","pl":"Kirchberg","hi":"किर्चबर्ग","ar":"كيرشبرغ","hy":"Կիրղբերգ"}},{"name":"Luxembourg","latitude":"49.61167000","longitude":"6.13000000","native":"Luxembourg","translations":{"br":"Luksembourg","ko":"룩셈부르크","pt-BR":"Luxemburgo","pt":"Luxemburgo","nl":"Luxemburg","hr":"Luksemburg","fa":"لوکزامبورگ","de":"Luxemburg","es":"Luxemburgo","fr":"Luxembourg","ja":"ルクセンブルク","it":"Lussemburgo","zh-CN":"卢森堡","tr":"Lüksemburg","ru":"Люксембург","uk":"Люксембург","pl":"Luksemburg","hi":"लक्समबर्ग","ar":"لوكسمبورغ","hy":"Լյուքսեմբուրգ"}},{"name":"Moutfort","latitude":"49.58528000","longitude":"6.25556000","native":"Moutcom","translations":{"br":"Moutfort","ko":"무포르","pt-BR":"Moutfort","pt":"Moutfort","nl":"Moutfort","hr":"Moutfort","fa":"موتفورت","de":"Mutfort","es":"Moutfort","fr":"Moutfort","ja":"マウトフォート","it":"Moutfort","zh-CN":"穆福特","tr":"Ağız boşluğu","ru":"Мутфорт","uk":"Мутфорт","pl":"Moutfort","hi":"माउथफोर्ट","ar":"موتفورت","hy":"Մութֆոր"}},{"name":"Müllendorf","latitude":"49.68028000","longitude":"6.13000000","native":"Müllendorf","translations":{"br":"Müllendorf","ko":"뮐렌도르프","pt-BR":"Müllendorf","pt":"Müllendorf","nl":"Müllendorf","hr":"Müllendorf","fa":"مولندورف","de":"Müllendorf","es":"Müllendorf","fr":"Müllendorf","ja":"ミュレンドルフ","it":"Müllendorf","zh-CN":"米伦多夫","tr":"Müllendorf","ru":"Мюллендорф","uk":"Мюллендорф","pl":"Müllendorf","hi":"मुलेनडॉर्फ","ar":"مولندورف","hy":"Մյուլենդորֆ"}},{"name":"Niederanven","latitude":"49.65196000","longitude":"6.26199000","native":"Nudeanven","translations":{"br":"Niederanven","ko":"니더란벤","pt-BR":"Niederanven","pt":"Niederanven","nl":"Niederanven","hr":"Niederanven","fa":"نیدرانون","de":"Niederanven","es":"Niederanven","fr":"Niederanven","ja":"ニーダーランヴェン","it":"Niederanven","zh-CN":"下兰芬","tr":"Niederanven","ru":"Нидеранвен","uk":"Нідеранвен","pl":"Niederanven","hi":"नीडेरानवेन","ar":"نيدرانفين","hy":"Նիդերանվեն"}},{"name":"Olm","latitude":"49.65722000","longitude":"6.00028000","native":"Olm","translations":{"br":"Olm","ko":"올름","pt-BR":"Olmo","pt":"Olmo","nl":"Olm","hr":"Čovječja ribica","fa":"اولم","de":"Olm","es":"Olmo","fr":"Olm","ja":"オルム","it":"Olmo","zh-CN":"洞螈","tr":"Olm","ru":"Олм","uk":"Олм","pl":"Olm","hi":"ओल्म","ar":"أولم","hy":"Օլմ"}},{"name":"Sandweiler","latitude":"49.61471000","longitude":"6.22221000","native":"Sandweiler","translations":{"br":"Traezhenn","ko":"샌드바일러","pt-BR":"Sandweiler","pt":"Sandweiler","nl":"Sandweiler","hr":"Sandweiler","fa":"سندوایلر","de":"Sandweiler","es":"Sandweiler","fr":"Sandweiler","ja":"サンドワイラー","it":"Sandweiler","zh-CN":"桑德韦勒","tr":"Sandweiler","ru":"Сэндвейлер","uk":"Сандвайлер","pl":"Sandweiler","hi":"सैंडवीलर","ar":"ساندوايلر","hy":"Սանդվայլեր"}},{"name":"Schrassig","latitude":"49.61014000","longitude":"6.25903000","native":"Crazig","translations":{"br":"Schrassig","ko":"슈라시그","pt-BR":"Schrassig","pt":"Schrassig","nl":"Schrassig","hr":"Schrassig","fa":"شراسیگ","de":"Schrassig","es":"Schrassig","fr":"Schrassig","ja":"シュラッシグ","it":"Schrassig","zh-CN":"施拉西格","tr":"Schrassig","ru":"Шрассиг","uk":"Шрассіг","pl":"Schrassig","hi":"श्रासिग","ar":"شراسيج","hy":"Շրասիգ"}},{"name":"Schuttrange","latitude":"49.62056000","longitude":"6.26861000","native":"Départ","translations":{"br":"Schuttrange","ko":"슈트랑게","pt-BR":"Schuttrange","pt":"Schuttrange","nl":"Schuttrange","hr":"Schuttrange","fa":"شوترانژ","de":"Schüttrange","es":"Schuttrange","fr":"Schuttrange","ja":"シュットレンジ","it":"Schuttrange","zh-CN":"保护范围","tr":"Schuttrange","ru":"Шуттранге","uk":"Шуттранґе","pl":"Schuttrange","hi":"शुट्रेंज","ar":"شوترانج","hy":"Շուտրանժ"}},{"name":"Steinsel","latitude":"49.67694000","longitude":"6.12389000","native":"Steinsellor","translations":{"br":"Steinsel","ko":"슈타인젤","pt-BR":"Steinsel","pt":"Steinsel","nl":"Steinsel","hr":"Steinsel","fa":"استاینسل","de":"Steinsel","es":"Steinsel","fr":"Steinsel","ja":"シュタインゼル","it":"Steinsel","zh-CN":"斯坦塞尔","tr":"Steinsel","ru":"Штейнсель","uk":"Штайнзель","pl":"Steinsel","hi":"स्टीनसेल","ar":"ستينسل","hy":"Շտայնսել"}},{"name":"Strassen","latitude":"49.62056000","longitude":"6.07333000","native":"Route","translations":{"br":"Strassen","ko":"스트라센","pt-BR":"Strassen","pt":"Strassen","nl":"Strassen","hr":"Strassen","fa":"استراسن","de":"Strassen","es":"Calles","fr":"Strassen","ja":"ストラッセン","it":"Strassen","zh-CN":"施特拉森","tr":"Strassen","ru":"Штрассен","uk":"Штрассен","pl":"Strassen","hi":"स्ट्रैसेन","ar":"ستراسن","hy":"Շտրասեն"}},{"name":"Walferdange","latitude":"49.66321000","longitude":"6.13224000","native":"Walferdanged","translations":{"br":"Walferdange","ko":"발퍼당게","pt-BR":"Walferdange","pt":"Walferdange","nl":"Walferdange","hr":"Walferdange","fa":"والفردانژ","de":"Walferdingen","es":"Walferdange","fr":"Walferdange","ja":"ウォルファーダンジュ","it":"Walferdange","zh-CN":"瓦尔弗当日","tr":"Walferdange","ru":"Вальферданж","uk":"Вальферданж","pl":"Walferdangge","hi":"वाल्फरडांगे","ar":"والفردانج","hy":"Վալֆերդանժ"}},{"name":"Weiler-la-Tour","latitude":"49.54083000","longitude":"6.20083000","native":"Weiler-la-Tour","translations":{"br":"Weiler-an-Tour","ko":"와일러-라-투르","pt-BR":"Weiler-la-Tour","pt":"Weiler-la-Tour","nl":"Weiler-la-Tour","hr":"Weiler-la-Tour","fa":"وایلر-لا-تور","de":"Weiler-la-Tour","es":"Weiler-la-Tour","fr":"Weiler-la-Tour","ja":"ヴェイラー・ラ・トゥール","it":"Weiler-la-Tour","zh-CN":"韦勒拉图尔","tr":"Weiler-la-Tour","ru":"Вейлер-ла-Тур","uk":"Вайлер-ла-Тур","pl":"Weiler-la-Tour","hi":"वेइलर-ला-टूर","ar":"ويلر لا تور","hy":"Վայլեր-լա-Թուր"}}]},{"name":"Canton of Mersch","state_code":"ME","latitude":"49.75429060","longitude":"6.12921850","cities":[{"name":"Bissen","latitude":"49.78733000","longitude":"6.06540000","native":"mordre","translations":{"br":"Bissen","ko":"비센","pt-BR":"Bissen","pt":"Bissen","nl":"Bissen","hr":"Bissen","fa":"بیسن","de":"Bissen","es":"Bissen","fr":"Bissen","ja":"ビッセン","it":"Bissen","zh-CN":"比森","tr":"Bissen","ru":"Биссен","uk":"Біссен","pl":"Bissen","hi":"बिसेन","ar":"بيسن","hy":"Բիսեն"}},{"name":"Boevange-sur-Attert","latitude":"49.77256000","longitude":"6.01532000","native":"Boovange-sur-état","translations":{"br":"Boevange-sur-Attert","ko":"보방주쉬르아테르","pt-BR":"Boevange-sur-Attert","pt":"Boevange-sur-Attert","nl":"Boevange-sur-Attert","hr":"Boevange-sur-Attert","fa":"بووانژ-سور-آترت","de":"Böwingen-sur-Attert","es":"Boevange-sur-Attert","fr":"Boevange-sur-Attert","ja":"ボエヴァンジュ・シュル・アテルト","it":"Boevange-sur-Attert","zh-CN":"阿泰尔河畔布万日","tr":"Boevange-sur-Attert","ru":"Боеванж-сюр-Аттер","uk":"Беванж-сюр-Аттер","pl":"Boevange-sur-Attert","hi":"Boevange-सुर-Attert","ar":"بوفانج سور أترت","hy":"Բոևանժ-սուր-Ատերտ"}},{"name":"Colmar","latitude":"49.81028000","longitude":"6.09722000","native":"Colmar","translations":{"br":"Colmar","ko":"콜마르","pt-BR":"Colmar","pt":"Colmar","nl":"Colmar","hr":"Colmar","fa":"کولمار","de":"Colmar","es":"Colmar","fr":"Colmar","ja":"コルマール","it":"Colmar","zh-CN":"科尔马","tr":"Colmar","ru":"Кольмар","uk":"Кольмар","pl":"Colmar","hi":"कोलमार","ar":"كولمار","hy":"Կոլմար"}},{"name":"Fischbach","latitude":"49.74600000","longitude":"6.18702000","native":"Ruisseau de poisson","translations":{"br":"Fischbach","ko":"피쉬바흐","pt-BR":"Fischbach","pt":"Fischbach","nl":"Fischbach","hr":"Fischbach","fa":"فیشباخ","de":"Fischbach","es":"Fischbach","fr":"Fischbach","ja":"フィッシュバッハ","it":"Fischbach","zh-CN":"菲施巴赫","tr":"Balıkbalığı","ru":"Фишбах","uk":"Фішбах","pl":"Fischbach","hi":"फिशबैक","ar":"فيشباخ","hy":"Ֆիշբաղ"}},{"name":"Heffingen","latitude":"49.76907000","longitude":"6.24049000","native":"Impôt","translations":{"br":"Heffingen","ko":"헤핑겐","pt-BR":"Heffingen","pt":"Heffingen","nl":"Heffingen","hr":"Heffingen","fa":"هفینگن","de":"Heffingen","es":"Heffingen","fr":"Heffingen","ja":"ヘフィンゲン","it":"Heffingen","zh-CN":"赫芬根","tr":"Heffingen","ru":"Хеффинген","uk":"Хеффінген","pl":"Heffingen","hi":"हेफ़िंगन","ar":"هيفينجن","hy":"Հեֆֆինգեն"}},{"name":"Larochette","latitude":"49.78362000","longitude":"6.21891000","native":"Larnochette","translations":{"br":"Larochette","ko":"라로셰트","pt-BR":"Larochette","pt":"Larochette","nl":"Larochette","hr":"Larochette","fa":"لاروشت","de":"Larochette","es":"Larochette","fr":"Larochette","ja":"ラロシェット","it":"Larochette","zh-CN":"拉罗谢特","tr":"Larochette","ru":"Ларошетт","uk":"Ларошетт","pl":"Larochette","hi":"लारोचेट","ar":"لاروشيت","hy":"Լարոշետ"}},{"name":"Lintgen","latitude":"49.72243000","longitude":"6.13016000","native":"Grognement","translations":{"br":"Lintgen","ko":"린트겐","pt-BR":"Lintgen","pt":"Lintgen","nl":"Lintgen","hr":"Lintgen","fa":"لینتگن","de":"Lintgen","es":"Lintgen","fr":"Lintgen","ja":"リントゲン","it":"Lintgen","zh-CN":"林特根","tr":"Lintgen","ru":"Линтген","uk":"Лінтген","pl":"Lintgen","hi":"लिंटजेन","ar":"لينتجن","hy":"Լինտգեն"}},{"name":"Lorentzweiler","latitude":"49.70131000","longitude":"6.14234000","native":"Lorentness","translations":{"br":"Lorentzweiler","ko":"로렌츠바일러","pt-BR":"Lorentzweiler","pt":"Lorentzweiler","nl":"Lorentzweiler","hr":"Lorentzweiler","fa":"لورنتسوایلر","de":"Lorentzweiler","es":"Lorentzweiler","fr":"Lorentzweiler","ja":"ロレンツヴァイラー","it":"Lorentzweiler","zh-CN":"洛伦兹韦勒","tr":"Lorentzweiler","ru":"Лоренцвейлер","uk":"Лоренцвайлер","pl":"Lorentzweiler","hi":"लोरेंत्ज़वीलर","ar":"لورينتزويلر","hy":"Լորենցվայլեր"}},{"name":"Mersch","latitude":"49.74889000","longitude":"6.10611000","native":"Marchandi","translations":{"br":"Mersch","ko":"메르쉬","pt-BR":"Mersch","pt":"Mersch","nl":"Mersch","hr":"Mersch","fa":"مرش","de":"Mersch","es":"Mersch","fr":"Mersch","ja":"メルシュ","it":"Mersch","zh-CN":"梅尔施","tr":"Mersch","ru":"Мерш","uk":"Мерш","pl":"Mersch","hi":"मर्स्च","ar":"ميرش","hy":"Մերշ"}},{"name":"Nommern","latitude":"49.78694000","longitude":"6.17472000","native":"N °","translations":{"br":"Nommern","ko":"놈머른","pt-BR":"Nommern","pt":"Nommern","nl":"Nommern","hr":"Nommern","fa":"نامرن","de":"Nommern","es":"Nombres","fr":"Nommern","ja":"ノメルン","it":"Nommern","zh-CN":"诺默恩","tr":"Nommern","ru":"Номмерн","uk":"Номмерн","pl":"Nommern","hi":"नामर्न","ar":"نوميرن","hy":"Նոմերն"}},{"name":"Rollingen","latitude":"49.74167000","longitude":"6.11444000","native":"Roulements","translations":{"br":"Rollingen","ko":"롤링겐","pt-BR":"Rollingen","pt":"Rollingen","nl":"Rollingen","hr":"Rollingen","fa":"رولینگن","de":"Rollingen","es":"Rollingen","fr":"Rouler","ja":"ローリンゲン","it":"Rollingen","zh-CN":"罗林根","tr":"Rollingen","ru":"Роллинген","uk":"Роллінген","pl":"Rollingen","hi":"रोलिंगन","ar":"رولينجن","hy":"Ռոլինգեն"}},{"name":"Tuntange","latitude":"49.71778000","longitude":"6.01028000","native":"Encloir","translations":{"br":"Tontange","ko":"툰탕게","pt-BR":"Tuntange","pt":"Tuntange","nl":"Tuntange","hr":"Tuntange","fa":"تونتانژ","de":"Tuntange","es":"Tuntange","fr":"Tuntange","ja":"タンタンジュ","it":"Tuntange","zh-CN":"通坦格","tr":"Tuntange","ru":"Тунтанге","uk":"Тунтанге","pl":"Tuntange","hi":"टुनटांगे","ar":"تونتانج","hy":"Տունտանժ"}}]},{"name":"Canton of Redange","state_code":"RD","latitude":"49.76455000","longitude":"5.88948000","cities":[{"name":"Beckerich","latitude":"49.73056000","longitude":"5.88722000","native":"Beckerich","translations":{"br":"Beckerich","ko":"베케리히","pt-BR":"Beckerich","pt":"Beckerich","nl":"Beckerich","hr":"Beckerich","fa":"بکریچ","de":"Beckerich","es":"Beckerich","fr":"Beckerich","ja":"ベッケリッヒ","it":"Beckerich","zh-CN":"贝克里希","tr":"Beckerich","ru":"Беккерих","uk":"Беккеріх","pl":"Beckerich","hi":"बेकेरिच","ar":"بيكريتش","hy":"Բեկերիղ"}},{"name":"Bettborn","latitude":"49.79528000","longitude":"5.94111000","native":"Bettborn","translations":{"br":"Bettborn","ko":"베트본","pt-BR":"Bettborn","pt":"Bettborn","nl":"Bettborn","hr":"Bettborn","fa":"بتبورن","de":"Bettborn","es":"Bettborn","fr":"Bettborn","ja":"ベットボーン","it":"Bettborn","zh-CN":"贝特博恩","tr":"Bettborn","ru":"Беттборн","uk":"Беттборн","pl":"Bettborn","hi":"बेटबोर्न","ar":"بيتبورن","hy":"Բետբորն"}},{"name":"Commune de Préizerdaul","latitude":"49.80114000","longitude":"5.93299000","native":"Commouer le rail du PRÉSER","translations":{"br":"Kumun ar Prezerdaul","ko":"프레이저다울 공동체","pt-BR":"Comuna de Préizerdaul","pt":"Comuna de Préizerdaul","nl":"Gemeente van Préizerdaul","hr":"Općina Préizerdaul","fa":"کمون پرایزردال","de":"Commune de Préizerdaul","es":"Comuna de Préizerdaul","fr":"Commune de Préizerdaul","ja":"プレゼルダウル市","it":"Comune di Préizerdaul","zh-CN":"普雷泽道尔公社","tr":"Préizerdaul Komünü","ru":"Коммуна Прейзердауль","uk":"Комуна Презердоль","pl":"Gmina Préizerdaul","hi":"कम्यून डे प्रेज़रडौल","ar":"بلدية برييزرداول","hy":"Կոմունե դե Պրեզերդաուլ"}},{"name":"Ell","latitude":"49.76389000","longitude":"5.85722000","native":"Aune","translations":{"br":"Ell","ko":"엘","pt-BR":"Ell","pt":"Ell","nl":"El","hr":"Lakat","fa":"ال","de":"Ell","es":"Ana","fr":"Aune","ja":"エル","it":"Ell","zh-CN":"埃尔","tr":"Ell","ru":"Элл","uk":"Елл","pl":"Łokieć","hi":"पक्ष","ar":"إيل","hy":"Էլ"}},{"name":"Grosbous","latitude":"49.82778000","longitude":"5.96722000","native":"Grossier","translations":{"br":"Grosbous","ko":"그로스부스","pt-BR":"Grossous","pt":"Grossous","nl":"Grosbous","hr":"Grosbous","fa":"گروسبوس","de":"Grosbous","es":"Grosbous","fr":"Grosbous","ja":"グロスブース","it":"Grosbous","zh-CN":"格罗斯布斯","tr":"Grosbous","ru":"Гросбус","uk":"Гросбус","pl":"Grosbous","hi":"ग्रोसबौस","ar":"جروسبوس","hy":"Գրոսբուս"}},{"name":"Rambrouch","latitude":"49.83083000","longitude":"5.84500000","native":"Rabat-temps","translations":{"br":"Rambrouch","ko":"램브루흐","pt-BR":"Rambrouch","pt":"Rambrouch","nl":"Rambrouch","hr":"Rambrouch","fa":"رامبروش","de":"Rambruch","es":"Rambrouch","fr":"Rambrouch","ja":"ラムブローチ","it":"Rambrouch","zh-CN":"兰布鲁什","tr":"Rambrouch","ru":"Рамбруш","uk":"Рамбрух","pl":"Rambrouch","hi":"रैम्ब्रूच","ar":"رامبروتش","hy":"Ռամբրուղ"}},{"name":"Redange-sur-Attert","latitude":"49.76437000","longitude":"5.88997000","native":"RedRange-sur-tertes","translations":{"br":"Advarc'hañ-sur-Attert","ko":"르당주쉬르아테르","pt-BR":"Redange-sur-Attert","pt":"Redange-sur-Attert","nl":"Redange-sur-Attert","hr":"Redange-sur-Attert","fa":"ردانگ-سور-اتر","de":"Redange-sur-Attert","es":"Redange-sur-Attert","fr":"Redange-sur-Attert","ja":"ルダンジュ・シュル・アテール","it":"Redange-sur-Attert","zh-CN":"雷当日叙阿泰尔","tr":"Redange-sur-Attert","ru":"Redange-sur-Attert","uk":"Реданж-сюр-Аттер","pl":"Redange-sur-Attert","hi":"Redange-सुर-Attert","ar":"ريدانج سور أترت","hy":"Ռեդանժ-սուր-Ատերտ"}},{"name":"Saeul","latitude":"49.72722000","longitude":"5.98639000","native":"Saeul","translations":{"br":"Saeul","ko":"새울","pt-BR":"Saeul","pt":"Saeul","nl":"Saeul","hr":"Saeul","fa":"سائول","de":"Saeul","es":"Saeul","fr":"Saeul","ja":"サウル","it":"Saeul","zh-CN":"沙尔","tr":"Saeul","ru":"Саыль","uk":"Саеул","pl":"Saeul","hi":"साएउल","ar":"ساول","hy":"Սաէուլ"}},{"name":"Useldange","latitude":"49.76972000","longitude":"5.98222000","native":"Usagerange","translations":{"br":"Useldange","ko":"우셀당게","pt-BR":"Useldange","pt":"Useldange","nl":"Useldange","hr":"Useldange","fa":"اوسلدانگه","de":"Useldingen","es":"Peligro de uso","fr":"Useldange","ja":"使用期限","it":"Useldange","zh-CN":"尤瑟尔当","tr":"Useldange","ru":"Юзельданж","uk":"Узельданге","pl":"Useldange","hi":"उसेल्डैंज","ar":"أوسيلدانج","hy":"Ուզելդանժ"}},{"name":"Vichten","latitude":"49.80306000","longitude":"6.00000000","native":"Datzon","translations":{"br":"Vichten","ko":"비히텐","pt-BR":"Vichten","pt":"Vichten","nl":"Vichten","hr":"Vichten","fa":"ویچتن","de":"Vichten","es":"Vichten","fr":"Vichten","ja":"ヴィヒテン","it":"Vichten","zh-CN":"维希滕","tr":"Vichten","ru":"Вихтен","uk":"Віхтен","pl":"Vichten","hi":"विचटेन","ar":"فيشتن","hy":"Վիղտեն"}},{"name":"Wahl","latitude":"49.83667000","longitude":"5.90639000","native":"Wahl","translations":{"br":"Wahl","ko":"월","pt-BR":"Wahl","pt":"Wahl","nl":"Wahl","hr":"Wahl","fa":"وال","de":"Wahl","es":"Wahl","fr":"Wahl","ja":"ワール","it":"Wahl","zh-CN":"瓦尔","tr":"Wahl","ru":"Валь","uk":"Вал","pl":"Wahl","hi":"वाहल","ar":"وال","hy":"Վալ"}}]},{"name":"Canton of Remich","state_code":"RM","latitude":"49.54501700","longitude":"6.36742220","cities":[{"name":"Bous","latitude":"49.55389000","longitude":"6.32917000","native":"Secouer","translations":{"br":"Bous","ko":"부스","pt-BR":"Bous","pt":"Bous","nl":"Bous","hr":"Bous","fa":"بوس","de":"Bous","es":"Bous","fr":"Bous","ja":"ブース","it":"Bous","zh-CN":"布斯","tr":"Bous","ru":"Бус","uk":"Бус","pl":"Bous","hi":"बौस","ar":"بوس","hy":"Բուս"}},{"name":"Dalheim","latitude":"49.54083000","longitude":"6.25972000","native":"Dalheim","translations":{"br":"Dalheim","ko":"달하임","pt-BR":"Dalheim","pt":"Dalheim","nl":"Dalheim","hr":"Dalheim","fa":"دالهایم","de":"Dalheim","es":"Dalheim","fr":"Dalheim","ja":"ダルハイム","it":"Dalheim","zh-CN":"达尔海姆","tr":"Dalheim","ru":"Дальхейм","uk":"Дальхайм","pl":"Dalheim","hi":"डाल्हेम","ar":"دالهايم","hy":"Դալհայմ"}},{"name":"Lenningen","latitude":"49.59861000","longitude":"6.36806000","native":"Lennings","translations":{"br":"Lenningen","ko":"레닝겐","pt-BR":"Lenningen","pt":"Lenningen","nl":"Lenningen","hr":"Lenningen","fa":"لنینگن","de":"Lenningen","es":"Lenningen","fr":"Lenningen","ja":"レニンゲン","it":"Lenningen","zh-CN":"伦宁根","tr":"Lenningen","ru":"Леннинген","uk":"Леннінген","pl":"Lenningen","hi":"लेनिन्गेन","ar":"لينينجن","hy":"Լենինգեն"}},{"name":"Mondorf-les-Bains","latitude":"49.50500000","longitude":"6.28111000","native":"Mondorf-les-Bains","translations":{"br":"Mondorf-al-Bains","ko":"몬도르프레뱅","pt-BR":"Mondorf-les-Bains","pt":"Mondorf-les-Bains","nl":"Mondorf-les-Bains","hr":"Mondorf-les-Bains","fa":"موندورف-له-بن","de":"Bad Mondorf","es":"Mondorf-les-Bains","fr":"Mondorf-les-Bains","ja":"モンドルフ・レ・バン","it":"Mondorf-les-Bains","zh-CN":"蒙多夫莱班","tr":"Mondorf-les-Bains","ru":"Мондорф-ле-Бен","uk":"Мондорф-ле-Бен","pl":"Mondorf-les-Bains","hi":"मोंडॉर्फ-लेस-बेन्स","ar":"موندورف ليه باينز","hy":"Մոնդորֆ-լե-Բեն"}},{"name":"Remich","latitude":"49.54500000","longitude":"6.36694000","native":"Remtors","translations":{"br":"Remich","ko":"레미히","pt-BR":"Remich","pt":"Remich","nl":"Remich","hr":"Remich","fa":"رمیش","de":"Remich","es":"Remich","fr":"Remich","ja":"レミッチ","it":"Remich","zh-CN":"雷米希","tr":"Remich","ru":"Ремих","uk":"Реміх","pl":"Remich","hi":"रेमिच","ar":"ريميش","hy":"Ռեմիղ"}},{"name":"Schengen","latitude":"49.47000000","longitude":"6.36200000","native":"Schengen","translations":{"br":"Schengen","ko":"솅겐","pt-BR":"Schengen","pt":"Schengen","nl":"Schengen","hr":"Schengen","fa":"شینگن","de":"Schengen","es":"Schengen","fr":"Schengen","ja":"シェンゲン協定","it":"Schengen","zh-CN":"申根","tr":"Schengen","ru":"Шенген","uk":"Шенген","pl":"Schengen","hi":"शेंगेन","ar":"شنغن","hy":"Շենգեն"}},{"name":"Stadtbredimus","latitude":"49.56278000","longitude":"6.36444000","native":"Citydbredimus","translations":{"br":"Stadtbredimus","ko":"슈타트브레디무스","pt-BR":"Stadtbredimus","pt":"Stadtbredimus","nl":"Stadtbredimus","hr":"Stadtbredimus","fa":"استادبردیموس","de":"Stadtbredimus","es":"Stadtbredimus","fr":"Stadtbredimus","ja":"シュタットブレディムス","it":"Stadtbredimus","zh-CN":"施塔特布雷迪穆斯","tr":"Şehir çiftliği","ru":"Stadtbredimus","uk":"Штадтбредимус","pl":"Stadtbredimus","hi":"स्टैडब्रेडिमस","ar":"ستادتبريديموس","hy":"Շտադտբրեդիմուս"}},{"name":"Waldbredimus","latitude":"49.55676000","longitude":"6.28789000","native":"Waldbredimus","translations":{"br":"Waldbredimus","ko":"발드브레디무스","pt-BR":"Waldbredimus","pt":"Waldbredimus","nl":"Waldbredimus","hr":"Waldbredimus","fa":"والدبردیموس","de":"Waldbredimus","es":"Waldbredimus","fr":"Waldbredimus","ja":"ヴァルドブレディムス","it":"Waldbredimus","zh-CN":"瓦尔德布雷迪默斯","tr":"Waldbredimus","ru":"Вальдбредимус","uk":"Вальдбредимус","pl":"Waldbredimus","hi":"वाल्डब्रेडिमस","ar":"والدبريديموس","hy":"Վալդբրեդիմուս"}}]},{"name":"Canton of Vianden","state_code":"VD","latitude":"49.93419240","longitude":"6.20199170","cities":[{"name":"Putscheid","latitude":"49.96083000","longitude":"6.14306000","native":"Putcreen","translations":{"br":"Putscheid","ko":"푸차이트","pt-BR":"Golpe de Estado","pt":"Golpe de Estado","nl":"Putscheid","hr":"Putscheid","fa":"کودتا","de":"Putscheid","es":"Golpe de estado","fr":"Putscheid","ja":"プッシャイト","it":"Putscheid","zh-CN":"普特沙伊德","tr":"Darbeci","ru":"Путшейд","uk":"Путшайд","pl":"Putscheid","hi":"पुटशेड","ar":"بوتشيد","hy":"Պուտշայդ"}},{"name":"Tandel","latitude":"49.89750000","longitude":"6.18333000","native":"Tandel","translations":{"br":"Tandel","ko":"탄델","pt-BR":"Tandel","pt":"Tandel","nl":"Tandel","hr":"Tandel","fa":"تاندل","de":"Tandel","es":"Tandel","fr":"Tandel","ja":"タンデル","it":"Tandel","zh-CN":"坦德尔","tr":"Tandel","ru":"Тандель","uk":"Тандель","pl":"Tandel","hi":"तंडेल","ar":"تاندل","hy":"Տանդել"}},{"name":"Vianden","latitude":"49.93500000","longitude":"6.20889000","native":"Vues","translations":{"br":"Vianden","ko":"비안덴","pt-BR":"Vianden","pt":"Vianden","nl":"Vianden","hr":"Vianden","fa":"ویاندن","de":"Vianden","es":"Vianden","fr":"Viandes","ja":"ヴィアンデン","it":"Vianden","zh-CN":"维安登","tr":"Vianden","ru":"Вианден","uk":"Віанден","pl":"Vianden","hi":"वियानडेन","ar":"فياندن","hy":"Վիանդեն"}}]},{"name":"Canton of Wiltz","state_code":"WI","latitude":"49.96622000","longitude":"5.93243060","cities":[{"name":"Bavigne","latitude":"49.92194000","longitude":"5.84944000","native":"Bavigne","translations":{"br":"Bavigne","ko":"바빈","pt-BR":"Bavigne","pt":"Bavigne","nl":"Bavigne","hr":"Bavigne","fa":"باوین","de":"Bavigne","es":"Bavigne","fr":"Bavigne","ja":"バヴィーニュ","it":"Bavigna","zh-CN":"巴维涅","tr":"Bavigne","ru":"Бавинь","uk":"Бавінь","pl":"Bavigne","hi":"बाविग्ने","ar":"بافين","hy":"Բավինյ"}},{"name":"Boulaide","latitude":"49.88778000","longitude":"5.81639000","native":"Boulaside","translations":{"br":"Boulaide","ko":"불레이드","pt-BR":"Boulaide","pt":"Boulaide","nl":"Boulaide","hr":"Boulaide","fa":"بولاید","de":"Boulaide","es":"Boulaide","fr":"Boulaide","ja":"ブーレイド","it":"Boulaide","zh-CN":"布莱德","tr":"Boulaide","ru":"Булед","uk":"Булейд","pl":"Bulwar","hi":"बौलाइड","ar":"بولايد","hy":"Բուլեդ"}},{"name":"Esch-sur-Sûre","latitude":"49.91139000","longitude":"5.93639000","native":"Ame-sur-séque","translations":{"br":"Esch-sur-Sûre","ko":"에슈쉬르쉬르","pt-BR":"Esch-sur-Sûre","pt":"Esch-sur-Sûre","nl":"Esch-sur-Sûre","hr":"Esch-sur-Sûre","fa":"اش-سور-سور","de":"Esch-sur-Sûre","es":"Esch-sur-Sûre","fr":"Esch-sur-Sûre","ja":"エシュ・シュル・シュール","it":"Esch-sur-Sûre","zh-CN":"叙尔河畔埃施","tr":"Esch-sur-Sûre","ru":"Эш-сюр-Сюр","uk":"Еш-сюр-Сюр","pl":"Esch-sur-Sûre","hi":"Esch-sur-Sure","ar":"إيش-سور-سور","hy":"Էշ-սուր-Սյուր"}},{"name":"Goesdorf","latitude":"49.92131000","longitude":"5.96601000","native":"Knsdorf","translations":{"br":"Goesdorf","ko":"괴스도르프","pt-BR":"Goesdorf","pt":"Goesdorf","nl":"Goesdorf","hr":"Goesdorf","fa":"گوسدورف","de":"Goesdorf","es":"Goesdorf","fr":"Gösdorf","ja":"ゲスドルフ","it":"Goesdorf","zh-CN":"戈斯多夫","tr":"Goesdorf","ru":"Гёсдорф","uk":"Гесдорф","pl":"Goesdorf","hi":"गोएसडॉर्फ","ar":"جوسدورف","hy":"Գոսդորֆ"}},{"name":"Kiischpelt","latitude":"49.97835000","longitude":"6.00760000","native":"Ciirplimb","translations":{"br":"Kiischpelt","ko":"키이슈펠트","pt-BR":"Kiischpelt","pt":"Kiischpelt","nl":"Kiischpelt","hr":"Kiischpelt","fa":"کیشپلت","de":"Kiischpelz","es":"Kiischpelt","fr":"Kiischpelt","ja":"キイシュペルト","it":"Kiischpelt","zh-CN":"基施佩尔特","tr":"Kiischpelt","ru":"Кишпельт","uk":"Кішпельт","pl":"Kiischpelt","hi":"किइशपेल्ट","ar":"كيشبيلت","hy":"Կիշպելտ"}},{"name":"Lac de la Haute-Sûre","latitude":"49.91667000","longitude":"5.83333000","native":"Lac de la Haute-Sûre","translations":{"br":"Lenn an Uhel-Sur","ko":"라크 드 라 오트 쉬르","pt-BR":"Lago da Alta Súre","pt":"Lago da Alta Súre","nl":"Meer van de Boven-Sûre","hr":"Lac de la Haute-Sûre","fa":"دریاچه‌ی اوت-سور","de":"Lac de la Haute-Sûre","es":"Lago de la Haute-Sûre","fr":"Lac de la Haute-Sûre","ja":"オート・シュール湖","it":"Lac de la Haute-Sûre","zh-CN":"上叙尔湖","tr":"Lac de la Haute-Sûre","ru":"Lac de la Haute-Sûre","uk":"Озеро Верхній Сюр","pl":"Jezioro Haute-Sûre","hi":"लेक डे ला हाउते-सूरे","ar":"بحيرة لا هوت سور","hy":"Լակ դե լա Օտ-Սյուր"}},{"name":"Wiltz","latitude":"49.96547000","longitude":"5.93390000","native":"Wiltsz","translations":{"br":"Wiltz","ko":"윌츠","pt-BR":"Wiltz","pt":"Wiltz","nl":"Wiltz","hr":"Wiltz","fa":"ویلتز","de":"Wiltz","es":"Wiltz","fr":"Wiltz","ja":"ウィルツ","it":"Wiltz","zh-CN":"威尔茨","tr":"Wiltz","ru":"Вильц","uk":"Вільц","pl":"Wiltz","hi":"विल्ट्ज़","ar":"ويلتز","hy":"Վիլց"}},{"name":"Wilwerwiltz","latitude":"49.98889000","longitude":"5.99917000","native":"Wildwillyz","translations":{"br":"Wilwerwiltz","ko":"윌버윌츠","pt-BR":"Wilwerwiltz","pt":"Wilwerwiltz","nl":"Wilwerwiltz","hr":"Wilwerwiltz","fa":"ویلورویلتز","de":"Wilwerwiltz","es":"Wilwerwiltz","fr":"Wilwerwiltz","ja":"ウィルワーウィルツ","it":"Wilwerwiltz","zh-CN":"威尔沃维尔茨","tr":"Wilwerwiltz","ru":"Вильвервильц","uk":"Вільвервільц","pl":"Wilwerwiltz","hi":"विल्वरविल्ट्ज़","ar":"ويلويرويلتز","hy":"Վիլվերվիլց"}},{"name":"Winseler","latitude":"49.96778000","longitude":"5.89028000","native":"Winksel's","translations":{"br":"Winseler","ko":"윈젤러","pt-BR":"Winseler","pt":"Winseler","nl":"Winseler","hr":"Winseler","fa":"وینسلر","de":"Winseler","es":"Winseler","fr":"Winseler","ja":"ウィンセラー","it":"Winseler","zh-CN":"温塞勒","tr":"Winseler","ru":"Винзелер","uk":"Вінселер","pl":"Winseler","hi":"विंसलर","ar":"وينسلر","hy":"Վինսելեր"}}]},{"name":"Diekirch District","state_code":"D","latitude":"49.86717200","longitude":"6.15963620","cities":[]},{"name":"Grevenmacher District","state_code":"G","latitude":"49.68085100","longitude":"6.44075240","cities":[]},{"name":"Luxembourg District","state_code":"L","latitude":"49.59537060","longitude":"6.13331780","cities":[]}]}