{"code":"MD","states":[{"name":"Anenii Noi District","state_code":"AN","latitude":"46.87956630","longitude":"29.23121750","cities":[{"name":"Anenii Noi","latitude":"46.87839000","longitude":"29.23483000","native":"Anenii Noi","translations":{"ar":"أنيني نوي","br":"Anenii Noi","de":"Anenii Noi","es":"Anenii Noi","fa":"آننی نوی","fr":"Anenii Noi","hi":"अनेनी नोई","hr":"Novi Anenii","it":"Anenii Noi","ja":"アネニイ・ノイ","ko":"아네니 노이","nl":"Anenii Noi","pl":"Anenii Noi","pt":"Anenii Noi","pt-BR":"Anenii Noi","ru":"Анений Ной","tr":"Anenii Noi","uk":"Аненій Ной","zh-CN":"阿内尼·诺伊","hy":"Անենի Նոի"}},{"name":"Varniţa","latitude":"46.86606000","longitude":"29.46636000","native":"Varniţa","translations":{"ar":"فارنيتا","br":"Varniţa","de":"Varniţa","es":"Varniţa","fa":"وارنیتا","fr":"Varniţa","hi":"वर्निता","hr":"Varniţa","it":"Varniţa","ja":"ヴァルニツァ","ko":"바르니차","nl":"Varniţa","pl":"Varniţa","pt":"Varniţa","pt-BR":"Varniţa","ru":"Варница","tr":"Varniţa","uk":"Варниця","zh-CN":"瓦尔尼察","hy":"Վարնիցա"}}]},{"name":"Bălți Municipality","state_code":"BA","latitude":"47.75399470","longitude":"27.91841480","cities":[{"name":"Bălţi","latitude":"47.76314000","longitude":"27.92932000","native":"Bălţi","translations":{"ar":"بالتي","br":"Bălţi","de":"Bălţi","es":"Balti","fa":"بالتی","fr":"Bălţi","hi":"बाल्टी","hr":"Balti","it":"Bălţi","ja":"バルツィ","ko":"벌티","nl":"Bălţi","pl":"Bielce","pt":"Bălţi","pt-BR":"Bălţi","ru":"Бельцы","tr":"Bălţi","uk":"Бєльці","zh-CN":"巴勒蒂","hy":"Բալտի"}}]},{"name":"Basarabeasca District","state_code":"BS","latitude":"46.42370600","longitude":"28.89354920","cities":[{"name":"Basarabeasca","latitude":"46.33170000","longitude":"28.96365000","native":"Basarabeasca","translations":{"ar":"باسارابسكا","br":"Basarabeasca","de":"Basarabeasca","es":"Basarabeasca","fa":"باسارابیاسکا","fr":"Basarabeasca","hi":"बसाराबेस्का","hr":"Basarabeasca","it":"Basarabeasca","ja":"バサラベアスカ","ko":"바사라베아스카","nl":"Basarabeasca","pl":"Basarabeasca","pt":"Basarabeasca","pt-BR":"Basarabeasca","ru":"Басарабяска","tr":"Basarabeasca","uk":"Басарабяска","zh-CN":"巴萨拉贝亚斯卡","hy":"Բասարաբեսկա"}}]},{"name":"Bender Municipality","state_code":"BD","latitude":"46.82275510","longitude":"29.46201010","cities":[{"name":"Bender","latitude":"46.83156000","longitude":"29.47769000","native":"Bender","translations":{"ar":"بندر","br":"Bender","de":"Bender","es":"Juerga","fa":"بندر","fr":"Cintreuse","hi":"कोलाहलपूर्ण","hr":"Bender","it":"Bender","ja":"ベンダー","ko":"다리","nl":"Bender","pl":"Giętarka","pt":"Dobrador","pt-BR":"Dobrador","ru":"Бендер","tr":"Bender","uk":"Бендер","zh-CN":"本德","hy":"Բենդեր"}}]},{"name":"Briceni District","state_code":"BR","latitude":"48.36320220","longitude":"27.07503980","cities":[{"name":"Briceni","latitude":"48.36289000","longitude":"27.07787000","native":"Briceni","translations":{"ar":"بريسيني","br":"Briceni","de":"Briceni","es":"Briceni","fa":"بریسنی","fr":"Briceni","hi":"ब्रिसेनी","hr":"Briceni","it":"Briceni","ja":"ブリチェニ","ko":"브리체니","nl":"Briceni","pl":"Briceni","pt":"Briceni","pt-BR":"Briceni","ru":"Бричаны","tr":"Briceni","uk":"Бричені","zh-CN":"布里切尼","hy":"Բրիցենի"}}]},{"name":"Cahul District","state_code":"CA","latitude":"45.89394040","longitude":"28.18902750","cities":[{"name":"Cahul","latitude":"45.90425000","longitude":"28.19929000","native":"Cahul","translations":{"ar":"كاهول","br":"Cahul","de":"Cahul","es":"Cahul","fa":"کاهول","fr":"Cahul","hi":"काहुल","hr":"Cahul","it":"Cahul","ja":"カフル","ko":"카훌","nl":"Cahul","pl":"Cahul","pt":"Cahul","pt-BR":"Cahul","ru":"Кагул","tr":"Cahul","uk":"Кагул","zh-CN":"卡胡尔","hy":"Կահուլ"}},{"name":"Giurgiuleşti","latitude":"45.48167000","longitude":"28.19722000","native":"Giurgiuleşti","translations":{"ar":"جيورجيوليشتي","br":"Giurgiuleşti","de":"Giurgiuleşti","es":"Giurgiuleşti","fa":"گیورگیولشتی","fr":"Giurgiuleşti","hi":"गियुर्जिउलेस्टी","hr":"Giurgiuleşti","it":"Giurgiuleşti","ja":"ジュルジュレシュティ","ko":"지우르지울레슈티","nl":"Giurgiuleşti","pl":"Giurgiuleşti","pt":"Giurgiuleşti","pt-BR":"Giurgiuleşti","ru":"Джурджулешть","tr":"Giurgiuleşti","uk":"Джурджулешти","zh-CN":"久尔朱莱什蒂","hy":"Գիուրգիուլեշտի"}}]},{"name":"Călărași District","state_code":"CL","latitude":"47.28694600","longitude":"28.27453100","cities":[{"name":"Călăraşi","latitude":"47.25560000","longitude":"28.30987000","native":"Călăraşi","translations":{"ar":"كالاراسي","br":"Călăraşi","de":"Călăraşi","es":"Călărasi","fa":"کالاراشی","fr":"Călăraşi","hi":"कैलारासी","hr":"Călăraşi","it":"Călăraşi","ja":"カララシ","ko":"칼라라시","nl":"Călăraşi","pl":"Călăraşi","pt":"Călăraşi","pt-BR":"Călăraşi","ru":"Кэлэраши","tr":"Călăraşi","uk":"Келераші","zh-CN":"克勒拉什","hy":"Կալարաշի"}}]},{"name":"Cantemir District","state_code":"CT","latitude":"46.27717420","longitude":"28.20096530","cities":[{"name":"Cantemir","latitude":"46.27743000","longitude":"28.20270000","native":"Cantemir","translations":{"ar":"كانتيمير","br":"Cantemir","de":"Cantemir","es":"Cantemir","fa":"کانتمیر","fr":"Cantemir","hi":"कैंटेमिर","hr":"Kantemir","it":"Cantemir","ja":"カンテミール","ko":"칸테미르","nl":"Cantemir","pl":"Cantemir","pt":"Cantemir","pt-BR":"Cantemir","ru":"Кантемир","tr":"Kantemir","uk":"Кантемір","zh-CN":"坎泰米尔","hy":"Կանտեմիր"}},{"name":"Iargara","latitude":"46.42520000","longitude":"28.42676000","native":"Iargara","translations":{"ar":"يارجارا","br":"Iargara","de":"Iargara","es":"Iargara","fa":"ایارگارا","fr":"Iargara","hi":"इआर्गारा","hr":"Iargara","it":"Iargara","ja":"イアルガラ","ko":"이아르가라","nl":"Iargara","pl":"Iargara","pt":"Iargara","pt-BR":"Iargara","ru":"Иаргара","tr":"Iargara","uk":"Яргара","zh-CN":"亚加拉","hy":"Յարգարա"}},{"name":"Vişniovca","latitude":"46.33260000","longitude":"28.44797000","native":"Vişniovca","translations":{"ar":"فيشنيوفكا","br":"Vişniovca","de":"Vişniovca","es":"Vişniovca","fa":"ویشنیوفکا","fr":"Vişniovca","hi":"विस्निओव्का","hr":"Višnjiovca","it":"Vişniovca","ja":"ヴィシュニョフカ","ko":"비스니오브차","nl":"Vişniovca","pl":"Wiśniowca","pt":"Vişniovca","pt-BR":"Vişniovca","ru":"Вишневка","tr":"Vişniovca","uk":"Вишньовца","zh-CN":"维什尼奥夫卡","hy":"Վիշնիովկա"}}]},{"name":"Căușeni District","state_code":"CS","latitude":"46.65547150","longitude":"29.40912220","cities":[{"name":"Căuşeni","latitude":"46.63674000","longitude":"29.41114000","native":"Căuşeni","translations":{"ar":"كوسيني","br":"Căuşeni","de":"Căuşeni","es":"Căuşeni","fa":"کوشنی","fr":"Căuşeni","hi":"काउसेनी","hr":"Căuşeni","it":"Căuşeni","ja":"クシェニ","ko":"쿠세니","nl":"Căuşeni","pl":"Căuşeni","pt":"Căuşeni","pt-BR":"Căuşeni","ru":"Кэушень","tr":"Căuşeni","uk":"Каушені","zh-CN":"克乌谢尼","hy":"Կաուշենի"}},{"name":"Chiţcani","latitude":"46.78296000","longitude":"29.61682000","native":"Chiţcani","translations":{"ar":"تشيتشاني","br":"Chiţcani","de":"Chiţcani","es":"Chiţcani","fa":"چیچانی","fr":"Chiţcani","hi":"चिट्कानी","hr":"Kićani","it":"Chiţcani","ja":"チツァニ語","ko":"치차니","nl":"Chiţcani","pl":"Chiţcani","pt":"Chiţcani","pt-BR":"Chiţcani","ru":"Кицканы","tr":"Çitkani","uk":"Кітцани","zh-CN":"奇特卡尼","hy":"Չիծկանի"}}]},{"name":"Chișinău Municipality","state_code":"CU","latitude":"47.01045290","longitude":"28.86381020","cities":[{"name":"Chisinau","latitude":"47.00556000","longitude":"28.85750000","native":"Chisinau","translations":{"ar":"كيشيناو","br":"Kisinau","de":"Chisinau","es":"Chisináu","fa":"کیشیناو","fr":"Chişinău","hi":"Chisinau","hr":"Kišinjev","it":"Chisinau","ja":"キシナウ","ko":"키시나우","nl":"Chisinau","pl":"Kiszyniów","pt":"Chisinau","pt-BR":"Chisinau","ru":"Кишинев","tr":"Kişinev","uk":"Кишинів","zh-CN":"基希讷乌","hy":"Չիշինաու"}},{"name":"Ciorescu","latitude":"47.13000000","longitude":"28.88937000","native":"Ciorescu","translations":{"ar":"سيوريسكو","br":"Ciorescu","de":"Ciorescu","es":"Ciorescu","fa":"سیورسکو","fr":"Ciorescu","hi":"सिओरेस्कु","hr":"Ciorescu","it":"Ciorescu","ja":"チオレスク","ko":"치오레스쿠","nl":"Ciorescu","pl":"Ciorescu","pt":"Ciorescu","pt-BR":"Ciorescu","ru":"Чореску","tr":"Ciorescu","uk":"Чореску","zh-CN":"乔雷斯库","hy":"Չիորեսկու"}},{"name":"Cricova","latitude":"47.13835000","longitude":"28.86156000","native":"Cricova","translations":{"ar":"كريكوفا","br":"Cricova","de":"Cricova","es":"Cricova","fa":"کریکووا","fr":"Cricova","hi":"क्रिकोवा","hr":"Cricova","it":"Cricova","ja":"クリコバ","ko":"크리코바","nl":"Cricova","pl":"Cricova","pt":"Cricova","pt-BR":"Cricova","ru":"Крикова","tr":"Cricova","uk":"Крікова","zh-CN":"克里科瓦","hy":"Կրիկովա"}},{"name":"Sîngera","latitude":"46.91557000","longitude":"28.96673000","native":"Singera","translations":{"ar":"سينجيرا","br":"Singera","de":"Sängerin","es":"Cantante","fa":"سینگر","fr":"Chanteuse","hi":"सिंगरा","hr":"Sîngera","it":"Sîngera","ja":"シンゲラ","ko":"싱게라","nl":"Singera","pl":"Sîngera","pt":"Cantora","pt-BR":"Cantora","ru":"Сынжера","tr":"Singera","uk":"Сінгера","zh-CN":"辛格拉","hy":"Սինգերա"}},{"name":"Stăuceni","latitude":"47.09643000","longitude":"28.86791000","native":"Stăuceni","translations":{"ar":"ستاتوسيني","br":"Stăuceni","de":"Stăuceni","es":"Stăuceni","fa":"استاوسنی","fr":"Stăuceni","hi":"Stauceni","hr":"Stăuceni","it":"Stăuceni","ja":"スタウセニ","ko":"스타우체니","nl":"Stăuceni","pl":"Stăuceni","pt":"Stăuceni","pt-BR":"Stăuceni","ru":"Ставчены","tr":"Stăuceni","uk":"Стеучень","zh-CN":"施塔乌切尼","hy":"Ստաուցենի"}},{"name":"Vadul lui Vodă","latitude":"47.09009000","longitude":"29.07570000","native":"Vadul lui Vodă","translations":{"ar":"Vadul lui Vodă","br":"Vadul lui Vodă","de":"Vadul lui Vodă","es":"Vadul lui Vodă","fa":"وادول لویی ودا","fr":"Vadul lui Vodă","hi":"Vadul lui Vodă","hr":"Vadul lui Vodă","it":"Vadul lui Vodă","ja":"Vadul lui Vodă","ko":"Vadul lui Vodă","nl":"Vadul lui Vodă","pl":"Vadul lui Vodă","pt":"Vadul lui Vodă","pt-BR":"Vadul lui Vodă","ru":"Vadul lui Vodă","tr":"Vadul lui Vodă","uk":"Вадул-луй-Воде","zh-CN":"Vadul lui Vodă","hy":"Վադուլ լույ Վոդա"}},{"name":"Vatra","latitude":"47.07460000","longitude":"28.73685000","native":"Foc","translations":{"ar":"فاترا","br":"Vatra","de":"Vatra","es":"Vatra","fa":"واترا","fr":"Vatra","hi":"वत्रा","hr":"Vatra","it":"Vatra","ja":"ヴァトラ","ko":"바트라","nl":"Vatra","pl":"Watra","pt":"Vatra","pt-BR":"Vatra","ru":"Ватра","tr":"Vatra","uk":"Ватра","zh-CN":"瓦特拉","hy":"Վատրա"}}]},{"name":"Cimișlia District","state_code":"CM","latitude":"46.52508510","longitude":"28.77218350","cities":[{"name":"Cimişlia","latitude":"46.52685000","longitude":"28.76441000","native":"Cimişlia","translations":{"ar":"تشيميسليا","br":"Cimişlia","de":"Cimişlia","es":"Cimişlia","fa":"چیمیشلیا","fr":"Cimişlia","hi":"सिमिस्लिया","hr":"Cimislia","it":"Cimişlia","ja":"シミシュリア","ko":"치미슐리아","nl":"Cimişlia","pl":"Cimişlia","pt":"Cimişlia","pt-BR":"Cimişlia","ru":"Чимишлия","tr":"Cimişlia","uk":"Чимішлія","zh-CN":"西米什利亚","hy":"Չիմիշլիա"}}]},{"name":"Criuleni District","state_code":"CR","latitude":"47.21361140","longitude":"29.15575190","cities":[{"name":"Criuleni","latitude":"47.21307000","longitude":"29.15926000","native":"Criuleni","translations":{"ar":"كريوليني","br":"Criuleni","de":"Criuleni","es":"Criuleni","fa":"کریولنی","fr":"Criulènes","hi":"क्रियुलेनी","hr":"Criuleni","it":"Criuleni","ja":"クリウレニ","ko":"크리울레니","nl":"Criuleni","pl":"Criuleni","pt":"Criuleni","pt-BR":"Criuleni","ru":"Криулень","tr":"Criuleni","uk":"Кріулені","zh-CN":"克里乌莱尼","hy":"Կրիուլենի"}}]},{"name":"Dondușeni District","state_code":"DO","latitude":"48.23383050","longitude":"27.59980870","cities":[{"name":"Briceni","latitude":"48.35628000","longitude":"27.70293000","native":"Briceni","translations":{"ar":"بريسيني","br":"Briceni","de":"Briceni","es":"Briceni","fa":"بریسنی","fr":"Briceni","hi":"ब्रिसेनी","hr":"Briceni","it":"Briceni","ja":"ブリチェニ","ko":"브리체니","nl":"Briceni","pl":"Briceni","pt":"Briceni","pt-BR":"Briceni","ru":"Бричаны","tr":"Briceni","uk":"Бричені","zh-CN":"布里切尼","hy":"Բրիցենի"}},{"name":"Donduşeni","latitude":"48.24268000","longitude":"27.61010000","native":"Îngheţat","translations":{"ar":"دوندوشيني","br":"Donduşeni","de":"Donduşeni","es":"Donduşeni","fa":"دوندوشنی","fr":"Donduşeni","hi":"डोंडुसेनी","hr":"Dondušeni","it":"Donduşeni","ja":"ドンドゥシェニ","ko":"돈두셰니","nl":"Donduşeni","pl":"Donduşeni","pt":"Donduşeni","pt-BR":"Donduşeni","ru":"Дондюшаны","tr":"Donduşeni","uk":"Дондушень","zh-CN":"东杜谢尼","hy":"Դոնդուշենի"}}]},{"name":"Drochia District","state_code":"DR","latitude":"48.07977880","longitude":"27.86041140","cities":[{"name":"Drochia","latitude":"48.03555000","longitude":"27.81293000","native":"Drochia","translations":{"ar":"دروتشيا","br":"Drokia","de":"Drochia","es":"Drochia","fa":"دروشیا","fr":"Drochia","hi":"ड्रोचिया","hr":"Drochia","it":"Drochia","ja":"ドロキア","ko":"드로키아","nl":"Drochia","pl":"Drochia","pt":"Drochia","pt-BR":"Drochia","ru":"Дрокия","tr":"Drochia","uk":"Дрокія","zh-CN":"德罗基亚","hy":"Դրոխիա"}}]},{"name":"Dubăsari District","state_code":"DU","latitude":"47.26439420","longitude":"29.15503480","cities":[{"name":"Cocieri","latitude":"47.30170000","longitude":"29.11755000","native":"Cocieri","translations":{"ar":"كوتشييري","br":"Cocieri","de":"Cocieri","es":"Cocieri","fa":"کوکیری","fr":"Cocieri","hi":"कोसिएरी","hr":"Cocieri","it":"Cocieri","ja":"コシエリ","ko":"코시에리","nl":"Cocieri","pl":"Cocieri","pt":"Cocieri","pt-BR":"Cocieri","ru":"Кочиери","tr":"Cocieri","uk":"Косьєрі","zh-CN":"科切里","hy":"Կոցիերի"}},{"name":"Ustia","latitude":"47.25524000","longitude":"29.12406000","native":"Pretins","translations":{"ar":"أوستيا","br":"Ustia","de":"Ustia","es":"Ustia","fa":"اوستیا","fr":"Ustia","hi":"उस्तिया","hr":"Ustija","it":"Ustia","ja":"ウスティア","ko":"우스티아","nl":"Ustia","pl":"Ustia","pt":"Ústia","pt-BR":"Ústia","ru":"Устия","tr":"Ustia","uk":"Устя","zh-CN":"乌斯提亚","hy":"Ուստիա"}}]},{"name":"Edineț District","state_code":"ED","latitude":"48.16789910","longitude":"27.29361430","cities":[{"name":"Edineţ","latitude":"48.17215000","longitude":"27.30337000","native":"Edineţ","translations":{"ar":"إدينيتس","br":"Edineţ","de":"Edineţ","es":"Edinet","fa":"ادینته","fr":"Edineţ","hi":"एडिनेट","hr":"Edineţ","it":"Edineţ","ja":"エディネツ","ko":"에디네츠","nl":"Edineţ","pl":"Edineţ","pt":"Edineţ","pt-BR":"Edineţ","ru":"Единец","tr":"Edineţ","uk":"Єдинець","zh-CN":"埃迪内特","hy":"Էդինեց"}}]},{"name":"Fălești District","state_code":"FA","latitude":"47.56477250","longitude":"27.72655930","cities":[{"name":"Fălești","latitude":"47.57667000","longitude":"27.71264000","native":"Fălești","translations":{"ar":"فالستي","br":"Fălești","de":"Fălești","es":"Fălești","fa":"فالِشتی","fr":"Fălești","hi":"Făleşti","hr":"Fălești","it":"Fălești","ja":"ファレシュティ","ko":"팔레슈티","nl":"Fălești","pl":"Fălești","pt":"Fălești","pt-BR":"Fălești","ru":"Фэлешть","tr":"Fălești","uk":"Фалешти","zh-CN":"弗莱什蒂","hy":"Ֆալեշտի"}}]},{"name":"Florești District","state_code":"FL","latitude":"47.86678490","longitude":"28.33918640","cities":[{"name":"Floreşti","latitude":"47.89137000","longitude":"28.29312000","native":"Floreşti","translations":{"ar":"فلوريشتي","br":"Floreşti","de":"Floreşti","es":"Floreşti","fa":"فلورشتی","fr":"Floreşti","hi":"फ्लोरेस्टी","hr":"Floreşti","it":"Floreşti","ja":"フロレシュティ","ko":"플로레슈티","nl":"Floreşti","pl":"Floreşti","pt":"Floreşti","pt-BR":"Floreşti","ru":"Флорешть","tr":"Floreşti","uk":"Флорешть","zh-CN":"弗洛雷什蒂","hy":"Ֆլորեշտի"}},{"name":"Ghindești","latitude":"47.85482000","longitude":"28.37679000","native":"Ghindești","translations":{"ar":"غينديستي","br":"Ghindești","de":"Ghindești","es":"Ghindești","fa":"گیندِشتی","fr":"Ghindești","hi":"गिंडेसटी","hr":"Ghindești","it":"Ghindești","ja":"ギンデシュティ","ko":"긴데슈티","nl":"Ghindești","pl":"Ghindești","pt":"Ghindești","pt-BR":"Ghindești","ru":"Гиндешти","tr":"Ghindești","uk":"Гіндешті","zh-CN":"金德什蒂","hy":"Ղինդեշտի"}},{"name":"Mărculeşti","latitude":"47.86897000","longitude":"28.24109000","native":"Mărculeşti","translations":{"ar":"ماركوليشتي","br":"Markuleşti","de":"Mărculeşti","es":"Mărculeşti","fa":"مارکولشتی","fr":"Mărculeşti","hi":"मार्कुलेस्टी","hr":"Mărculeşti","it":"Mărculeşti","ja":"マルクレシュティ","ko":"마르쿨레슈티","nl":"Mărculeşti","pl":"Mărculeşti","pt":"Mărculeşti","pt-BR":"Mărculeşti","ru":"Мэркулешть","tr":"Mărculeşti","uk":"Меркулешти","zh-CN":"默尔库莱什蒂","hy":"Մարկուլեշտի"}}]},{"name":"Gagauzia","state_code":"GA","latitude":"46.09794350","longitude":"28.63846450","cities":[{"name":"Bugeac","latitude":"46.36554000","longitude":"28.66250000","native":"Bugeac","translations":{"ar":"بوغياك","br":"Bugeac","de":"Bugeac","es":"Bugeac","fa":"بوگیاک","fr":"Bugeac","hi":"बुगेक","hr":"Bugeac","it":"Bugeac","ja":"ビュジャック","ko":"부가크","nl":"Bugeac","pl":"Bugeac","pt":"Bugeac","pt-BR":"Bugeac","ru":"Буджак","tr":"Bugeac","uk":"Бюжак","zh-CN":"比雅克","hy":"Բուգեակ"}},{"name":"Ceadîr-Lunga","latitude":"46.06169000","longitude":"28.83078000","native":"Ceadîr-Lunga","translations":{"ar":"سيدير-لونغا","br":"Ceadîr-Lunga","de":"Ceadîr-Lunga","es":"Ceadîr-Lunga","fa":"سیدیر-لونگا","fr":"Ceadîr-Lunga","hi":"Ceadîr-Lunga","hr":"Ceadîr-Lunga","it":"Ceadîr-Lunga","ja":"セアディール・ルンガ","ko":"세아디르-룽가","nl":"Ceadîr-Lunga","pl":"Ceadîr-Lunga","pt":"Ceadîr-Lunga","pt-BR":"Ceadîr-Lunga","ru":"Чадыр-Лунга","tr":"Ceadîr-Lunga","uk":"Чадір-Лунга","zh-CN":"塞阿迪尔-伦加","hy":"Չեադիր-Լունգա"}},{"name":"Comrat","latitude":"46.29456000","longitude":"28.65650000","native":"Comrat","translations":{"ar":"كومرات","br":"Comrat","de":"Comrat","es":"Comrat","fa":"کامرات","fr":"Comrat","hi":"कॉमरेट","hr":"Komrat","it":"Comrat","ja":"コムラト","ko":"콤라트","nl":"Kameraad","pl":"Komrat","pt":"Camarada","pt-BR":"Camarada","ru":"Комрат","tr":"Komrat","uk":"Комрат","zh-CN":"科姆拉特","hy":"Կոմրատ"}},{"name":"Vulcăneşti","latitude":"45.68492000","longitude":"28.40613000","native":"Vulcăneşti","translations":{"ar":"فولكانيشتي","br":"Vulcăneşti","de":"Vulcăneşti","es":"Vulcanesti","fa":"ولکانِشتی","fr":"Vulcanesti","hi":"वल्केनेस्टी","hr":"Vulkanešti","it":"Vulcani","ja":"ヴルカネシュティ","ko":"불차네슈티","nl":"Vulcăneşti","pl":"Wulkan","pt":"Vulcăneşti","pt-BR":"Vulcăneşti","ru":"Вулканешты","tr":"Vulcaneşti","uk":"Вулканешти","zh-CN":"火山口","hy":"Վուլկանեշտի"}}]},{"name":"Glodeni District","state_code":"GL","latitude":"47.77901560","longitude":"27.51680100","cities":[{"name":"Glodeni","latitude":"47.77513000","longitude":"27.51891000","native":"Glodeni","translations":{"ar":"غلوديني","br":"Glodeni","de":"Glodeni","es":"Glodeni","fa":"گلدنی","fr":"Glodeni","hi":"ग्लोडेनी","hr":"Glodeni","it":"Glodeni","ja":"グロデニ","ko":"글로데니","nl":"Glodeni","pl":"Glodeni","pt":"Glodeni","pt-BR":"Glodeni","ru":"Глодяны","tr":"Glodeni","uk":"Глодені","zh-CN":"格洛德尼","hy":"Գլոդենի"}}]},{"name":"Hîncești District","state_code":"HI","latitude":"46.82811470","longitude":"28.58508890","cities":[{"name":"Dancu","latitude":"46.75818000","longitude":"28.20716000","native":"Dancu","translations":{"ar":"دانكو","br":"Dancu","de":"Dancu","es":"Baile","fa":"دانچو","fr":"Dancu","hi":"डैनकू","hr":"Dancu","it":"Dancu","ja":"ダンク","ko":"단쿠","nl":"Dancu","pl":"Dancu","pt":"Dança","pt-BR":"Dança","ru":"Данку","tr":"Dans","uk":"Данку","zh-CN":"丹库","hy":"Դանկու"}},{"name":"Hînceşti","latitude":"46.83047000","longitude":"28.59064000","native":"Hînceşti","translations":{"ar":"هينسيشتي","br":"Hînceşti","de":"Hînceşti","es":"Hînceşti","fa":"هینچهشتی","fr":"Hînceşti","hi":"हिन्सेस्ति","hr":"Hînceşti","it":"Hînceşti","ja":"ヒンチェシュティ","ko":"힌체슈티","nl":"Hînceşti","pl":"Hînceşti","pt":"Hînceşti","pt-BR":"Hînceşti","ru":"Хынчешты","tr":"Hînceşti","uk":"Хинчешть","zh-CN":"欣切什蒂","hy":"Հինծեշտի"}}]},{"name":"Ialoveni District","state_code":"IA","latitude":"46.86308600","longitude":"28.82342180","cities":[{"name":"Ialoveni","latitude":"46.94346000","longitude":"28.78233000","native":"Ialoveni","translations":{"ar":"يالوفيني","br":"Ialoveni","de":"Ialoveni","es":"Ialoveni","fa":"یالوونی","fr":"Ialoveni","hi":"इयालोवेनी","hr":"Jaloveni","it":"Ialoveni","ja":"ヤロベニ","ko":"이알로베니","nl":"Ialoveni","pl":"Jaloveni","pt":"Ialoveni","pt-BR":"Ialoveni","ru":"Яловены","tr":"Ialoveni","uk":"Яловень","zh-CN":"亚洛韦尼","hy":"Յալովենի"}}]},{"name":"Nisporeni District","state_code":"NI","latitude":"47.07513490","longitude":"28.17681550","cities":[{"name":"Nisporeni","latitude":"47.08159000","longitude":"28.17138000","native":"Nisporeni","translations":{"ar":"نيسبوريني","br":"Nisporeni","de":"Nisporeni","es":"Nisporeni","fa":"نیسپورنی","fr":"Nisporeni","hi":"निस्पोरेनी","hr":"Nisporeni","it":"Nisporeni","ja":"ニスポレニ","ko":"니스포레니","nl":"Nisporeni","pl":"Nisporeni","pt":"Nisporeni","pt-BR":"Nisporeni","ru":"Ниспорены","tr":"Nisporeni","uk":"Ніспорені","zh-CN":"尼斯波雷尼","hy":"Նիսպորենի"}}]},{"name":"Ocnița District","state_code":"OC","latitude":"48.41104350","longitude":"27.47680920","cities":[{"name":"Ocniţa","latitude":"48.38274000","longitude":"27.43805000","native":"Ocniţa","translations":{"ar":"أوكنيتا","br":"Ocniţa","de":"Ocniţa","es":"Ocniţa","fa":"اوکنیتا","fr":"Ocniţa","hi":"ओक्निटा","hr":"Ocniţa","it":"Ocniţa","ja":"オクニツァ","ko":"오크니타","nl":"Ocniţa","pl":"Ocniţa","pt":"Ocniţa","pt-BR":"Ocniţa","ru":"Окница","tr":"Ocniţa","uk":"Окниця","zh-CN":"奥克尼察","hy":"Օկնիցա"}},{"name":"Otaci","latitude":"48.43285000","longitude":"27.79912000","native":"Viclean","translations":{"ar":"أوتاسي","br":"Otaci","de":"Otaci","es":"Otaci","fa":"اوتاسی","fr":"Otaci","hi":"ओटासी","hr":"Otaci","it":"Otaci","ja":"オタチ","ko":"오타치","nl":"Otaci","pl":"Otaci","pt":"Otaci","pt-BR":"Otaci","ru":"Отачи","tr":"Otacı","uk":"Отачі","zh-CN":"奥塔西","hy":"Օտացի"}}]},{"name":"Orhei District","state_code":"OR","latitude":"47.38604000","longitude":"28.83030820","cities":[{"name":"Orhei","latitude":"47.38494000","longitude":"28.82446000","native":"Orhei","translations":{"ar":"أورهي","br":"Orhei","de":"Orhei","es":"Orhei","fa":"اورهی","fr":"Orhei","hi":"ऑर्हेइ","hr":"Orhei","it":"Orhei","ja":"オルヘイ","ko":"오르헤이","nl":"Orhei","pl":"Orhei","pt":"Orhei","pt-BR":"Orhei","ru":"Орхей","tr":"Orhei","uk":"Орхей","zh-CN":"奥尔海伊","hy":"Օրհեյ"}}]},{"name":"Rezina District","state_code":"RE","latitude":"47.71804470","longitude":"28.88710240","cities":[{"name":"Rezina","latitude":"47.74928000","longitude":"28.96583000","native":"Cauciuc","translations":{"ar":"ريزينا","br":"Rezina","de":"Rezina","es":"Rezina","fa":"رزینا","fr":"Rezina","hi":"रेजिना","hr":"Rezina","it":"Rezina","ja":"レジーナ","ko":"레지나","nl":"Rezina","pl":"Rezina","pt":"Rezina","pt-BR":"Rezina","ru":"Резина","tr":"Rezina","uk":"Резіна","zh-CN":"雷齐纳","hy":"Ռեզինա"}},{"name":"Saharna","latitude":"47.69107000","longitude":"28.97458000","native":"Saharna","translations":{"ar":"سحرنا","br":"Saharna","de":"Saharna","es":"Saharna","fa":"سحرنا","fr":"Saharna","hi":"सहारा","hr":"Saharna","it":"Saharna","ja":"サハルナ","ko":"사하르나","nl":"Sahara","pl":"Saharna","pt":"Saharna","pt-BR":"Saharna","ru":"Сахарна","tr":"Saharna","uk":"Сахарна","zh-CN":"萨哈尔纳","hy":"Սահարնա"}}]},{"name":"Rîșcani District","state_code":"RI","latitude":"47.90701530","longitude":"27.53749960","cities":[{"name":"Rîşcani","latitude":"47.94792000","longitude":"27.56376000","native":"Rîşcani","translations":{"ar":"ريشكاني","br":"Rîşcani","de":"Rîşcani","es":"Rîşcani","fa":"ریشانی","fr":"Rîşcani","hi":"रिस्कानी","hr":"Riškani","it":"Rîşcani","ja":"リシュカニ","ko":"리스차니","nl":"Rîşcani","pl":"Rîşcani","pt":"Rîşcani","pt-BR":"Rîşcani","ru":"Рышканы","tr":"Rîşcani","uk":"Ришкані","zh-CN":"里斯卡尼","hy":"Րիշկանի"}}]},{"name":"Sîngerei District","state_code":"SI","latitude":"47.63891340","longitude":"28.13718160","cities":[{"name":"Bilicenii Vechi","latitude":"47.65580000","longitude":"28.04734000","native":"Bilicenii Vechi","translations":{"ar":"بيليتشيني فيكي","br":"Bilicenii Vechi","de":"Bilicenii Vechi","es":"Bilicenii Vechi","fa":"بیلیچنی وچی","fr":"Bilicenii Vechi","hi":"बिलिसेनी वेची","hr":"Bilicenii Vechi","it":"Bilicenii Vechi","ja":"ビリセニイ・ヴェキ","ko":"빌리세니 베키","nl":"Bilicenii Vechi","pl":"Bilicenii Vechi","pt":"Bilicenii Vechi","pt-BR":"Bilicenii Vechi","ru":"Биличений Вечи","tr":"Bilicenii Vechi","uk":"Білічені Вечі","zh-CN":"比利切尼·维奇","hy":"Բիլիցենի Վեխի"}},{"name":"Biruinţa","latitude":"47.81353000","longitude":"28.07004000","native":"Biruinţa","translations":{"ar":"بيروينتا","br":"Biruinţa","de":"Biruinţa","es":"Biruinţa","fa":"بیروینتس","fr":"Biruinţa","hi":"बिरुइन्टा","hr":"Biruinţa","it":"Biruinţa","ja":"ビルインツァ","ko":"비루인타","nl":"Biruinţa","pl":"Biruinţa","pt":"Biruinţa","pt-BR":"Biruinţa","ru":"Бируинца","tr":"Biruinţa","uk":"Біруїнца","zh-CN":"比鲁因察","hy":"Բիրուինցա"}},{"name":"Sîngerei","latitude":"47.63632000","longitude":"28.14296000","native":"Sîngerei","translations":{"ar":"سينجيري","br":"Sîngerei","de":"Sîngerei","es":"Cantante","fa":"سینگری","fr":"Chanteuse","hi":"सींगेरेई","hr":"Sîngerei","it":"Sîngerei","ja":"シンゲレイ","ko":"싱게레이","nl":"Zangeres","pl":"Sîngerei","pt":"Cantora","pt-BR":"Cantora","ru":"Сынжерея","tr":"Singerei","uk":"Сингерей","zh-CN":"辛格雷","hy":"Սինգերեյ"}}]},{"name":"Șoldănești District","state_code":"SD","latitude":"47.81473890","longitude":"28.78895860","cities":[{"name":"Şoldăneşti","latitude":"47.81608000","longitude":"28.79718000","native":"Şoldăneşti","translations":{"ar":"Şoldăneşti","br":"Şoldăneşti","de":"Şoldăneşti","es":"Şoldăneşti","fa":"شولدنشتی","fr":"Şoldăneşti","hi":"Soldanesti","hr":"Šoldăneşti","it":"Şoldăneşti","ja":"オルダネシュティ","ko":"Şoldăneşti","nl":"Şoldăneşti","pl":"Şoldăneşti","pt":"Şoldăneşti","pt-BR":"Şoldăneşti","ru":"Шолданешти","tr":"Şoldăneşti","uk":"Шолденешті","zh-CN":"Şoldăneşti","hy":"Շոլդանեշտի"}}]},{"name":"Soroca District","state_code":"SO","latitude":"48.15497430","longitude":"28.28707830","cities":[{"name":"Soroca","latitude":"48.15659000","longitude":"28.28489000","native":"Soroca","translations":{"ar":"سوروكا","br":"Soroca","de":"Soroca","es":"Soroca","fa":"سوروکا","fr":"Soroca","hi":"सोरोका","hr":"Soroca","it":"Soroca","ja":"ソロカ","ko":"소로카","nl":"Soroca","pl":"Soroka","pt":"Soroca","pt-BR":"Soroca","ru":"Сорока","tr":"Soroca","uk":"Сорока","zh-CN":"索罗卡","hy":"Սորոկա"}}]},{"name":"Ștefan Vodă District","state_code":"SV","latitude":"46.55404880","longitude":"29.70224200","cities":[{"name":"Ştefan Vodă","latitude":"46.51287000","longitude":"29.66193000","native":"Ştefan Vodă","translations":{"ar":"Ştefan Vodă","br":"Ştefan Vodă","de":"Ştefan Vodă","es":"Stefan Vodă","fa":"اشتفان ودا","fr":"Ştefan Vodă","hi":"Ştefan Vodă","hr":"Ştefan Vodă","it":"Ştefan Vodă","ja":"シュテファン・ヴォダ","ko":"스테판 보다","nl":"Ştefan Vodă","pl":"Ştefan Vodă","pt":"Ştefan Vodă","pt-BR":"Ştefan Vodă","ru":"Штефан Водэ","tr":"Ştefan Vodă","uk":"Штефан Воде","zh-CN":"Ştefan Vodă","hy":"Շտեֆան Վոդա"}}]},{"name":"Strășeni District","state_code":"ST","latitude":"47.14502670","longitude":"28.61367360","cities":[{"name":"Bucovăţ","latitude":"47.19064000","longitude":"28.45802000","native":"Bucovăţ","translations":{"ar":"بوكوفاتش","br":"Bucovăţ","de":"Bucovăţ","es":"Bucovăţ","fa":"بوکووچ","fr":"Bucovăţ","hi":"बुकोव्त","hr":"Bucovăţ","it":"Bucovăţ","ja":"ブコヴァツ","ko":"부코브어트","nl":"Bucovăţ","pl":"Bucovăţ","pt":"Bucovăţ","pt-BR":"Bucovăţ","ru":"Быковэц","tr":"Bucovăţ","uk":"Буковац","zh-CN":"布乔瓦特","hy":"Բուկովաց"}},{"name":"Strășeni","latitude":"47.14216000","longitude":"28.60774000","native":"Strășeni","translations":{"ar":"ستراشيني","br":"Strășeni","de":"Strășeni","es":"Strășeni","fa":"استراسنی","fr":"Strășeni","hi":"Straseni","hr":"Strașeni","it":"Strășeni","ja":"ストラシェニ","ko":"스트라셰니","nl":"Strășeni","pl":"Strășeni","pt":"Străşeni","pt-BR":"Străşeni","ru":"Strășeni","tr":"Strășeni","uk":"Страшені","zh-CN":"斯特拉谢尼","hy":"Ստրաշենի"}}]},{"name":"Taraclia District","state_code":"TA","latitude":"45.89865100","longitude":"28.66716440","cities":[{"name":"Taraclia","latitude":"45.90273000","longitude":"28.66816000","native":"Taraclia","translations":{"ar":"تاراكليا","br":"Taraklia","de":"Taraclia","es":"Taraclia","fa":"تاراکلیا","fr":"Taraclia","hi":"टरसिलिया","hr":"Taraclia","it":"Taraclia","ja":"タラクリア","ko":"타라클리아","nl":"Taraclia","pl":"Taraclia","pt":"Taraclia","pt-BR":"Taraclia","ru":"Тараклия","tr":"Taraclia","uk":"Тараклія","zh-CN":"塔拉克利亚","hy":"Թարակլիա"}},{"name":"Tvardița","latitude":"46.14826000","longitude":"28.96491000","native":"Tvardița","translations":{"ar":"تفارديتا","br":"Tvardița","de":"Tvardița","es":"Tvardița","fa":"تواردیتا","fr":"Tvardița","hi":"त्वार्दिता","hr":"Tvardita","it":"Tvardița","ja":"トヴァルディツァ","ko":"트바르디차","nl":"Tvardița","pl":"Tvardița","pt":"Tvardiţa","pt-BR":"Tvardiţa","ru":"Твардица","tr":"Tvardița","uk":"Твардиця","zh-CN":"特瓦尔迪察","hy":"Թվարդիցա"}}]},{"name":"Telenești District","state_code":"TE","latitude":"47.49839620","longitude":"28.36760190","cities":[{"name":"Mîndreşti","latitude":"47.50525000","longitude":"28.27687000","native":"Mîndreşti","translations":{"ar":"ميندريشتي","br":"Mîndreşti","de":"Mîndreşti","es":"Mîndresti","fa":"میندرشتی","fr":"Mîndreşti","hi":"Mindresti","hr":"Mindrešti","it":"Mîndreşti","ja":"ミンドレスティ","ko":"마인드레슈티","nl":"Mîndreşti","pl":"Mîndreşti","pt":"Mendizes","pt-BR":"Mendizes","ru":"Мындрешть","tr":"Mîndreşti","uk":"Міндрешті","zh-CN":"明德雷什蒂","hy":"Մինդրեշտի"}},{"name":"Teleneşti","latitude":"47.50110000","longitude":"28.36536000","native":"Teleneşti","translations":{"ar":"تيلينيستي","br":"Teleneşti","de":"Teleneşti","es":"Teleneşti","fa":"تلنشتی","fr":"Teleneşti","hi":"Telenesti","hr":"Teleneşti","it":"Teleneşti","ja":"テレネシュティ","ko":"텔레네슈티","nl":"Teleneşti","pl":"Teleneşti","pt":"Teleneşti","pt-BR":"Teleneşti","ru":"Теленешты","tr":"Teleneşti","uk":"Теленешті","zh-CN":"泰莱内什蒂","hy":"Տելենեշտի"}}]},{"name":"Transnistria autonomous territorial unit","state_code":"SN","latitude":"47.21529720","longitude":"29.46380540","cities":[{"name":"Camenca","latitude":"48.03233000","longitude":"28.69899000","native":"Caba","translations":{"ar":"كامينكا","br":"Camenca","de":"Camenca","es":"Camenca","fa":"کامنکا","fr":"Camenca","hi":"कैमेंका","hr":"Camenca","it":"Camenca","ja":"カメンカ","ko":"카멘카","nl":"Camenca","pl":"Camenca","pt":"Camenca","pt-BR":"Camenca","ru":"Каменка","tr":"Camenca","uk":"Каменка","zh-CN":"卡门卡","hy":"Կամենկա"}},{"name":"Crasnoe","latitude":"46.64844000","longitude":"29.80403000","native":"CRASNOE","translations":{"ar":"كراسنوي","br":"Crasnoe","de":"Crasnoe","es":"Crasnoe","fa":"کراسنوئه","fr":"Crasnoé","hi":"क्रास्नोए","hr":"Crasnoe","it":"Crasnoe","ja":"クラスノエ","ko":"크라스노에","nl":"Crasnoe","pl":"Crasnoe","pt":"Crasnoe","pt-BR":"Crasnoe","ru":"Красное","tr":"Crasnoe","uk":"Красне","zh-CN":"克拉斯诺","hy":"Կրասնոե"}},{"name":"Dnestrovsc","latitude":"46.61640000","longitude":"29.91926000","native":"Dnestrovsc","translations":{"ar":"دنيستروفسك","br":"Dnestrovsc","de":"Dnestrowsk","es":"Dnestrovsc","fa":"دنسترووسک","fr":"Dniestr","hi":"डेनेस्ट्रोव्स्क","hr":"Dnestrovsc","it":"Dnestrovsc","ja":"ドネストロフシュ","ko":"드네스트로브스크","nl":"Dnestrovsc","pl":"Dniestrowiec","pt":"Dnestrovsk","pt-BR":"Dnestrovsk","ru":"Днестровск","tr":"Dnestrovsc","uk":"Дністровськ","zh-CN":"德涅斯特罗夫斯克","hy":"Դնեստրովսկ"}},{"name":"Dubăsari","latitude":"47.26562000","longitude":"29.16667000","native":"Dubăsari","translations":{"ar":"دوباساري","br":"Dubăsari","de":"Dubăsari","es":"Dubăsari","fa":"دوباساری","fr":"Dubăsari","hi":"दुबसारी","hr":"Dubăsari","it":"Dubăsari","ja":"ドゥバサリ","ko":"두바사리","nl":"Dubăsari","pl":"Dubăsari","pt":"Dubăsari","pt-BR":"Dubăsari","ru":"Дубоссары","tr":"Dubăsari","uk":"Дубесарі","zh-CN":"杜巴萨里","hy":"Դուբասարի"}},{"name":"Hryhoriopol","latitude":"47.15413000","longitude":"29.30008000","native":"Hryhoriopol","translations":{"ar":"هريهوريوبول","br":"Hryhoriopol","de":"Hryhoriopol","es":"Hryhoriopol","fa":"هریوریوپول","fr":"Hryhoriopol","hi":"ह्रीहोरियोपोल","hr":"Hryhoriopol","it":"Hryhoriopol","ja":"グリホリオポリ","ko":"흐리호리오폴","nl":"Hrychoriopol","pl":"Hryhoriopol","pt":"Cricoriopol","pt-BR":"Cricoriopol","ru":"Григориополь","tr":"Hryhoriopol","uk":"Григоріополь","zh-CN":"格里霍里奥波尔","hy":"Հրիգորիոպոլ"}},{"name":"Maiac","latitude":"47.23727000","longitude":"29.38498000","native":"Maiac","translations":{"ar":"ماياك","br":"Maiac","de":"Maiac","es":"Maiac","fa":"مایاک","fr":"Maïac","hi":"मायाक","hr":"Majak","it":"Maiac","ja":"マイアック","ko":"마이악","nl":"Maiac","pl":"Maiac","pt":"Maiac","pt-BR":"Maiac","ru":"Майяк","tr":"Maiac","uk":"Маяк","zh-CN":"迈亚克","hy":"Մայակ"}},{"name":"Pervomaisc","latitude":"46.73253000","longitude":"29.96170000","native":"Pervomaisc","translations":{"ar":"بيرفومايسك","br":"Pervomaisc","de":"Pervomaisc","es":"Pervomaisc","fa":"پروومایسک","fr":"Pervomaisc","hi":"पेरवोमाइस","hr":"Pervomaisc","it":"Pervomaisc","ja":"ペルボマイスク","ko":"페르보마이스크","nl":"Pervomaisc","pl":"Pervomaisc","pt":"Pervomaisc","pt-BR":"Pervomaisc","ru":"Первомайск","tr":"Pervomaisc","uk":"Первомайськ","zh-CN":"佩沃迈斯克","hy":"Պերվոմայսկ"}},{"name":"Rîbniţa","latitude":"47.76817000","longitude":"29.01000000","native":"Rîbniţa","translations":{"ar":"ريبنيتا","br":"Rîbniţa","de":"Rîbniţa","es":"Ribnita","fa":"ریبنیتا","fr":"Rîbniţa","hi":"Ribnita","hr":"Ribnica","it":"Rîbniţa","ja":"リブニツァ","ko":"리브니타","nl":"Rîbniţa","pl":"Rybnica","pt":"Rîbniţa","pt-BR":"Rîbniţa","ru":"Рыбница","tr":"Rîbniţa","uk":"Рибниця","zh-CN":"勒布尼察","hy":"Րիբնիցա"}},{"name":"Slobozia","latitude":"46.72927000","longitude":"29.70446000","native":"Slobozia","translations":{"ar":"سلوبوزيا","br":"Slobozia","de":"Slobozia","es":"Slobozia","fa":"اسلوبوزیا","fr":"Slobozia","hi":"स्लोबोज़िया","hr":"Slobozija","it":"Slobozia","ja":"スロボジア","ko":"슬로보지아","nl":"Slobozia","pl":"Slobozia","pt":"Slobozia","pt-BR":"Slobozia","ru":"Слобозия","tr":"Slobozia","uk":"Слобозія","zh-CN":"斯洛博齐亚","hy":"Սլոբոզիա"}},{"name":"Tiraspol","latitude":"46.84274000","longitude":"29.62909000","native":"Tiraspol","translations":{"ar":"تيراسبول","br":"Tiraspol","de":"Tiraspol","es":"Tiraspol","fa":"تیراسپول","fr":"Tiraspol","hi":"तिरस्पोल","hr":"Tiraspol","it":"Tiraspol","ja":"ティラスポリ","ko":"티라스폴","nl":"Tiraspol","pl":"Tyraspol","pt":"Tiraspol","pt-BR":"Tiraspol","ru":"Тирасполь","tr":"Tiraspol","uk":"Тирасполь","zh-CN":"蒂拉斯波尔","hy":"Տիրասպոլ"}},{"name":"Tiraspolul Nou","latitude":"46.82874000","longitude":"29.52174000","native":"Tiraspolul Nou","translations":{"ar":"تيراسبولول نو","br":"Tiraspolul Nou","de":"Tiraspolul Nou","es":"Tiraspolul Nou","fa":"تیراسپول نو","fr":"Tiraspol Nou","hi":"तिरास्पोलुल नौ","hr":"Tiraspol Nou","it":"Tiraspolul Nou","ja":"ティラスポル・ノウ","ko":"티라스폴룰 노우","nl":"Tiraspolul Nou","pl":"Tyraspolul Nou","pt":"Tiraspolul Nou","pt-BR":"Tiraspolul Nou","ru":"Тирасполь Ноу","tr":"Tiraspolul Nou","uk":"Тираспол Ноу","zh-CN":"蒂拉斯波鲁尔·诺乌","hy":"Տիրասպոլուլ Նու"}}]},{"name":"Ungheni District","state_code":"UN","latitude":"47.23057670","longitude":"27.78926610","cities":[{"name":"Ungheni","latitude":"47.21079000","longitude":"27.80047000","native":"Ungheni","translations":{"ar":"أونغيني","br":"Ungheni","de":"Ungheni","es":"Ungheni","fa":"اونگنی","fr":"Ungheni","hi":"उंघेनि","hr":"Ungheni","it":"Ungheni","ja":"ウンゲニ","ko":"운게니","nl":"Ungheni","pl":"Ungheni","pt":"Ungheni","pt-BR":"Ungheni","ru":"Унгены","tr":"Ungheni","uk":"Унгень","zh-CN":"翁格尼","hy":"Ունղենի"}}]}]}