{"code":"MG","states":[{"name":"Antananarivo Province","state_code":"T","latitude":"-18.70514740","longitude":"46.82528380","cities":[]},{"name":"Antsiranana Province","state_code":"D","latitude":"-13.77153900","longitude":"49.52799960","cities":[{"name":"Ampasimanolotra","latitude":"-18.81667000","longitude":"49.06667000","native":"Amplifier","translations":{"br":"Ampasimanolotra","ko":"암파시마놀로트라","pt-BR":"Ampassimanolotra","pt":"Ampassimanolotra","nl":"Ampasimanolotra","hr":"Ampasimanolotra","fa":"آمپاسیمانولوترا","de":"Ampasimanolotra","es":"Ampasimanolotra","fr":"Ampasimanolotra","ja":"アンパシマノロトラ","it":"Ampasimanolotra","zh-CN":"安帕西马诺洛特拉","tr":"Ampasimanolotra","ru":"Ампасиманолотра","uk":"Ампасіманолотра","pl":"Ampasimanolotra","hi":"अम्पासिमनोलोत्रा","ar":"أمباسيمانولوترا"}},{"name":"Andovoranto","latitude":"-18.95443000","longitude":"49.10940000","native":"Andovaranto","translations":{"br":"Andovoranto","ko":"안도보란토","pt-BR":"Andovoranto","pt":"Andovoranto","nl":"Andovoranto","hr":"Andovoranto","fa":"آندوورانتو","de":"Andovoranto","es":"Andovoranto","fr":"Andovoranto","ja":"アンドヴォラント","it":"Andovoranto","zh-CN":"安多沃兰托","tr":"Andovoranto","ru":"Андоворанто","uk":"Андоворанто","pl":"Andovoranto","hi":"एंडोवोरान्टो","ar":"أندوفرانتو"}},{"name":"Mahanoro","latitude":"-19.90000000","longitude":"48.80000000","native":"Mahanoro","translations":{"br":"Mahanoro","ko":"마하노로","pt-BR":"Mahanoro","pt":"Mahanoro","nl":"Mahanoro","hr":"Mahanoro","fa":"ماهانورو","de":"Mahanoro","es":"Mahanoro","fr":"Mahanoro","ja":"マハノロ","it":"Mahanoro","zh-CN":"马哈诺罗","tr":"Mahanoro","ru":"Маханоро","uk":"Маханоро","pl":"Mahanoro","hi":"महानोरो","ar":"ماهانورو"}},{"name":"Mahavelona","latitude":"-17.68475000","longitude":"49.50869000","native":"Vie","translations":{"br":"Mahavelona","ko":"마하벨로나","pt-BR":"Mahavelona","pt":"Mahavelona","nl":"Mahavelona","hr":"Mahavelona","fa":"ماهاولونا","de":"Mahavelona","es":"Mahavelona","fr":"Mahavelona","ja":"マハベロナ","it":"Mahavelona","zh-CN":"马哈维洛纳","tr":"Mahavelona","ru":"Махавелона","uk":"Махавелона","pl":"Mahavelona","hi":"महावेलोना","ar":"ماهافيلونا"}},{"name":"Marolambo","latitude":"-20.05000000","longitude":"48.11667000","native":"Marolambo","translations":{"br":"Marolambo","ko":"마롤람보","pt-BR":"Marolambo","pt":"Marolambo","nl":"Marolambo","hr":"Marolambo","fa":"مارولامبو","de":"Marolambo","es":"Marolambo","fr":"Marolambo","ja":"マロランボ","it":"Marolambo","zh-CN":"马罗兰博","tr":"Marolambo","ru":"Мароламбо","uk":"Мароламбо","pl":"Marolambo","hi":"मारोलाम्बो","ar":"مارولامبو"}},{"name":"Toamasina","latitude":"-18.14920000","longitude":"49.40234000","native":"Toamasina","translations":{"br":"Toamasina","ko":"토아마시나","pt-BR":"Toamasina","pt":"Toamasina","nl":"Toamasina","hr":"Toamasina","fa":"تواماسینا","de":"Toamasina","es":"Toamasina","fr":"Toamasina","ja":"トアマシナ","it":"Toamasina","zh-CN":"图阿马西纳","tr":"Toamasina","ru":"Туамасина","uk":"Тоамасіна","pl":"Toamasina","hi":"टोअमसिन","ar":"تواماسينا"}},{"name":"Toamasina I","latitude":"-18.13863000","longitude":"49.39203000","native":"Toamasina je","translations":{"br":"Toamasina I","ko":"토아마시나 1세","pt-BR":"Toamasina I","pt":"Toamasina I","nl":"Toamasina I","hr":"Toamasina I","fa":"توآماسینا اول","de":"Toamasina I","es":"Toamasina I","fr":"Toamasina I","ja":"トアマシナ1世","it":"Toamasina I","zh-CN":"图阿马西纳一世","tr":"Toamasina I","ru":"Туамасина I","uk":"Тоамасіна I","pl":"Toamasina I","hi":"टोअमसिना I","ar":"تواماسينا الأول"}},{"name":"Toamasina II","latitude":"-17.94053000","longitude":"49.14608000","native":"Happinion II","translations":{"br":"Toamasina II","ko":"토아마시나 2세","pt-BR":"Toamasina II","pt":"Toamasina II","nl":"Toamasina II","hr":"Toamasina II","fa":"تواماسینا دوم","de":"Toamasina II","es":"Toamasina II","fr":"Toamasina II","ja":"トアマシナ2世","it":"Toamasina II","zh-CN":"图阿马西纳二世","tr":"Toamasina II","ru":"Туамасина II","uk":"Тоамасіна II","pl":"Toamasina II","hi":"तोअमसिना II","ar":"تواماسينا الثاني"}},{"name":"Vohibinany","latitude":"-17.35000000","longitude":"49.03333000","native":"Vohibinany","translations":{"br":"Vohibinany","ko":"보히비나니","pt-BR":"Vohibinany","pt":"Vohibinany","nl":"Vohibinany","hr":"Vohibinany","fa":"وهیبینانی","de":"Vohibinany","es":"Vohibinany","fr":"Vohibinany","ja":"ヴォヒビナニー","it":"Vohibinany","zh-CN":"沃希比纳尼","tr":"Vohibinany","ru":"Вохибинаны","uk":"Вохібініани","pl":"Vohibinany","hi":"वोहिबिनानी","ar":"فوهيبيناني"}}]},{"name":"Fianarantsoa Province","state_code":"F","latitude":"-22.35362400","longitude":"46.82528380","cities":[]},{"name":"Mahajanga Province","state_code":"M","latitude":"-16.52388300","longitude":"46.51626200","cities":[]},{"name":"Toamasina Province","state_code":"A","latitude":"-18.14428110","longitude":"49.39578360","cities":[]},{"name":"Toliara Province","state_code":"U","latitude":"-23.35161910","longitude":"43.68549360","cities":[]}]}