{"code":"MK","states":[{"name":"Aerodrom Municipality","state_code":"01","latitude":"41.94643630","longitude":"21.49317130","cities":[]},{"name":"Aračinovo Municipality","state_code":"02","latitude":"42.02473810","longitude":"21.57664070","cities":[{"name":"Арачиново","latitude":"42.02639000","longitude":"21.56194000","native":"Арачиново","translations":{"ar":"أراشينوفو","br":"Арачиново","de":"Арачиново","es":"Arachinovo","fa":"آтаниново","fr":"Arachinovo","hi":"Арачиново","hr":"Aračinovo","it":"Арачиново","ja":"アラチノヴォ","ko":"아라치노보","nl":"Арачиново","pl":"Арачиново","pt":"Archinov","pt-BR":"Archinov","ru":"Арачиново","tr":"Арачиново","uk":"Арачиново","zh-CN":"阿拉奇诺沃"}}]},{"name":"Berovo Municipality","state_code":"03","latitude":"41.66619290","longitude":"22.76288300","cities":[{"name":"Berovo","latitude":"41.70306000","longitude":"22.85778000","native":"Берово","translations":{"ar":"بيروفو","br":"Berovo","de":"Berovo","es":"Berovo","fa":"برووو","fr":"Berovo","hi":"बेरोवो","hr":"Berovo","it":"Berovo","ja":"ベロヴォ","ko":"베로보","nl":"Berovo","pl":"Berowo","pt":"Berovo","pt-BR":"Berovo","ru":"Берово","tr":"Berovo","uk":"Берово","zh-CN":"贝罗沃"}},{"name":"Rusinovo","latitude":"41.68728000","longitude":"22.80849000","native":"Русиново","translations":{"ar":"روسينوفو","br":"Rusinovo","de":"Rusinovo","es":"Rusinovo","fa":"روسینوو","fr":"Rusinovo","hi":"रुसिनोवो","hr":"Rusinovo","it":"Rusinovo","ja":"ルシノヴォ","ko":"루시노보","nl":"Rusinovo","pl":"Rusinowo","pt":"Rusinovo","pt-BR":"Rusinovo","ru":"Русиново","tr":"Rusinovo","uk":"Русиново","zh-CN":"鲁西诺沃"}},{"name":"Vladimirovo","latitude":"41.71000000","longitude":"22.79278000","native":"Владимирово","translations":{"ar":"فلاديميروفو","br":"Vladimirovo","de":"Wladimirowo","es":"Vladimirovo","fa":"ولادیمیروو","fr":"Vladimirovo","hi":"व्लादिमीरोवो","hr":"Vladimirovo","it":"Vladimirovo","ja":"ウラジミロヴォ","ko":"블라디미로보","nl":"Vladimirovo","pl":"Władimirowo","pt":"Vladimirovo","pt-BR":"Vladimirovo","ru":"Владимирово","tr":"Vladimirovo","uk":"Володимирово","zh-CN":"弗拉基米罗沃"}}]},{"name":"Bitola Municipality","state_code":"04","latitude":"41.03633020","longitude":"21.33219740","cities":[{"name":"Bistrica","latitude":"40.97892000","longitude":"21.36580000","native":"Бистрица","translations":{"ar":"بيستريكا","br":"Bistrica","de":"Bistrica","es":"Bistrica","fa":"بیستریکا","fr":"Bistrica","hi":"बिस्ट्रिका","hr":"Bistrica","it":"Bistrica","ja":"ビストリツァ","ko":"비스트리차","nl":"Bistrica","pl":"Bystrzyca","pt":"Bistrica","pt-BR":"Bistrica","ru":"Быстрица","tr":"Bistrica","uk":"Бистриця","zh-CN":"比斯特里察"}},{"name":"Bitola","latitude":"41.03143000","longitude":"21.33474000","native":"Битола","translations":{"ar":"بيتولا","br":"Bitola","de":"Bitola","es":"Bitola","fa":"بیتولا","fr":"Bitola","hi":"बिटोला","hr":"Bitola","it":"Bitola","ja":"ビトラ","ko":"비톨라","nl":"Bitola","pl":"Bitola","pt":"Bitola","pt-BR":"Bitola","ru":"Битола","tr":"Manastır","uk":"Бітола","zh-CN":"比托拉"}},{"name":"Capari","latitude":"41.05656000","longitude":"21.17884000","native":"Капари","translations":{"ar":"كاباري","br":"Capari","de":"Capari","es":"Capari","fa":"کاپاری","fr":"Capari","hi":"कैपारी","hr":"Capari","it":"Capari","ja":"カパリ","ko":"카파리","nl":"Capari","pl":"Capari","pt":"Capari","pt-BR":"Capari","ru":"Капари","tr":"Kapari","uk":"Капарі","zh-CN":"卡帕里"}},{"name":"Dolno Orizari","latitude":"41.05028000","longitude":"21.37944000","native":"Долно Оризари","translations":{"ar":"دولنو أوريزاري","br":"Dolno Orizari","de":"Dolno Orizari","es":"Dolno Orizari","fa":"دولنو اوریزاری","fr":"Dolno Orizari","hi":"डोल्नो ओरिज़ारी","hr":"Dolno Orizari","it":"Dolno Orizari","ja":"ドルノ・オリザリ","ko":"돌노 오리자리","nl":"Dolno Orizari","pl":"Dolno Orizari","pt":"Dolno Orizari","pt-BR":"Dolno Orizari","ru":"Долно Оризари","tr":"Dolno Orizari","uk":"Дольно Орізарі","zh-CN":"多尔诺·奥里扎里"}},{"name":"Gorno Orizari","latitude":"41.05188000","longitude":"21.34548000","native":"Горно Оризари","translations":{"ar":"غورنو أوريزاري","br":"Gorno Orizari","de":"Gorno Orizari","es":"Gorno Orizari","fa":"گورنو اوریزاری","fr":"Gorno Orizari","hi":"गोर्नो ओरिज़ारी","hr":"Gorno Orizari","it":"Gorno Orizari","ja":"ゴルノ・オリザリ","ko":"고르노 오리자리","nl":"Gorno Orizari","pl":"Gorno Orizari","pt":"Gorno Orizari","pt-BR":"Gorno Orizari","ru":"Горно Оризари","tr":"Gorno Orizari","uk":"Горно Орізарі","zh-CN":"戈尔诺·奥里扎里"}},{"name":"Kukurečani","latitude":"41.09562000","longitude":"21.32454000","native":"Кукуречани","translations":{"ar":"كوكوريتشاني","br":"Kukurečani","de":"Kukurečani","es":"Kukurečani","fa":"کوکورچانی","fr":"Kukurečani","hi":"कुकुरेकानी","hr":"Kukurečani","it":"Kukurečani","ja":"ククレチャニ","ko":"쿠쿠레차니","nl":"Kukurečani","pl":"Kukurečani","pt":"Kukurečani","pt-BR":"Kukurečani","ru":"Кукуречани","tr":"Kukurečani","uk":"Кукуречані","zh-CN":"库库雷查尼"}},{"name":"Logovardi","latitude":"41.03096000","longitude":"21.40967000","native":"Логоварди","translations":{"ar":"لوفاردي","br":"Logovardi","de":"Logovardi","es":"Logovardi","fa":"لوگواردی","fr":"Logovardi","hi":"लोगोवर्डी","hr":"Logovardi","it":"Logovardi","ja":"ロゴヴァルディ","ko":"로고바르디","nl":"Logovardi","pl":"Logovardi","pt":"Logovardi","pt-BR":"Logovardi","ru":"Логоварди","tr":"Logovardi","uk":"Логоварді","zh-CN":"洛戈瓦尔迪"}}]},{"name":"Bogdanci Municipality","state_code":"05","latitude":"41.18696160","longitude":"22.59602680","cities":[{"name":"Bogdanci","latitude":"41.20306000","longitude":"22.57556000","native":"Богданци","translations":{"ar":"بوغدانشي","br":"Bogdanci","de":"Bogdanci","es":"Bogdanci","fa":"بوگدانچی","fr":"Bogdanci","hi":"बोग्दांसी","hr":"Bogdanci","it":"Bogdanci","ja":"ボグダンチ","ko":"보그단치","nl":"Bogdanci","pl":"Bogdanci","pt":"Bogdanci","pt-BR":"Bogdanci","ru":"Богданци","tr":"Bogdanci","uk":"Богданці","zh-CN":"博格丹哲"}},{"name":"Stojakovo","latitude":"41.15556000","longitude":"22.57750000","native":"Стојаково","translations":{"ar":"ستوجاكوفو","br":"Stojakovo","de":"Stojakovo","es":"Stojakovo","fa":"استویاکوو","fr":"Stojakovo","hi":"स्टोजाकोवो","hr":"Stojakovo","it":"Stojakovo","ja":"ストヤコヴォ","ko":"스토야코보","nl":"Stojakovo","pl":"Stojakovo","pt":"Stojakovo","pt-BR":"Stojakovo","ru":"Стояково","tr":"Stojakovo","uk":"Стояково","zh-CN":"斯托亚科沃"}}]},{"name":"Bogovinje Municipality","state_code":"06","latitude":"41.92363710","longitude":"20.91638870","cities":[{"name":"Bogovinje","latitude":"41.92361000","longitude":"20.91361000","native":"Боговиње","translations":{"ar":"بوغوفينجي","br":"Bogovinje","de":"Bogovinje","es":"Bogovinje","fa":"بوگووینجه","fr":"Bogovinje","hi":"बोगोविंजे","hr":"Bogovinje","it":"Bogovinje","ja":"ボゴヴィニェ","ko":"보고비네","nl":"Bogovinje","pl":"Bogovinje","pt":"Bogovinje","pt-BR":"Bogovinje","ru":"Боговинье","tr":"Bogoviće","uk":"Боговіньє","zh-CN":"博戈维涅"}},{"name":"Dolno Palčište","latitude":"41.96859000","longitude":"20.92899000","native":"Долно Палчиште","translations":{"ar":"دولنو بالتشيستي","br":"Dolno Palčište","de":"Dolno Palčište","es":"Dolno Palčište","fa":"دولنو پالچیسته","fr":"Dolno Palčište","hi":"Dolno Palčište","hr":"Dolno Palčište","it":"Dolno Palčište","ja":"ドルノ・パルチシュテ","ko":"돌노 팔치슈테","nl":"Dolno Palčište","pl":"Dolno Palčište","pt":"Dolno Palčište","pt-BR":"Dolno Palčište","ru":"Dolno Palčište","tr":"Dolno Palčište","uk":"Дольно Палчиште","zh-CN":"多尔诺帕尔奇什特"}},{"name":"Gradec","latitude":"41.89611000","longitude":"20.90417000","native":"Градец","translations":{"ar":"جراديك","br":"Gradec","de":"Gradec","es":"Gradoc","fa":"گرادک","fr":"Gradec","hi":"ग्रेडेक","hr":"Gradec","it":"Gradec","ja":"グラデック","ko":"그라데크","nl":"Gradec","pl":"Gradec","pt":"Gradec","pt-BR":"Gradec","ru":"Градец","tr":"Sınıf","uk":"Градець","zh-CN":"格拉德茨"}},{"name":"Kamenjane","latitude":"41.94568000","longitude":"20.92894000","native":"Камењане","translations":{"ar":"كامينجان","br":"Kamenjane","de":"Kamenjane","es":"Kamenjane","fa":"کامنجان","fr":"Kamenjane","hi":"कामेनजाने","hr":"Kamenjane","it":"Kamenjane","ja":"カメンジャネ","ko":"카멘자네","nl":"Kamenjane","pl":"Kamenjane","pt":"Kamenjane","pt-BR":"Kamenjane","ru":"Каменджане","tr":"Kamenjane","uk":"Каменяне","zh-CN":"卡门贾内"}}]},{"name":"Bosilovo Municipality","state_code":"07","latitude":"41.49048640","longitude":"22.78671740","cities":[{"name":"Bosilovo","latitude":"41.44056000","longitude":"22.72778000","native":"Босилово","translations":{"ar":"بوسيلوفو","br":"Bosilovo","de":"Bosilovo","es":"Bosilovo","fa":"بوسیلوو","fr":"Bosilovo","hi":"बोसिलोवो","hr":"Bosilovo","it":"Bosilovo","ja":"ボシロヴォ","ko":"보시로보","nl":"Bosilovo","pl":"Bosiłowo","pt":"Bosilovo","pt-BR":"Bosilovo","ru":"Босилово","tr":"Bosilovo","uk":"Босилово","zh-CN":"博西洛沃"}},{"name":"Ilovica","latitude":"41.47224000","longitude":"22.80480000","native":"Иловица","translations":{"ar":"إيلوفيكا","br":"Ilovica","de":"Ilovica","es":"Ilovica","fa":"ایلوویکا","fr":"Ilovica","hi":"इलोविका","hr":"Ilovica","it":"Ilovica","ja":"イロヴィツァ","ko":"일로비카","nl":"Ilovica","pl":"Ilovica","pt":"Ilovica","pt-BR":"Ilovica","ru":"Иловица","tr":"İlovica","uk":"Іловиця","zh-CN":"伊洛维察"}},{"name":"Sekirnik","latitude":"41.43999000","longitude":"22.79536000","native":"Секирник","translations":{"ar":"سيكيرنيك","br":"Sekirnik","de":"Sekirnik","es":"Sekirnik","fa":"سکیرنیک","fr":"Sekirnik","hi":"सेकिर्निक","hr":"Sekirnik","it":"Sekirnik","ja":"セキルニク","ko":"세키르니크","nl":"Sekirnik","pl":"Sekirnik","pt":"Sekirnik","pt-BR":"Sekirnik","ru":"Секирник","tr":"Sekirnik","uk":"Секірнік","zh-CN":"塞基尔尼克"}}]},{"name":"Brvenica Municipality","state_code":"08","latitude":"41.96814820","longitude":"20.98195860","cities":[{"name":"Brvenica","latitude":"41.96722000","longitude":"20.98083000","native":"Брвеница","translations":{"ar":"برفينيكا","br":"Brvenica","de":"Brvenica","es":"Brvenica","fa":"برونیکا","fr":"Brvenica","hi":"ब्रेवेनिका","hr":"Brvenica","it":"Brvenica","ja":"ブルヴェニツァ","ko":"브르베니차","nl":"Brvenica","pl":"Brwenica","pt":"Brvenica","pt-BR":"Brvenica","ru":"Брвеница","tr":"Brvenica","uk":"Брвениця","zh-CN":"布尔维尼察"}},{"name":"Čelopek","latitude":"41.93167000","longitude":"21.01333000","native":"Челопек","translations":{"ar":"تشيلوبيك","br":"Čelopek","de":"Čelopek","es":"Čelopek","fa":"چلوپک","fr":"Čelopek","hi":"चेलोपेक","hr":"Čelopek","it":"Čelopek","ja":"チェロペック","ko":"첼로페크","nl":"Čelopek","pl":"Čelopek","pt":"Čelopek","pt-BR":"Čelopek","ru":"Челопек","tr":"Çelopek","uk":"Челопек","zh-CN":"切洛佩克"}},{"name":"Gurgurnica","latitude":"41.84508000","longitude":"21.10538000","native":"Гургурница","translations":{"ar":"غورغورنيكا","br":"Gurgurnica","de":"Gurgurnica","es":"Gurgurnica","fa":"گورگورنیکا","fr":"Gurgurnica","hi":"गुरगुर्निका","hr":"Gurgurnica","it":"Gurgurnica","ja":"グルグルニツァ","ko":"구르구르니차","nl":"Gurgurnica","pl":"Gurgurnica","pt":"Gurgurnica","pt-BR":"Gurgurnica","ru":"Гургурница","tr":"Gurgurnica","uk":"Гургурніца","zh-CN":"古尔古尼卡"}},{"name":"Miletino","latitude":"41.90753000","longitude":"21.01601000","native":"Милетино","translations":{"ar":"ميليتينو","br":"Miletino","de":"Miletino","es":"Miletino","fa":"میلتینو","fr":"Miletino","hi":"मिलेटिनो","hr":"Miletino","it":"Miletino","ja":"ミレティーノ","ko":"밀레티노","nl":"Miletino","pl":"Miletino","pt":"Miletino","pt-BR":"Miletino","ru":"Милетино","tr":"Miletino","uk":"Мілетіно","zh-CN":"米莱蒂诺"}}]},{"name":"Butel Municipality","state_code":"09","latitude":"42.08950680","longitude":"21.46336100","cities":[{"name":"Butel","latitude":"42.03083000","longitude":"21.44667000","native":"Бутел","translations":{"ar":"بوتيل","br":"Butel","de":"Butel","es":"Butel","fa":"بوتل","fr":"Butel","hi":"बुटेल","hr":"Butel","it":"Butel","ja":"ブテル","ko":"부텔","nl":"Butel","pl":"Butel","pt":"Butel","pt-BR":"Butel","ru":"Бутель","tr":"Butel","uk":"Бутель","zh-CN":"布特尔"}},{"name":"Radishani","latitude":"42.06111000","longitude":"21.44778000","native":"Радишани","translations":{"ar":"راديشاني","br":"Radishani","de":"Radishani","es":"Radishani","fa":"رادیشانی","fr":"Radishani","hi":"रेडिशानी","hr":"Radišani","it":"Radishani","ja":"ラディシャニ","ko":"라디샤니","nl":"Radijsjes","pl":"Radishani","pt":"Radishani","pt-BR":"Radishani","ru":"Радишани","tr":"Radişani","uk":"Радішані","zh-CN":"拉迪沙尼"}}]},{"name":"Čair Municipality","state_code":"79","latitude":"41.99303550","longitude":"21.43653180","cities":[{"name":"Čair","latitude":"42.01528000","longitude":"21.44111000","native":"Чаир","translations":{"ar":"كير","br":"Čair","de":"Čair","es":"Čair","fa":"چیر","fr":"Čair","hi":"कैर","hr":"Čair","it":"Čair","ja":"チャイル","ko":"카이르","nl":"Čair","pl":"Čair","pt":"Čair","pt-BR":"Čair","ru":"Чаир","tr":"Čair","uk":"Чаїр","zh-CN":"Čair"}}]},{"name":"Čaška Municipality","state_code":"80","latitude":"41.64743800","longitude":"21.69141150","cities":[{"name":"Bogomila","latitude":"41.59306000","longitude":"21.47167000","native":"Богомила","translations":{"ar":"بوغوميلا","br":"Bogomila","de":"Bogomila","es":"Bogomila","fa":"بوگومیلا","fr":"Bogomila","hi":"बोगोमिला","hr":"Bogomila","it":"Bogomila","ja":"ボゴミラ","ko":"보고밀라","nl":"Bogomila","pl":"Bogomiła","pt":"Bogomila","pt-BR":"Bogomila","ru":"Богомила","tr":"Bogomila","uk":"Богомила","zh-CN":"博格米拉"}},{"name":"Čaška","latitude":"41.65056000","longitude":"21.66222000","native":"Чашка","translations":{"ar":"تشاسكا","br":"Čaška","de":"Čaška","es":"Čaška","fa":"چشکا","fr":"Čaška","hi":"Centar *","hr":"Čaška","it":"Čaška","ja":"チャシュカ","ko":"차스카","nl":"Čaška","pl":"Čaška","pt":"Čaška","pt-BR":"Čaška","ru":"Чашка","tr":"Çaška","uk":"Чашка","zh-CN":"恰什卡"}}]},{"name":"Centar Municipality","state_code":"77","latitude":"41.96989340","longitude":"21.42162670","cities":[]},{"name":"Centar Župa Municipality","state_code":"78","latitude":"41.46522590","longitude":"20.59305480","cities":[{"name":"Centar Župa","latitude":"41.47849000","longitude":"20.55945000","native":"Центар Жупа","translations":{"ar":"مركز زوبا","br":"Kreizenn Župa","de":"Centar Župa","es":"Centar Župa","fa":"مرکز ژوپا","fr":"Centar Župa","hi":"Centar Župa","hr":"Centar Župe","it":"Centar Župa","ja":"Centar Župa","ko":"센타르 주파","nl":"Centar Župa","pl":"Centar Župa","pt":"Centar Župa","pt-BR":"Centar Župa","ru":"Centar Župa","tr":"Centar Župa","uk":"Центр Жупа","zh-CN":"中央茹帕"}}]},{"name":"Češinovo-Obleševo Municipality","state_code":"81","latitude":"41.86393160","longitude":"22.26224600","cities":[{"name":"Češinovo","latitude":"41.87148000","longitude":"22.28961000","native":"Чешиново","translations":{"ar":"تشيسينوفو","br":"Češinovo","de":"Češinovo","es":"Češinovo","fa":"چشینوو","fr":"Češinovo","hi":"चेसिनोवो","hr":"Češinovo","it":"Češinovo","ja":"チェシノヴォ","ko":"체시노보","nl":"Češinovo","pl":"Czesinowo","pt":"Češinovo","pt-BR":"Češinovo","ru":"Чешиново","tr":"Češinovo","uk":"Чешиново","zh-CN":"切希诺沃"}},{"name":"Oblesevo","latitude":"41.88333000","longitude":"22.33389000","native":"Облешево","translations":{"ar":"أوبليسيف","br":"Oblesevo","de":"Oblesevo","es":"Oblesevo","fa":"اوبلسوو","fr":"Oblesevo","hi":"ऑब्लेसेवो","hr":"Oblesevo","it":"Oblesevo","ja":"オブレシェヴォ","ko":"오블레세보","nl":"Oblesevo","pl":"Oblesevo","pt":"Oblesevo","pt-BR":"Oblesevo","ru":"Облесево","tr":"Oblesevo","uk":"Облесево","zh-CN":"奥布莱舍沃"}}]},{"name":"Čučer-Sandevo Municipality","state_code":"82","latitude":"42.14839460","longitude":"21.40374070","cities":[{"name":"Чучер - Сандево","latitude":"42.10361000","longitude":"21.38222000","native":"Чучер - Сандево","translations":{"ar":"Чучер - Сандево","br":"Чучер - Сандево","de":"Чучер - Сандево","es":"Чучер - Сандево","fa":"چور - سندوو","fr":"Чучер - Сандево","hi":"Чучер - Сандево","hr":"Čučer - Sandevo","it":"Чучер - Сандево","ja":"チュチェル - サンデヴォ","ko":"Чучер - Сандево","nl":"Чучер - Сандево","pl":"Чучер - Сандево","pt":"Чучер - Сандево","pt-BR":"Чучер - Сандево","ru":"Чучер - Сандево","tr":"Чучер - Сандево","uk":"Чучер - Сандево","zh-CN":"Чучер - Сандево"}}]},{"name":"Debarca Municipality","state_code":"22","latitude":"41.35840770","longitude":"20.85529190","cities":[{"name":"Belčišta","latitude":"41.30278000","longitude":"20.83028000","native":"Белчишта","translations":{"ar":"بيلتشيستا","br":"Belčišta","de":"Belčišta","es":"Belčišta","fa":"بلچیستا","fr":"Belčišta","hi":"बेल्चिस्ता","hr":"Belčišta","it":"Belčišta","ja":"ベルチスタ","ko":"벨치스타","nl":"Belčišta","pl":"Belčišta","pt":"Belčišta","pt-BR":"Belčišta","ru":"Белчишта","tr":"Belčišta","uk":"Белчішта","zh-CN":"贝尔奇什塔"}},{"name":"Mešeišta","latitude":"41.23814000","longitude":"20.77414000","native":"Мешеишта","translations":{"ar":"ميشيستا","br":"Mešeišta","de":"Mešeišta","es":"Mešeišta","fa":"مشئیستا","fr":"Mešeišta","hi":"मेशेइस्ता","hr":"Mešeišta","it":"Mešeišta","ja":"メセイシュタ","ko":"메세이스타","nl":"Mešeišta","pl":"Mešeišta","pt":"Mešeišta","pt-BR":"Mešeišta","ru":"Мешейшта","tr":"Mešeišta","uk":"Мешеїшта","zh-CN":"梅谢什塔"}}]},{"name":"Delčevo Municipality","state_code":"23","latitude":"41.96843870","longitude":"22.76288300","cities":[{"name":"Delcevo","latitude":"41.96722000","longitude":"22.76944000","native":"Делчево","translations":{"ar":"ديلتشيفو","br":"Delcevo","de":"Delcevo","es":"Delcevo","fa":"دلچوو","fr":"Delcevo","hi":"डेल्सेवो","hr":"Delčevo","it":"Delcevo","ja":"デルチェヴォ","ko":"델체보","nl":"Delcevo","pl":"Delcevo","pt":"Delcevo","pt-BR":"Delcevo","ru":"Дельчево","tr":"Delcevo","uk":"Делчево","zh-CN":"德尔切沃"}}]},{"name":"Demir Hisar Municipality","state_code":"25","latitude":"41.22708300","longitude":"21.14142260","cities":[{"name":"Demir Hisar","latitude":"41.22097000","longitude":"21.20302000","native":"Демир Хисар","translations":{"ar":"ديمير حصار","br":"Demir Hisar","de":"Demir Hisar","es":"Demir Hisar","fa":"دمیر حصار","fr":"Demir Hisar","hi":"डेमिर हिसार","hr":"Demir Hisar","it":"Demir Hisar","ja":"デミル・ヒサール","ko":"데미르 히사르","nl":"Demir Hisar","pl":"Demir Hisar","pt":"Demir Hisar","pt-BR":"Demir Hisar","ru":"Демир Хисар","tr":"Demir Hisar","uk":"Демір Хісар","zh-CN":"德米尔·希萨尔"}},{"name":"Slepče","latitude":"41.23333000","longitude":"21.17500000","native":"Слепче","translations":{"ar":"سليبتشي","br":"Slepče","de":"Slepče","es":"Slepče","fa":"اسلیپچه","fr":"Dormir","hi":"स्लेपचे","hr":"Slepče","it":"Slepče","ja":"スレプチェ","ko":"슬렙체","nl":"Slepče","pl":"Slepče","pt":"Dormir","pt-BR":"Dormir","ru":"Слепче","tr":"Slepče","uk":"Слепче","zh-CN":"斯莱普切"}},{"name":"Sopotnica","latitude":"41.29594000","longitude":"21.15357000","native":"Сопотница","translations":{"ar":"سوبوتنيكا","br":"Sopotnica","de":"Sopotnica","es":"Sopotnica","fa":"سوپوتنیکا","fr":"Sopotnica","hi":"सोपोट्निका","hr":"Sopotnica","it":"Sopotnica","ja":"ソポトニツァ","ko":"소포트니차","nl":"Sopotnica","pl":"Sopotnica","pt":"Sopotnica","pt-BR":"Sopotnica","ru":"Сопотница","tr":"Sopotnica","uk":"Сопотниця","zh-CN":"索波特尼察"}}]},{"name":"Demir Kapija Municipality","state_code":"24","latitude":"41.37955380","longitude":"22.21455710","cities":[{"name":"Demir Kapija","latitude":"41.40613000","longitude":"22.24631000","native":"Демир Капија","translations":{"ar":"ديمير كابيجا","br":"Demir Kapija","de":"Demir Kapija","es":"Demir Kapija","fa":"دمیر کاپیجا","fr":"Demir Kapija","hi":"डेमिर कपिजा","hr":"Demir Kapija","it":"Demir Kapija","ja":"デミール・カピヤ","ko":"데미르 카피자","nl":"Demir Kapija","pl":"Demir Kapija","pt":"Demir Kapija","pt-BR":"Demir Kapija","ru":"Демир Капия","tr":"Demir Kapı","uk":"Демір Капія","zh-CN":"德米尔·卡皮亚"}}]},{"name":"Dojran Municipality","state_code":"26","latitude":"41.24366720","longitude":"22.69137640","cities":[{"name":"Star Dojran","latitude":"41.18647000","longitude":"22.72030000","native":"Стар Дојран","translations":{"ar":"ستار دوجران","br":"Steredenn Dojran","de":"Stern Dojran","es":"Estrella Dojran","fa":"ستاره دوجران","fr":"Étoile Dojran","hi":"स्टार डोजरान","hr":"Stari Dojran","it":"Stella Dojran","ja":"スター・ドイラン","ko":"스타 도이란","nl":"Ster Dojran","pl":"Gwiazda Dojran","pt":"Estrela Dojran","pt-BR":"Estrela Dojran","ru":"Стар Дойран","tr":"Yıldız Dojran","uk":"Стар Дойран","zh-CN":"星多伊兰"}}]},{"name":"Dolneni Municipality","state_code":"27","latitude":"41.46409350","longitude":"21.40374070","cities":[{"name":"Crnilište","latitude":"41.53025000","longitude":"21.41416000","native":"Црнилиште","translations":{"ar":"كرنيليشتي","br":"Crnilište","de":"Crnilište","es":"Crnilište","fa":"کرنیلیشت","fr":"Crnilište","hi":"क्रनिलिस्टे","hr":"Crnilište","it":"Crnilište","ja":"クルニリシュテ","ko":"크르닐리슈테","nl":"Crnilište","pl":"Crnilište","pt":"Crnilište","pt-BR":"Crnilište","ru":"Црнилиште","tr":"Crnilište","uk":"Црніліще","zh-CN":"茨尔尼利什特"}},{"name":"Desovo","latitude":"41.46278000","longitude":"21.49111000","native":"Десово","translations":{"ar":"ديسوفو","br":"Desovo","de":"Desovo","es":"Desovo","fa":"دسوو","fr":"Desovo","hi":"देसोवो","hr":"Desovo","it":"Desovo","ja":"デソヴォ","ko":"데소보","nl":"Desovo","pl":"Desovo","pt":"Desovo","pt-BR":"Desovo","ru":"Десово","tr":"Desovo","uk":"Десово","zh-CN":"德索沃"}},{"name":"Dolneni","latitude":"41.42579000","longitude":"21.45402000","native":"Долнени","translations":{"ar":"دولنيني","br":"Dolneni","de":"Dolneni","es":"Dolneni","fa":"دولننی","fr":"Dolneni","hi":"डोल्नेनि","hr":"Dolneni","it":"Dolneni","ja":"ドルネニ","ko":"돌네니","nl":"Dolneni","pl":"Dolneni","pt":"Dolneni","pt-BR":"Dolneni","ru":"Долнени","tr":"Dolneni","uk":"Долнені","zh-CN":"多尔内尼"}},{"name":"Lažani","latitude":"41.44222000","longitude":"21.31583000","native":"Лажани","translations":{"ar":"لازاني","br":"Lažani","de":"Lažani","es":"Lažani","fa":"لاژانی","fr":"Lažani","hi":"लाज़ानी","hr":"Lažani","it":"Lažani","ja":"ラジャニ","ko":"라자니","nl":"Lažani","pl":"Lažani","pt":"Lažani","pt-BR":"Lažani","ru":"Лажани","tr":"Lažani","uk":"Лажани","zh-CN":"拉扎尼"}},{"name":"Žitoše","latitude":"41.41991000","longitude":"21.29078000","native":"Житоше","translations":{"ar":"جيتوشي","br":"Žitoše","de":"Žitoše","es":"Žitoše","fa":"ژیتوشه","fr":"Žitoše","hi":"ज़िटोसे","hr":"Žitoše","it":"Žitoše","ja":"ジトシェ","ko":"지토셰","nl":"Žitoše","pl":"Żytosze","pt":"Žitoše","pt-BR":"Žitoše","ru":"Житоше","tr":"Žitoše","uk":"Житоше","zh-CN":"日托谢"}}]},{"name":"Drugovo Municipality","state_code":"28","latitude":"41.44081530","longitude":"20.92682010","cities":[]},{"name":"Gazi Baba Municipality","state_code":"17","latitude":"42.01629610","longitude":"21.49913340","cities":[{"name":"Cresevo","latitude":"42.05083000","longitude":"21.50972000","native":"Крешево","translations":{"ar":"كريسيفو","br":"Cresevo","de":"Cresevo","es":"Cresevo","fa":"کرسوو","fr":"Cresevo","hi":"क्रेसेवो","hr":"Creševo","it":"Cresevo","ja":"クレセヴォ","ko":"크레세보","nl":"Cresevo","pl":"Cresevo","pt":"Cresevo","pt-BR":"Cresevo","ru":"Кресево","tr":"Cresevo","uk":"Крешево","zh-CN":"克雷塞沃"}}]},{"name":"Gevgelija Municipality","state_code":"18","latitude":"41.21186060","longitude":"22.38146240","cities":[{"name":"Gevgelija","latitude":"41.14166000","longitude":"22.50141000","native":"Гевгелија","translations":{"ar":"جيفجيليا","br":"Gevgelija","de":"Gevgelija","es":"Gevgelija","fa":"گِوگِلیجا","fr":"Guevgueliya","hi":"गेवगेलिया","hr":"Gevgelija","it":"Gevgelija","ja":"ゲヴゲリヤ","ko":"게브겔리아","nl":"Gevgelija","pl":"Gevgelija","pt":"Gevgelija","pt-BR":"Gevgelija","ru":"Гевгелия","tr":"Gevgelija","uk":"Гевгелія","zh-CN":"盖夫盖利亚"}},{"name":"Miravci","latitude":"41.30925000","longitude":"22.43641000","native":"Миравци","translations":{"ar":"ميرافجي","br":"Miravci","de":"Miravci","es":"Miravci","fa":"میراوچی","fr":"Miravci","hi":"मिरावसी","hr":"Miravci","it":"Miravci","ja":"ミラヴチ","ko":"미라브치","nl":"Miravci","pl":"Miravci","pt":"Miravci","pt-BR":"Miravci","ru":"Миравци","tr":"Miravci","uk":"Міравці","zh-CN":"米拉夫哲"}}]},{"name":"Gjorče Petrov Municipality","state_code":"29","latitude":"42.06063740","longitude":"21.32027360","cities":[{"name":"Gjorče Petro","latitude":"42.00778000","longitude":"21.35306000","native":"Ѓорче Петро","translations":{"ar":"جورجي بيترو","br":"Gjorče Petro","de":"Gjorče Petro","es":"Gjorče Petro","fa":"گیورچه پترو","fr":"Gjorče Petro","hi":"गोर्जे पेट्रो","hr":"Gjorče Petro","it":"Gjorče Petro","ja":"ジョルチェ・ペトロ","ko":"조르체 페트로","nl":"Gjorče Petro","pl":"Gjorče Petro","pt":"Gjorče Petro","pt-BR":"Gjorče Petro","ru":"Гьорче Петро","tr":"Gjorče Petro","uk":"Гьорче Петро","zh-CN":"乔尔切·佩特罗"}}]},{"name":"Gostivar Municipality","state_code":"19","latitude":"41.80255410","longitude":"20.90893780","cities":[{"name":"Cegrane","latitude":"41.83889000","longitude":"20.97583000","native":"Чегране","translations":{"ar":"سيجران","br":"Segrenn","de":"Cegrane","es":"Cegrane","fa":"سیگران","fr":"Cégrane","hi":"सेग्रेन","hr":"Čegrane","it":"Cegrane","ja":"セグラネ","ko":"세그레인","nl":"Cegrane","pl":"Cegrane","pt":"Cegrane","pt-BR":"Cegrane","ru":"Чегране","tr":"Cegrane","uk":"Чегран","zh-CN":"塞格拉内"}},{"name":"Dolna Banjica","latitude":"41.78611000","longitude":"20.90611000","native":"Долна Бањица","translations":{"ar":"دولنا بانجيكا","br":"Dolna Banjica","de":"Dolna Banjica","es":"Dolna Banjica","fa":"دولنا بانجیکا","fr":"Dolna Banjica","hi":"डोलना बंजिका","hr":"Dolna Banjica","it":"Dolna Banjica","ja":"ドルナ・バンジツァ","ko":"돌나 반지차","nl":"Dolna Banjica","pl":"Dolna Banjica","pt":"Dolna Banjica","pt-BR":"Dolna Banjica","ru":"Долна Баница","tr":"Dolna Banjica","uk":"Дольна Баниця","zh-CN":"多尔纳·巴尼察"}},{"name":"Forino","latitude":"41.82334000","longitude":"20.96174000","native":"Форино","translations":{"ar":"فورينو","br":"Forino","de":"Forino","es":"Forino","fa":"فورینو","fr":"Forino","hi":"फ़ोरिनो","hr":"Forino","it":"Forino","ja":"フォリーノ","ko":"포리노","nl":"Forino","pl":"Forino","pt":"Forino","pt-BR":"Forino","ru":"Форино","tr":"Forino","uk":"Форіно","zh-CN":"福里诺"}},{"name":"Gostivar","latitude":"41.79601000","longitude":"20.90819000","native":"Гостивар","translations":{"ar":"غوستيفار","br":"Gostivar","de":"Gostivar","es":"Gostivar","fa":"گوستیوار","fr":"Gostivar","hi":"ग़ोस्तिवर","hr":"Gostivar","it":"Gostivar","ja":"ゴスティヴァル","ko":"고스티바르","nl":"Gostivar","pl":"Gostiwar","pt":"Gostivar","pt-BR":"Gostivar","ru":"Гостивар","tr":"Gostivar","uk":"Гостивар","zh-CN":"戈斯蒂瓦尔"}},{"name":"Srbinovo","latitude":"41.70586000","longitude":"20.95859000","native":"Србиново","translations":{"ar":"سربينوفو","br":"Srbinovo","de":"Srbinovo","es":"Srbinovo","fa":"سربینووو","fr":"Srbinovo","hi":"सर्बिनोवो","hr":"Srbinovo","it":"Srbinovo","ja":"スルビノヴォ","ko":"스르비노보","nl":"Srbinovo","pl":"Serbinowo","pt":"Srbinovo","pt-BR":"Srbinovo","ru":"Србиново","tr":"Srbinovo","uk":"Сербіново","zh-CN":"斯尔比诺沃"}},{"name":"Vrutok","latitude":"41.76861000","longitude":"20.83917000","native":"Вруток","translations":{"ar":"فروتوك","br":"Vrutok","de":"Vrutok","es":"Vrutok","fa":"وروتوک","fr":"Vrutok","hi":"व्रुटोक","hr":"Vrutok","it":"Vrutok","ja":"ヴルトク","ko":"브루톡","nl":"Vrutok","pl":"Vrutok","pt":"Vrutok","pt-BR":"Vrutok","ru":"Вруток","tr":"Vrutok","uk":"Вруток","zh-CN":"弗鲁托克"}}]},{"name":"Gradsko Municipality","state_code":"20","latitude":"41.59916080","longitude":"21.88070640","cities":[{"name":"Gradsko","latitude":"41.57750000","longitude":"21.94278000","native":"Градско","translations":{"ar":"غرادسكو","br":"Gradsko","de":"Gradsko","es":"Gradsko","fa":"گرادسکو","fr":"Gradsko","hi":"ग्रादस्को","hr":"Gradsko","it":"Gradsko","ja":"グラッスコ","ko":"그라드스코","nl":"Gradsko","pl":"Gradsko","pt":"Gradsko","pt-BR":"Gradsko","ru":"Градско","tr":"Gradsko","uk":"Градсько","zh-CN":"格拉德斯科"}}]},{"name":"Greater Skopje","state_code":"85","latitude":"41.99812940","longitude":"21.42543550","cities":[{"name":"Bojane","latitude":"42.00009000","longitude":"21.19265000","native":"Бојане","translations":{"ar":"بوجان","br":"Bojane","de":"Bojane","es":"Bojane","fa":"بوژان","fr":"Bojane","hi":"बोजाने","hr":"Bojane","it":"Bojane","ja":"ボヤネ","ko":"보잔","nl":"Bojane","pl":"Bojane","pt":"Bojane","pt-BR":"Bojane","ru":"Бояне","tr":"Bojane","uk":"Бояне","zh-CN":"博亚内"}},{"name":"Dračevo","latitude":"41.93667000","longitude":"21.52167000","native":"Драчево","translations":{"ar":"دراتشيفو","br":"Dračevo","de":"Dračevo","es":"Dračevo","fa":"دراچوو","fr":"Dračevo","hi":"ड्रेचेवो","hr":"Dračevo","it":"Dračevo","ja":"ドラチェヴォ","ko":"드라체보","nl":"Dračevo","pl":"Dračevo","pt":"Dračevo","pt-BR":"Dračevo","ru":"Драчево","tr":"Dračevo","uk":"Драчево","zh-CN":"德拉切沃"}},{"name":"Ljubin","latitude":"42.00139000","longitude":"21.30917000","native":"Љубин","translations":{"ar":"ليوبين","br":"Ljubin","de":"Ljubin","es":"Liubin","fa":"لوبین","fr":"Ljubin","hi":"लुबिन","hr":"Ljubin","it":"Lubiana","ja":"リュビン","ko":"류빈","nl":"Ljubin","pl":"Lubin","pt":"Ljubin","pt-BR":"Ljubin","ru":"Любин","tr":"Ljubin","uk":"Любін","zh-CN":"柳宾"}},{"name":"Saraj","latitude":"42.00000000","longitude":"21.32778000","native":"Сарај","translations":{"ar":"سراج","br":"Saraj","de":"Saraj","es":"Saraj","fa":"سراج","fr":"Saraj","hi":"सरज","hr":"Saraj","it":"Saraj","ja":"サラジ","ko":"사라즈","nl":"Saraj","pl":"Saraj","pt":"Saraj","pt-BR":"Saraj","ru":"Сарадж","tr":"Saray","uk":"Сарадж","zh-CN":"萨拉杰"}},{"name":"Usje","latitude":"41.95871000","longitude":"21.45835000","native":"Усје","translations":{"ar":"أوسي","br":"Usje","de":"Usje","es":"Usje","fa":"اوسجه","fr":"Usje","hi":"उसजे","hr":"Usje","it":"Usje","ja":"ウジェ","ko":"우제","nl":"Usje","pl":"Usje","pt":"Usje","pt-BR":"Usje","ru":"Usje","tr":"Usje","uk":"Ус'є","zh-CN":"乌斯耶"}}]},{"name":"Ilinden Municipality","state_code":"34","latitude":"41.99574430","longitude":"21.56769750","cities":[{"name":"Ilinden","latitude":"41.99451000","longitude":"21.58002000","native":"Илинден","translations":{"ar":"إيليندن","br":"Ilinden","de":"Ilinden","es":"Ilinden","fa":"ایلیندن","fr":"Ilinden","hi":"इलिन्देन","hr":"Ilinden","it":"Ilinden","ja":"イリンデン","ko":"일린덴","nl":"Ilinden","pl":"Ilinden","pt":"Ilinden","pt-BR":"Ilinden","ru":"Илинден","tr":"Ilinden","uk":"Ілінден","zh-CN":"伊林登"}},{"name":"Kadino","latitude":"41.96889000","longitude":"21.60139000","native":"Кадино","translations":{"ar":"كادينو","br":"Kadino","de":"Kadino","es":"Kadino","fa":"کادینو","fr":"Kadino","hi":"काडिनो","hr":"Kadino","it":"Kadino","ja":"カディノ","ko":"카디노","nl":"Kadino","pl":"Kadino","pt":"Kadino","pt-BR":"Kadino","ru":"Кадино","tr":"Kadıno","uk":"Кадіно","zh-CN":"卡迪诺"}},{"name":"Marino","latitude":"41.98776000","longitude":"21.59148000","native":"Марино","translations":{"ar":"مارينو","br":"Marino","de":"Marino","es":"Marino","fa":"مارینو","fr":"Marin","hi":"मैरिनो","hr":"Marino","it":"Marino","ja":"マリノ","ko":"마리노","nl":"Marino","pl":"Marino","pt":"Marinho","pt-BR":"Marinho","ru":"Марино","tr":"Denizci","uk":"Марино","zh-CN":"马里诺"}},{"name":"Miladinovci","latitude":"41.98029000","longitude":"21.64982000","native":"Миладиновци","translations":{"ar":"ميلادينوفشي","br":"Miladinovci","de":"Miladinovci","es":"Miladinovci","fa":"میلادینوفسی","fr":"Miladinovci","hi":"मिलादिनोवसी","hr":"Miladinovci","it":"Miladinovci","ja":"ミラディノフチ","ko":"밀라디노프치","nl":"Miladinovci","pl":"Miladinovci","pt":"Miladinovci","pt-BR":"Miladinovci","ru":"Миладиновичи","tr":"Miladinovci","uk":"Міладіновці","zh-CN":"米拉迪诺夫齐"}},{"name":"Идризово","latitude":"41.96083000","longitude":"21.57556000","native":"Идризово","translations":{"ar":"Идризово","br":"Идризово","de":"Идризово","es":"Idrizovo","fa":"ایدروزوو","fr":"Idrizovo","hi":"Идризово","hr":"Idrizovo","it":"Идризово","ja":"イドリゾヴォ","ko":"이드리조보","nl":"Идризово","pl":"Идризово","pt":"Idrizovo","pt-BR":"Idrizovo","ru":"Идризово","tr":"Идризово","uk":"Ідризово","zh-CN":"伊德里索沃"}},{"name":"Јурумлери","latitude":"41.96722000","longitude":"21.55694000","native":"Јурумлери","translations":{"ar":"Јурумлери","br":"Јурумлери","de":"Јурумлери","es":"Jurumiri","fa":"ЈурЃмлери","fr":"Јурумлери","hi":"Јурумлери","hr":"Jurumleri","it":"Јурумлери","ja":"ウルムレリ","ko":"주루믈러리","nl":"Јурумлери","pl":"Јурумлери","pt":"Urumleri","pt-BR":"Urumleri","ru":"Јурумлери","tr":"Јурумлери","uk":"Юрумлери","zh-CN":"Јурумлери"}}]},{"name":"Jegunovce Municipality","state_code":"35","latitude":"42.07407200","longitude":"21.12204780","cities":[{"name":"Jegunovce","latitude":"42.07238000","longitude":"21.12367000","native":"Јегуновце","translations":{"ar":"جيغونوفتشي","br":"Jegunovce","de":"Jegunovce","es":"Jegunovce","fa":"جگونووس","fr":"Jegunovce","hi":"जेगुनोव्से","hr":"Jegunovce","it":"Jegunovce","ja":"ジェグノフツェ","ko":"제구노프체","nl":"Jegunovce","pl":"Jegunowce","pt":"Jegunovce","pt-BR":"Jegunovce","ru":"Егуновце","tr":"Jegunovce","uk":"Єгуновце","zh-CN":"耶古诺夫采"}},{"name":"Vratnica","latitude":"42.14333000","longitude":"21.11694000","native":"Вратница","translations":{"ar":"فراتنيكا","br":"Vratnica","de":"Vratnica","es":"Vratnica","fa":"وراتنیسکا","fr":"Vratnica","hi":"व्रत्निका","hr":"Vratnica","it":"Vratnica","ja":"ヴラトニツァ","ko":"브라트니차","nl":"Vratnica","pl":"Vratnica","pt":"Vratnica","pt-BR":"Vratnica","ru":"Вратница","tr":"Vratnica","uk":"Вратниця","zh-CN":"弗拉特尼察"}}]},{"name":"Karbinci","state_code":"37","latitude":"41.81801590","longitude":"22.23247580","cities":[{"name":"Karbinci","latitude":"41.81758000","longitude":"22.23529000","native":"Карбинци","translations":{"ar":"كاربينجي","br":"Karbinci","de":"Karbinci","es":"Karbinci","fa":"کاربینجی","fr":"Karbinci","hi":"कार्बिंसी","hr":"Karbinci","it":"Karbinci","ja":"カルビンチ","ko":"카르빈치","nl":"Karbinci","pl":"Karbinci","pt":"Karbinci","pt-BR":"Karbinci","ru":"Карбинци","tr":"Karbinci","uk":"Карбінці","zh-CN":"卡尔宾吉"}}]},{"name":"Karpoš Municipality","state_code":"38","latitude":"41.97096610","longitude":"21.39181680","cities":[{"name":"Skopje","latitude":"41.99646000","longitude":"21.43141000","native":"Скопско","translations":{"ar":"سكوبيه","br":"Skopje","de":"Skopje","es":"Skopie","fa":"اسکوپیه","fr":"Skopje","hi":"स्कोप्जे","hr":"Skopje","it":"Skopje","ja":"スコピエ","ko":"스코페","nl":"Skopje","pl":"Skopje","pt":"Escópia","pt-BR":"Escópia","ru":"Скопье","tr":"Üsküp","uk":"Скоп'є","zh-CN":"斯科普里"}}]},{"name":"Kavadarci Municipality","state_code":"36","latitude":"41.28900680","longitude":"21.99994350","cities":[{"name":"Kavadarci","latitude":"41.43306000","longitude":"22.01194000","native":"Кавадарци","translations":{"ar":"كافادارشي","br":"Kavadarci","de":"Kavadarci","es":"Kavadarci","fa":"کاوادارچی","fr":"Kavadarci","hi":"कावादार्सी","hr":"Kavadarci","it":"Kavadarci","ja":"カヴァダルチ","ko":"카바다르치","nl":"Kavadarci","pl":"Kawadarci","pt":"Kavadarci","pt-BR":"Kavadarci","ru":"Кавадарци","tr":"Kavadarcı","uk":"Кавадарці","zh-CN":"卡瓦达尔奇"}},{"name":"Vataša","latitude":"41.41694000","longitude":"22.01889000","native":"Ваташа","translations":{"ar":"فاتاشا","br":"Vataša","de":"Vataša","es":"Vataša","fa":"واتاشا","fr":"Vataša","hi":"वातशा","hr":"Vataša","it":"Vataša","ja":"ヴァタシャ","ko":"바타샤","nl":"Vataša","pl":"Watasza","pt":"Vataša","pt-BR":"Vataša","ru":"Ваташа","tr":"Vataša","uk":"Ваташа","zh-CN":"瓦塔莎"}}]},{"name":"Kičevo Municipality","state_code":"40","latitude":"41.51291120","longitude":"20.95250650","cities":[{"name":"Drugovo","latitude":"41.48490000","longitude":"20.92636000","native":"Другово","translations":{"ar":"دروجوفو","br":"Drugovo","de":"Drugovo","es":"Drugovo","fa":"دروگوو","fr":"Drugovo","hi":"ड्रुगोवो","hr":"Drugovo","it":"Drugovo","ja":"ドゥルゴヴォ","ko":"드루고보","nl":"Drugovo","pl":"Drugovo","pt":"Drugovo","pt-BR":"Drugovo","ru":"Другово","tr":"Drugovo","uk":"Другово","zh-CN":"德鲁戈沃"}},{"name":"Kičevo","latitude":"41.51267000","longitude":"20.95886000","native":"Кичево","translations":{"ar":"كيتشيفو","br":"Kičevo","de":"Kičevo","es":"Kičevo","fa":"کیچوو","fr":"Kičevo","hi":"किचेवो","hr":"Kičevo","it":"Kičevo","ja":"キチェヴォ","ko":"키체보","nl":"Kičevo","pl":"Kiczewo","pt":"Kičevo","pt-BR":"Kičevo","ru":"Кичево","tr":"Kırçova","uk":"Кічево","zh-CN":"基切沃"}},{"name":"Srbica","latitude":"41.58672000","longitude":"21.03027000","native":"Србица","translations":{"ar":"سربيكا","br":"Srbica","de":"Serbien","es":"Srbica","fa":"صربستان","fr":"Serbie","hi":"सर्बिका","hr":"Srbica","it":"Srbica","ja":"スルビツァ","ko":"스르비차","nl":"Srbica","pl":"Serbii","pt":"Srbica","pt-BR":"Srbica","ru":"Србица","tr":"Sırpça","uk":"Србиця","zh-CN":"斯尔比察"}},{"name":"Strelci","latitude":"41.54046000","longitude":"21.00563000","native":"Стрелци","translations":{"ar":"ستريلشي","br":"Strelci","de":"Strelci","es":"Strelci","fa":"استرلچی","fr":"Strelci","hi":"स्ट्रेल्सी","hr":"Strelci","it":"Strelci","ja":"ストレルチ","ko":"스트렐치","nl":"Strelci","pl":"Strelci","pt":"Strelci","pt-BR":"Strelci","ru":"Стрельцы","tr":"Strelci","uk":"Стрілці","zh-CN":"斯特雷尔奇"}},{"name":"Tuin","latitude":"41.61944000","longitude":"21.04528000","native":"Туин","translations":{"ar":"توين","br":"Tuin","de":"Garten","es":"Jardín","fa":"تویین","fr":"Jardin","hi":"टुइन","hr":"Tuin","it":"Tuin","ja":"トゥイン","ko":"튜인","nl":"Tuin","pl":"Tuin","pt":"Tuin","pt-BR":"Tuin","ru":"Туин","tr":"Tuin","uk":"Туїн","zh-CN":"图因"}},{"name":"Vraneštica","latitude":"41.44496000","longitude":"21.02683000","native":"Вранештица","translations":{"ar":"فرانيشتيكا","br":"Vraneštica","de":"Vraneštica","es":"Vraneštica","fa":"ورانِشتیکا","fr":"Vraneštica","hi":"व्रेनेस्तिका","hr":"Vraneštica","it":"Vraneštica","ja":"ヴラネシュティツァ","ko":"브라네슈티차","nl":"Vraneštica","pl":"Vraneštica","pt":"Vraneštica","pt-BR":"Vraneštica","ru":"Вранештица","tr":"Vraneštica","uk":"Вранештіца","zh-CN":"弗拉内什蒂察"}},{"name":"Zajas","latitude":"41.60722000","longitude":"20.93833000","native":"Зајас","translations":{"ar":"زاجاس","br":"Zajas","de":"Zajas","es":"Zajas","fa":"زاجاس","fr":"Zajas","hi":"ज़ाजस","hr":"Zajas","it":"Zajas","ja":"ザヤス","ko":"자하스","nl":"Zajas","pl":"Zajas","pt":"Zajas","pt-BR":"Zajas","ru":"Заджас","tr":"Zajas","uk":"Заяс","zh-CN":"扎贾斯"}}]},{"name":"Kisela Voda Municipality","state_code":"39","latitude":"41.92748000","longitude":"21.49317130","cities":[{"name":"Kisela Voda","latitude":"41.94889000","longitude":"21.50278000","native":"Кисела Вода","translations":{"ar":"كيسيلا فودا","br":"Kisela Voda","de":"Kisela Voda","es":"Kisela Voda","fa":"کیسلا ودا","fr":"Kisela Voda","hi":"किसेला वोडा","hr":"Kisela Voda","it":"Kisela Voda","ja":"キセラ・ヴォーダ","ko":"키셀라 보다","nl":"Kisela Voda","pl":"Kisela Voda","pt":"Kisela Voda","pt-BR":"Kisela Voda","ru":"Кисела Вода","tr":"Kisela Voda","uk":"Кисела Вода","zh-CN":"基塞拉·沃达"}}]},{"name":"Kočani Municipality","state_code":"42","latitude":"41.98583740","longitude":"22.40530460","cities":[{"name":"Kochani","latitude":"41.91639000","longitude":"22.41278000","native":"Кочани","translations":{"ar":"كوتشاني","br":"Kochani","de":"Kočani","es":"Kochani","fa":"کوچانی","fr":"Kochani","hi":"कोचानी","hr":"Kočani","it":"Kochani","ja":"コチャニ","ko":"코차니","nl":"Kochani","pl":"Kochani","pt":"Kochani","pt-BR":"Kochani","ru":"Кочани","tr":"Koçani","uk":"Кочані","zh-CN":"科查尼"}},{"name":"Orizari","latitude":"41.92262000","longitude":"22.44628000","native":"Оризари","translations":{"ar":"أوريزاري","br":"Orizari","de":"Orizari","es":"Orizari","fa":"اوریزاری","fr":"Orizari","hi":"ऑरिज़रि","hr":"Orizari","it":"Orizari","ja":"オリザリ","ko":"오리자리","nl":"Orizari","pl":"Orizari","pt":"Orizari","pt-BR":"Orizari","ru":"Оризари","tr":"Orizari","uk":"Орізарі","zh-CN":"奥里扎里"}}]},{"name":"Konče Municipality","state_code":"41","latitude":"41.51710110","longitude":"22.38146240","cities":[{"name":"Konče","latitude":"41.49511000","longitude":"22.38359000","native":"Конче","translations":{"ar":"كونتشي","br":"Konče","de":"Konče","es":"Konče","fa":"کنچه","fr":"Konče","hi":"कोंसे","hr":"Konče","it":"Konče","ja":"コンチェ","ko":"콘체","nl":"Konče","pl":"Konče","pt":"Konče","pt-BR":"Konče","ru":"Конче","tr":"Konçe","uk":"Конче","zh-CN":"孔切"}}]},{"name":"Kratovo Municipality","state_code":"43","latitude":"42.05371410","longitude":"22.07148350","cities":[{"name":"Kratovo","latitude":"42.07838000","longitude":"22.18070000","native":"Кратово","translations":{"ar":"كراتوفو","br":"Kratovo","de":"Kratovo","es":"Kratovo","fa":"کراتوو","fr":"Kratovo","hi":"क्रतोवो","hr":"Kratovo","it":"Kratovo","ja":"クラトヴォ","ko":"크라토보","nl":"Kratovo","pl":"Kratowo","pt":"Kratovo","pt-BR":"Kratovo","ru":"Кратово","tr":"Kratovo","uk":"Кратово","zh-CN":"克拉托沃"}}]},{"name":"Kriva Palanka Municipality","state_code":"44","latitude":"42.20584540","longitude":"22.33079650","cities":[{"name":"Kriva Palanka","latitude":"42.20088000","longitude":"22.33244000","native":"Крива Паланка","translations":{"ar":"كريفا بالانكا","br":"Kriva Palanka","de":"Kriva Palanka","es":"Kriva Palanka","fa":"کریوا پالانکا","fr":"Kriva Palanka","hi":"क्रिवा पालका","hr":"Kriva Palanka","it":"Kriva Palanka","ja":"クリヴァ・パランカ","ko":"크리바 팔란카","nl":"Kriva Palanka","pl":"Kriva Palanka","pt":"Kriva Palanka","pt-BR":"Kriva Palanka","ru":"Крива Паланка","tr":"Kriva Palanka","uk":"Крива Паланка","zh-CN":"克里瓦帕兰卡"}}]},{"name":"Krivogaštani Municipality","state_code":"45","latitude":"41.30823060","longitude":"21.36796890","cities":[{"name":"Krivogashtani","latitude":"41.33611000","longitude":"21.33306000","native":"Кривогаштани","translations":{"ar":"كريفوغاشتاني","br":"Krivogashtani","de":"Krivogashtani","es":"Krivogashtani","fa":"کریوگاشتانی","fr":"Krivogashtani","hi":"क्रिवोगष्टानी","hr":"Krivogaštani","it":"Krivogashtani","ja":"クリヴォガシュタニ","ko":"크리보가슈타니","nl":"Krivogashtani","pl":"Krivogashtani","pt":"Krivogashtani","pt-BR":"Krivogashtani","ru":"Кривогаштани","tr":"Krivogaştani","uk":"Кривогаштані","zh-CN":"克里沃加什塔尼"}},{"name":"Obršani","latitude":"41.28168000","longitude":"21.36150000","native":"Обршани","translations":{"ar":"أوبرشاني","br":"Obršani","de":"Obršani","es":"Obršani","fa":"اوبرشانی","fr":"Obršani","hi":"ओब्रसानी","hr":"Obršani","it":"Obršani","ja":"オブルシャニ","ko":"오브르샤니","nl":"Obršani","pl":"Obršani","pt":"Obršani","pt-BR":"Obršani","ru":"Обршани","tr":"Obršani","uk":"Обршані","zh-CN":"奥布尔沙尼"}},{"name":"Клечовце","latitude":"42.11611000","longitude":"21.85722000","native":"Клечовце","translations":{"ar":"Клечовце","br":"Клечовце","de":"Клечовце","es":"Клечовце","fa":"کلچووسکی","fr":"Клечовце","hi":"Клечовце","hr":"Klečovce","it":"Клечовце","ja":"クレチョフツェ","ko":"클레초프체","nl":"Клечовце","pl":"Клечовце","pt":"Клечовце","pt-BR":"Клечовце","ru":"Клечовце","tr":"Клечовце","uk":"Клечовце","zh-CN":"克利乔夫茨"}}]},{"name":"Kruševo Municipality","state_code":"46","latitude":"41.37693310","longitude":"21.26065540","cities":[{"name":"Bučin","latitude":"41.27377000","longitude":"21.31692000","native":"Бучин","translations":{"ar":"بوتشين","br":"Bučin","de":"Bučin","es":"Bučin","fa":"بوچین","fr":"Bučin","hi":"बुचिन","hr":"Bučin","it":"Bučin","ja":"ブチン","ko":"부친","nl":"Bučin","pl":"Bučin","pt":"Bučin","pt-BR":"Bučin","ru":"Бучин","tr":"Bučin","uk":"Бучін","zh-CN":"布钦"}},{"name":"Krusevo","latitude":"41.36889000","longitude":"21.24889000","native":"Крушево","translations":{"ar":"كروسيفو","br":"Krusevo","de":"Krusevo","es":"Krusevo","fa":"کروزوو","fr":"Kruševo","hi":"क्रुसेवो","hr":"Kruševo","it":"Krusevo","ja":"クルシェヴォ","ko":"크루세보","nl":"Krusevo","pl":"Kruszewo","pt":"Krusevo","pt-BR":"Krusevo","ru":"Крушево","tr":"Kruşevo","uk":"Крушево","zh-CN":"克鲁舍沃"}}]},{"name":"Kumanovo Municipality","state_code":"47","latitude":"42.07326130","longitude":"21.78531430","cities":[{"name":"Bedinje","latitude":"42.14167000","longitude":"21.69639000","native":"Бедиње","translations":{"ar":"بيدينجي","br":"Bedinje","de":"Bedinje","es":"Bedinje","fa":"بدینجه","fr":"Bedinje","hi":"बेदिंजे","hr":"Bedinje","it":"Bedinje","ja":"ベディニェ","ko":"베디네","nl":"Bedinje","pl":"Bedinje","pt":"Bedinje","pt-BR":"Bedinje","ru":"Бединдже","tr":"Bedinje","uk":"Бедінже","zh-CN":"贝迪涅"}},{"name":"Kumanovo","latitude":"42.13222000","longitude":"21.71444000","native":"Куманово","translations":{"ar":"كومانوفو","br":"Kumanovo","de":"Kumanovo","es":"Kumanovo","fa":"کومانوو","fr":"Kumanovo","hi":"कुमनोवो","hr":"Kumanovo","it":"Kumanovo","ja":"クマノヴォ","ko":"쿠마노보","nl":"Kumanovo","pl":"Kumanowo","pt":"Kumanovo","pt-BR":"Kumanovo","ru":"Куманово","tr":"Kumanova","uk":"Куманово","zh-CN":"库马诺沃"}},{"name":"Romanovci","latitude":"42.09472000","longitude":"21.69306000","native":"Романовци","translations":{"ar":"رومانوفشي","br":"Romanovci","de":"Romanovci","es":"Romanovci","fa":"رومانوفی","fr":"Romanovci","hi":"रोमानोवसी","hr":"Romanovci","it":"Romanovci","ja":"ロマノフツィ","ko":"로마노프치","nl":"Romanovci","pl":"Romanowcy","pt":"Romanovci","pt-BR":"Romanovci","ru":"Романовцы","tr":"Romanovci","uk":"Романовці","zh-CN":"罗曼诺夫齐"}}]},{"name":"Lipkovo Municipality","state_code":"48","latitude":"42.20066260","longitude":"21.61837550","cities":[{"name":"Izvor","latitude":"42.20322000","longitude":"21.57812000","native":"Извор","translations":{"ar":"إيزفور","br":"Izvor","de":"Izvor","es":"Izvor","fa":"ایزور","fr":"Izvor","hi":"इज़्वोर","hr":"Izvor","it":"Izvor","ja":"イズヴォル","ko":"이즈보르","nl":"Izvor","pl":"Izvor","pt":"Izvor","pt-BR":"Izvor","ru":"Извор","tr":"İzvor","uk":"Джерело","zh-CN":"伊兹沃尔"}},{"name":"Lipkovo","latitude":"42.15639000","longitude":"21.58528000","native":"Липково","translations":{"ar":"ليبكوفو","br":"Lipkovo","de":"Lipkovo","es":"Lipkovo","fa":"لیپکووو","fr":"Lipkovo","hi":"लिप्कोवो","hr":"Lipkovo","it":"Lipkovo","ja":"リプコヴォ","ko":"리프코보","nl":"Lipkovo","pl":"Lipkowo","pt":"Lipkovo","pt-BR":"Lipkovo","ru":"Липково","tr":"Lipkovo","uk":"Липково","zh-CN":"利普科沃"}},{"name":"Lojane","latitude":"42.23276000","longitude":"21.66550000","native":"Лојане","translations":{"ar":"لوجان","br":"Lojane","de":"Lojane","es":"Lojane","fa":"لوژان","fr":"Lojane","hi":"लोजाने","hr":"Lojane","it":"Lojane","ja":"ロジャネ","ko":"로잔","nl":"Lojane","pl":"Lojane","pt":"Lojane","pt-BR":"Lojane","ru":"Лоджане","tr":"Lojane","uk":"Ложане","zh-CN":"洛贾内"}},{"name":"Matejce","latitude":"42.12556000","longitude":"21.59778000","native":"Матејче","translations":{"ar":"ماتيجس","br":"Matejce","de":"Matejce","es":"Matejce","fa":"ماتیجه","fr":"Matejce","hi":"मातेज","hr":"Matejče","it":"Matejce","ja":"マテイツェ","ko":"마테이체","nl":"Matejce","pl":"Matejce","pt":"Matejce","pt-BR":"Matejce","ru":"Матейце","tr":"Matejce","uk":"Матейце","zh-CN":"马泰伊采"}},{"name":"Otlja","latitude":"42.14315000","longitude":"21.58675000","native":"Отља","translations":{"ar":"أوتليا","br":"Otlja","de":"Otlja","es":"Otlja","fa":"اوتلیا","fr":"Otlja","hi":"ओत्लजा","hr":"Otlja","it":"Otlja","ja":"オトリャ","ko":"오틀랴","nl":"Otlja","pl":"Otlja","pt":"Otlja","pt-BR":"Otlja","ru":"Отля","tr":"Otlja","uk":"Отля","zh-CN":"奥特利亚"}},{"name":"Vaksince","latitude":"42.20611000","longitude":"21.66306000","native":"Ваксинце","translations":{"ar":"فاكسينس","br":"Vaksince","de":"Vaksince","es":"Vaksince","fa":"واکسینسه","fr":"Vaksince","hi":"वैक्सिन्स","hr":"Vaksince","it":"Vaksince","ja":"ヴァクシンス","ko":"벡신스","nl":"Vaksinds","pl":"Vaksince","pt":"Vaksince","pt-BR":"Vaksince","ru":"Ваксинце","tr":"Vaksince","uk":"Ваксінце","zh-CN":"瓦克斯辛瑟"}},{"name":"Слупчане","latitude":"42.17333000","longitude":"21.62778000","native":"Слупчане","translations":{"ar":"Слупчане","br":"Слупчане","de":"Слупчане","es":"Slupchane","fa":"سلوبوشان","fr":"Слупчане","hi":"Слупчане","hr":"Slupčane","it":"Слупчане","ja":"スルーチャネ","ko":"Слупчане","nl":"Слупчане","pl":"Слупчане","pt":"Solteiro","pt-BR":"Solteiro","ru":"Слупчане","tr":"Слупчане","uk":"Слупчане","zh-CN":"Слупчане"}}]},{"name":"Lozovo Municipality","state_code":"49","latitude":"41.78181390","longitude":"21.90008270","cities":[{"name":"Lozovo","latitude":"41.78389000","longitude":"21.90556000","native":"Лозово","translations":{"ar":"لوزوفو","br":"Lozovo","de":"Losowo","es":"Lozovo","fa":"لوزوو","fr":"Lozovo","hi":"लज़ोवो","hr":"Lozovo","it":"Lozovo","ja":"ロゾヴォ","ko":"로조보","nl":"Lozovo","pl":"Łozowo","pt":"Lozovo","pt-BR":"Lozovo","ru":"Лозово","tr":"Lozovo","uk":"Лозово","zh-CN":"洛佐沃"}}]},{"name":"Makedonska Kamenica Municipality","state_code":"51","latitude":"42.06946040","longitude":"22.54834900","cities":[{"name":"Makedonska Kamenica","latitude":"42.02079000","longitude":"22.58760000","native":"Македонска Каменица","translations":{"ar":"مقدونيا كامينيكا","br":"Makedonska Kamenica","de":"Makedonska Kamenica","es":"Makedonska Kamenica","fa":"ماکدونسکا کامنیتسا","fr":"Makedonska Kamenica","hi":"माकेडोन्स्का कामेनिका","hr":"Makedonska Kamenica","it":"Makedonska Kamenica","ja":"マケドンスカ・カメニツァ","ko":"마케돈스카 카메니차","nl":"Makedonska Kamenica","pl":"Makedonska Kamenica","pt":"Macedônia Kamenica","pt-BR":"Macedônia Kamenica","ru":"Македонска Каменица","tr":"Makedonska Kamenica","uk":"Македонська Камениця","zh-CN":"马其顿卡梅尼察"}}]},{"name":"Makedonski Brod Municipality","state_code":"52","latitude":"41.51330880","longitude":"21.21743290","cities":[{"name":"Makedonski Brod","latitude":"41.51361000","longitude":"21.21528000","native":"Македонски Брод","translations":{"ar":"ماكدونسكي برود","br":"Makedonski Brod","de":"Makedonski Brod","es":"Makedonski Brod","fa":"ماکدونسکی برود","fr":"Makédonski Brod","hi":"माकेडोन्स्की ब्रोड","hr":"Makedonski Brod","it":"Makedonski Brod","ja":"マケドンスキ・ブロッド","ko":"마케돈스키 브로드","nl":"Makedonski Brod","pl":"Makedonski Brod","pt":"Makedonski Brod","pt-BR":"Makedonski Brod","ru":"Македонски-Брод","tr":"Makedonski Brod","uk":"Македонський Брод","zh-CN":"马其顿布罗德"}},{"name":"Samokov","latitude":"41.68331000","longitude":"21.14625000","native":"Самоков","translations":{"ar":"ساموكوف","br":"Samokov","de":"Samokow","es":"Samokov","fa":"ساموکوف","fr":"Samokov","hi":"समोकोव","hr":"Samokov","it":"Samokov","ja":"サモコフ","ko":"사모코프","nl":"Samokov","pl":"Samokow","pt":"Samokov","pt-BR":"Samokov","ru":"Самоков","tr":"Samokov","uk":"Самоков","zh-CN":"萨莫科夫"}}]},{"name":"Mavrovo and Rostuša Municipality","state_code":"50","latitude":"41.60924270","longitude":"20.60124880","cities":[{"name":"Rostusa","latitude":"41.61000000","longitude":"20.60000000","native":"Ростуша","translations":{"ar":"روستوسا","br":"Rostusa","de":"Rostusa","es":"Rostusa","fa":"روستوسا","fr":"Rostusa","hi":"रोस्तुसा","hr":"Rostuša","it":"Rostusa","ja":"ロストゥサ","ko":"로스투사","nl":"Rostusa","pl":"Rostusa","pt":"Rostusa","pt-BR":"Rostusa","ru":"Ростуса","tr":"Rostuşa","uk":"Ростуса","zh-CN":"罗斯图萨"}}]},{"name":"Mogila Municipality","state_code":"53","latitude":"41.14796450","longitude":"21.45143690","cities":[{"name":"Beranci","latitude":"41.15969000","longitude":"21.35963000","native":"Беранци","translations":{"ar":"بيرانشي","br":"Beranci","de":"Beranci","es":"Beranci","fa":"برانچي","fr":"Beranci","hi":"बेरान्सी","hr":"Beranci","it":"Beranci","ja":"ベランチ","ko":"베란치","nl":"Beranci","pl":"Beranci","pt":"Beranci","pt-BR":"Beranci","ru":"Беранчи","tr":"Beranci","uk":"Беранчі","zh-CN":"贝兰奇"}},{"name":"Dobruševo","latitude":"41.16861000","longitude":"21.48250000","native":"Добрушево","translations":{"ar":"دوبروشيفو","br":"Dobruševo","de":"Dobruševo","es":"Dobruševo","fa":"دوبروشِوو","fr":"Dobruševo","hi":"डोब्रुशेवो","hr":"Dobruševo","it":"Dobruševo","ja":"ドブルシェヴォ","ko":"도브루셰보","nl":"Dobruševo","pl":"Dobruszewo","pt":"Dobruševo","pt-BR":"Dobruševo","ru":"Добрушево","tr":"Dobruşevo","uk":"Добрушево","zh-CN":"多布鲁舍沃"}},{"name":"Dolno Srpci","latitude":"41.17480000","longitude":"21.36464000","native":"Долно Српци","translations":{"ar":"شركة دولنو","br":"Dolno Srpci","de":"Dolno Srpci","es":"Dolno Srpci","fa":"دولنو صربچی","fr":"Dolno Srpci","hi":"डोल्नो सर्पसी","hr":"Dolno Srpci","it":"Dolno Srpci","ja":"ドルノ・スルプチ","ko":"돌노 스르프치","nl":"Dolno Srpci","pl":"Dolno Srpci","pt":"Dolno Srpci","pt-BR":"Dolno Srpci","ru":"Долно Српци","tr":"Dolno Sırp","uk":"Дольно Српці","zh-CN":"多尔诺·斯尔普奇"}},{"name":"Mogila","latitude":"41.10833000","longitude":"21.37861000","native":"Могила","translations":{"ar":"موغيلا","br":"Mogila","de":"Mogila","es":"Mogila","fa":"موگیلا","fr":"Mogila","hi":"मोगिला","hr":"Mogila","it":"Mogila","ja":"モギラ","ko":"모길라","nl":"Mogila","pl":"Mogiła","pt":"Mogila","pt-BR":"Mogila","ru":"Могила","tr":"Mogila","uk":"Могила","zh-CN":"莫吉拉"}}]},{"name":"Negotino Municipality","state_code":"54","latitude":"41.49899850","longitude":"22.09532970","cities":[{"name":"Negotino","latitude":"41.48456000","longitude":"22.09056000","native":"Неготино","translations":{"ar":"نيغوتينو","br":"Negotino","de":"Negotino","es":"Negotino","fa":"نگوتینو","fr":"Négociation","hi":"नेगोतिनो","hr":"Negotino","it":"Negoziato","ja":"ネゴティーノ","ko":"네고티노","nl":"Onderhandelen","pl":"Negotino","pt":"Negociante","pt-BR":"Negociante","ru":"Неготино","tr":"Müzakere","uk":"Неготіно","zh-CN":"内戈蒂诺"}}]},{"name":"Novaci Municipality","state_code":"55","latitude":"41.04426610","longitude":"21.45888940","cities":[{"name":"Novaci","latitude":"41.04197000","longitude":"21.45866000","native":"Новаци","translations":{"ar":"نوفاسك","br":"Novaci","de":"Novaci","es":"Novaci","fa":"نواچی","fr":"Novaci","hi":"नोवासि","hr":"Novaci","it":"Novaci","ja":"ノヴァチ","ko":"노바치","nl":"Novaci","pl":"Nowaci","pt":"Novaci","pt-BR":"Novaci","ru":"Новаци","tr":"Novaci","uk":"Новачі","zh-CN":"诺瓦奇"}}]},{"name":"Novo Selo Municipality","state_code":"56","latitude":"41.43255800","longitude":"22.88204890","cities":[{"name":"Novo Selo","latitude":"41.41486000","longitude":"22.88164000","native":"Ново Село","translations":{"ar":"نوفو سيلو","br":"Novo Selo","de":"Novo Selo","es":"Novo Selo","fa":"نوو سلو","fr":"Novo Selo","hi":"नोवो सेलो","hr":"Novo Selo","it":"Novo Selo","ja":"ノヴォ・セロ","ko":"노보 셀로","nl":"Nieuw Selo","pl":"Nowe Selo","pt":"Novo Selo","pt-BR":"Novo Selo","ru":"Ново Село","tr":"Yeni Selo","uk":"Ново Село","zh-CN":"新塞洛"}},{"name":"Sušica","latitude":"41.43982000","longitude":"22.83676000","native":"Сушица","translations":{"ar":"سوشيكا","br":"Sušica","de":"Sušica","es":"Sušica","fa":"سوشیتسا","fr":"Sušica","hi":"सुशिका","hr":"Sušica","it":"Sušica","ja":"スシカ","ko":"수시카","nl":"Sušica","pl":"Sušica","pt":"Sušica","pt-BR":"Sušica","ru":"Сушица","tr":"Sušica","uk":"Сушиця","zh-CN":"苏希察"}}]},{"name":"Ohrid Municipality","state_code":"58","latitude":"41.06820880","longitude":"20.75992660","cities":[{"name":"Kosel","latitude":"41.17444000","longitude":"20.83556000","native":"Косел","translations":{"ar":"كوسيل","br":"Kosel","de":"Kosel","es":"Kosel","fa":"کوسل","fr":"Kosel","hi":"कोसेल","hr":"Kosel","it":"Kosel","ja":"コセル","ko":"코셀","nl":"Kosel","pl":"Kosel","pt":"Kosel","pt-BR":"Kosel","ru":"Косель","tr":"Kosel","uk":"Косель","zh-CN":"科塞尔"}},{"name":"Ohrid","latitude":"41.11722000","longitude":"20.80194000","native":"Охрид","translations":{"ar":"أوهريد","br":"Ohrid","de":"Ohrid","es":"Ohrid","fa":"اوهرید","fr":"Ohrid","hi":"ओहरिड","hr":"Ohrid","it":"Ocrida","ja":"オフリド","ko":"오흐리드","nl":"Ohrid","pl":"Ochryd","pt":"Ohrid","pt-BR":"Ohrid","ru":"Охрид","tr":"Ohrid","uk":"Охрид","zh-CN":"奥赫里德"}},{"name":"Ohrid Opština","latitude":"41.16667000","longitude":"20.83333000","native":"Охридска општина","translations":{"ar":"أوهريد أوبستينا","br":"Ohrid Opština","de":"Ohrid Opština","es":"Opština de Ohrid","fa":"اوهرید اوپشتینا","fr":"Opština d'Ohrid","hi":"ओहरिड ओपस्टिना","hr":"Općina Ohrid","it":"Ohrid Opština","ja":"オフリド・オプシュティナ","ko":"오흐리드 옵슈티나","nl":"Ohrid Opština","pl":"Ochryda Opština","pt":"Opština de Ohrid","pt-BR":"Opština de Ohrid","ru":"Охридская обл","tr":"Ohrid Opština","uk":"Охридська громада","zh-CN":"奥赫里德奥普什蒂纳"}}]},{"name":"Oslomej Municipality","state_code":"57","latitude":"41.57583910","longitude":"21.02219600","cities":[]},{"name":"Pehčevo Municipality","state_code":"60","latitude":"41.77371320","longitude":"22.88204890","cities":[{"name":"Pehčevo","latitude":"41.76226000","longitude":"22.88921000","native":"Пехчево","translations":{"ar":"بيهتشيفو","br":"Pehčevo","de":"Pehčevo","es":"Pehčevo","fa":"پهچوو","fr":"Pehčevo","hi":"पेहचेवो","hr":"Pehčevo","it":"Pehčevo","ja":"ペチェヴォ","ko":"페체보","nl":"Pehčevo","pl":"Pehčevo","pt":"Pehčevo","pt-BR":"Pehčevo","ru":"Пехчево","tr":"Pehçevo","uk":"Пехчево","zh-CN":"佩赫切沃"}}]},{"name":"Petrovec Municipality","state_code":"59","latitude":"41.90298970","longitude":"21.68992100","cities":[{"name":"Sredno Konjare","latitude":"41.95743000","longitude":"21.71494000","native":"Средно Коњаре","translations":{"ar":"سريدنو كونجاري","br":"Sredno Konjare","de":"Sredno Konjare","es":"Sredno Konjare","fa":"سردنو کنجاره","fr":"Sredno Konjare","hi":"श्रीड्नो कोन्जारे","hr":"Sredno Konjare","it":"Sredno Konjare","ja":"スレドノ・コンヤレ","ko":"스레드노 콘자레","nl":"Sredno Konjare","pl":"Sredno Konjare","pt":"Sredno Konjare","pt-BR":"Sredno Konjare","ru":"Средно Коньяре","tr":"Sredno Konjare","uk":"Середньо Конжаре","zh-CN":"斯雷德诺·孔贾雷"}},{"name":"Петровец","latitude":"41.93889000","longitude":"21.61500000","native":"Петровец","translations":{"ar":"Петровец","br":"Петровец","de":"Petrovsky","es":"Petrovets","fa":"پرترووچ","fr":"Petrovets","hi":"Петровец","hr":"Petrovec","it":"Петровец","ja":"ペトロヴェツ","ko":"페트로베츠","nl":"Петровец","pl":"Петровец","pt":"Pré-provençal","pt-BR":"Pré-provençal","ru":"Петровец","tr":"Петровец","uk":"Петровець","zh-CN":"Петровец"}}]},{"name":"Plasnica Municipality","state_code":"61","latitude":"41.45463490","longitude":"21.10565390","cities":[{"name":"Lisičani","latitude":"41.46139000","longitude":"21.05444000","native":"Лисичани","translations":{"ar":"ليسيتشاني","br":"Lisičani","de":"Lisičani","es":"Lisičani","fa":"لیسیچانی","fr":"Lisičani","hi":"लिसिकानी","hr":"Lisičani","it":"Lisičani","ja":"リシチャニ","ko":"리시차니","nl":"Lisičani","pl":"Lisičani","pt":"Lisičani","pt-BR":"Lisičani","ru":"Лисичани","tr":"Lisičani","uk":"Лисичани","zh-CN":"利西查尼"}},{"name":"Plasnica","latitude":"41.46722000","longitude":"21.12306000","native":"Пласница","translations":{"ar":"بلاسنيكا","br":"Plasnica","de":"Plasnica","es":"Plasnica","fa":"پلاسنیکا","fr":"Plasnica","hi":"प्लस्निका","hr":"Plasnica","it":"Plasnica","ja":"プラスニカ","ko":"플라스니카","nl":"Plasnica","pl":"Plasnica","pt":"Plásnica","pt-BR":"Plásnica","ru":"Пласница","tr":"Plasnica","uk":"Пласніца","zh-CN":"普拉斯尼察"}}]},{"name":"Prilep Municipality","state_code":"62","latitude":"41.26931420","longitude":"21.71376940","cities":[{"name":"Kanatlarci","latitude":"41.21028000","longitude":"21.50333000","native":"Канатларци","translations":{"ar":"كاناتلارجي","br":"Kanatlarci","de":"Kanatlarci","es":"Kanatlarci","fa":"کاناتلارچی","fr":"Kanatlarci","hi":"कनाटलार्सी","hr":"Kanatlarci","it":"Kanatlarci","ja":"カナトラルチ","ko":"카나틀라르치","nl":"Kanatlarci","pl":"Kanatlarci","pt":"Kanatlarci","pt-BR":"Kanatlarci","ru":"Канатларчи","tr":"Kanatlarcı","uk":"Канатларчі","zh-CN":"卡纳特拉尔奇"}},{"name":"Markov Grad","latitude":"41.35722000","longitude":"21.53250000","native":"Марков Град","translations":{"ar":"ماركوف غراد","br":"Diplom Markov","de":"Markov Grad","es":"Grado de Markov","fa":"مارکوف گراد","fr":"Grad de Markov","hi":"मार्कोव ग्रैड","hr":"Markov Grad","it":"Markov Grad","ja":"マルコフ・グラッド","ko":"마르코프 그라드","nl":"Markov Grad","pl":"Markov Grad","pt":"Graduado de Markov","pt-BR":"Graduado de Markov","ru":"Марков Град","tr":"Markov Mezunu","uk":"Марков Град","zh-CN":"马尔可夫梯度"}},{"name":"Prilep","latitude":"41.34514000","longitude":"21.55504000","native":"Прилеп","translations":{"ar":"بريليب","br":"Prilep","de":"Prilep","es":"Prilep","fa":"پریلِپ","fr":"Prilep","hi":"प्रिलेप","hr":"Prilep","it":"Prilep","ja":"プリレプ","ko":"프릴렙","nl":"Prilep","pl":"Prilep","pt":"Prilepo","pt-BR":"Prilepo","ru":"Прилеп","tr":"Pirlepe","uk":"Прилеп","zh-CN":"普里莱普"}},{"name":"Topolčani","latitude":"41.22772000","longitude":"21.43113000","native":"Тополчани","translations":{"ar":"توبولتشاني","br":"Topolčani","de":"Topolčani","es":"Topolčani","fa":"توپولچانی","fr":"Topolčani","hi":"टोपोलचानी","hr":"Topolčani","it":"Topolčani","ja":"トポルチャニ","ko":"토폴차니","nl":"Topolčani","pl":"Topolčani","pt":"Topolčani","pt-BR":"Topolčani","ru":"Тополчани","tr":"Topolčani","uk":"Топольчани","zh-CN":"托波尔查尼"}}]},{"name":"Probištip Municipality","state_code":"63","latitude":"41.95891460","longitude":"22.16686700","cities":[{"name":"Probishtip","latitude":"42.00306000","longitude":"22.17861000","native":"Пробиштип","translations":{"ar":"بروبيشتيب","br":"Probishtip","de":"Probishtip","es":"Consejo de prueba","fa":"پروبی تیپ","fr":"Conseil interdit","hi":"प्रोबिशटिप","hr":"Probishtip","it":"Suggerimento di Probishtip","ja":"プロビシュティップ","ko":"프로비쉬팁","nl":"Probishtip","pl":"Probishtip","pt":"Dica de Probish","pt-BR":"Dica de Probish","ru":"Пробиштип","tr":"Probishtip","uk":"Пробіштіп","zh-CN":"普罗比什蒂普"}},{"name":"Zletovo","latitude":"41.98861000","longitude":"22.23611000","native":"Злетово","translations":{"ar":"زليتوفو","br":"Zletovo","de":"Zletovo","es":"Zletovo","fa":"زلتوو","fr":"Zletovo","hi":"ज़्लेटोवो","hr":"Zletovo","it":"Zletovo","ja":"ズレトヴォ","ko":"즐레토보","nl":"Zletovo","pl":"Zletovo","pt":"Zletovo","pt-BR":"Zletovo","ru":"Злетово","tr":"Zletovo","uk":"Злетово","zh-CN":"兹列托沃"}}]},{"name":"Radoviš Municipality","state_code":"64","latitude":"41.64955310","longitude":"22.47682870","cities":[{"name":"Oraovica","latitude":"41.62583000","longitude":"22.51333000","native":"Ораовица","translations":{"ar":"أوراوفيكا","br":"Oraovica","de":"Oraovica","es":"Oraovica","fa":"اوراوویکا","fr":"Oraovica","hi":"ओराओविका","hr":"Oraovica","it":"Oraovica","ja":"オラオヴィツァ","ko":"오라오비차","nl":"Oraovica","pl":"Oraovica","pt":"Oraovica","pt-BR":"Oraovica","ru":"Ораовица","tr":"Oraovica","uk":"Ораовіца","zh-CN":"奥拉奥维察"}},{"name":"Podareš","latitude":"41.61389000","longitude":"22.54222000","native":"Подареш","translations":{"ar":"بوداريش","br":"Podareš","de":"Podareš","es":"Podareš","fa":"پودارش","fr":"Podareš","hi":"पोडारेस","hr":"Podareš","it":"Podareš","ja":"ポダレシュ","ko":"포다레시","nl":"Podareš","pl":"Podareš","pt":"Podareš","pt-BR":"Podareš","ru":"Подареш","tr":"Podareš","uk":"Подареш","zh-CN":"波达雷什"}},{"name":"Radovis","latitude":"41.63833000","longitude":"22.46472000","native":"Радовиш","translations":{"ar":"رادوفيس","br":"Radovis","de":"Radovis","es":"Radovis","fa":"رادوویس","fr":"Radovis","hi":"रैडोविस","hr":"Radoviš","it":"Radovis","ja":"ラドヴィス","ko":"라도비스","nl":"Radovis","pl":"Radowis","pt":"Radovis","pt-BR":"Radovis","ru":"Радовис","tr":"Radovis","uk":"Радовіс","zh-CN":"拉多维斯"}}]},{"name":"Rankovce Municipality","state_code":"65","latitude":"42.18081410","longitude":"22.09532970","cities":[{"name":"Ранковце","latitude":"42.16964000","longitude":"22.11617000","native":"Ранковце","translations":{"ar":"Ранковце","br":"Ранковце","de":"Ранковце","es":"Rankovtsy","fa":"رانکووسکی","fr":"Rankovtsé","hi":"Ранковце","hr":"Rankovce","it":"Ранковце","ja":"ランコフツェ","ko":"란코브체","nl":"Ранковце","pl":"Ранковце","pt":"Rankovse","pt-BR":"Rankovse","ru":"Ранковце","tr":"Ранковце","uk":"Ранківце","zh-CN":"Ранковце"}}]},{"name":"Resen Municipality","state_code":"66","latitude":"40.93680930","longitude":"21.04604070","cities":[{"name":"Grnčari","latitude":"41.01722000","longitude":"21.05333000","native":"Грнчари","translations":{"ar":"جرنكاري","br":"Grnčari","de":"Grnčari","es":"Grnčari","fa":"گرنچاری","fr":"Grnčari","hi":"ग्रनचारी","hr":"Grnčari","it":"Grnčari","ja":"グルンチャリ","ko":"그른차리","nl":"Grnčari","pl":"Grnčari","pt":"Grnčari","pt-BR":"Grnčari","ru":"Грнчари","tr":"Grnčari","uk":"Грнчарі","zh-CN":"格恩查里"}},{"name":"Jankovec","latitude":"41.11028000","longitude":"21.01139000","native":"Јанковец","translations":{"ar":"يانكوفيتش","br":"Jankovec","de":"Jankovec","es":"Jankovec","fa":"یانکووچ","fr":"Jankovec","hi":"जानकोवेक","hr":"Jankovec","it":"Jankovec","ja":"ヤンコベック","ko":"얀코베츠","nl":"Jankovec","pl":"Jankovec","pt":"Jankovec","pt-BR":"Jankovec","ru":"Янковец","tr":"Jankovec","uk":"Янковець","zh-CN":"扬科维奇"}},{"name":"Krani","latitude":"40.93934000","longitude":"21.10911000","native":"Крани","translations":{"ar":"كراني","br":"Krani","de":"Krani","es":"Krani","fa":"کرانی","fr":"Krani","hi":"क्रानी","hr":"Krani","it":"Krani","ja":"クラニ","ko":"크라니","nl":"Krani","pl":"Krani","pt":"Krani","pt-BR":"Krani","ru":"Крани","tr":"Krani","uk":"Крані","zh-CN":"克拉尼"}},{"name":"Resen","latitude":"41.08934000","longitude":"21.01092000","native":"Ресен","translations":{"ar":"ريسن","br":"Resen","de":"Resen","es":"Reenviar","fa":"رسن","fr":"Resen","hi":"रेसेन","hr":"Resen","it":"Resen","ja":"レセン","ko":"레센","nl":"Resen","pl":"Resen","pt":"Resen","pt-BR":"Resen","ru":"Ресен","tr":"Ressen","uk":"Ресен","zh-CN":"雷森"}}]},{"name":"Rosoman Municipality","state_code":"67","latitude":"41.48480060","longitude":"21.88070640","cities":[{"name":"Rosoman","latitude":"41.51671000","longitude":"21.94585000","native":"Росоман","translations":{"ar":"روسومان","br":"Rosoman","de":"Rosoman","es":"Rosoman","fa":"روزومن","fr":"Rosoman","hi":"रोसोमैन","hr":"Rosoman","it":"Rosoman","ja":"ロソマン","ko":"로소만","nl":"Rosoman","pl":"Rosoman","pt":"Rosoman","pt-BR":"Rosoman","ru":"Росоман","tr":"Rosoman","uk":"Росоман","zh-CN":"罗索曼"}}]},{"name":"Saraj Municipality","state_code":"68","latitude":"41.98694960","longitude":"21.26065540","cities":[{"name":"Bukovik","latitude":"41.96833000","longitude":"21.23694000","native":"Буковиќ","translations":{"ar":"بوكوفيك","br":"Bukovik","de":"Bukovik","es":"Bukovik","fa":"بوکویک","fr":"Bukovik","hi":"बुकोविक","hr":"Bukovik","it":"Bukovik","ja":"ブコビク","ko":"부코빅","nl":"Bukovik","pl":"Bukowik","pt":"Bukovik","pt-BR":"Bukovik","ru":"Буковик","tr":"Bukovik","uk":"Буковик","zh-CN":"布科维克"}},{"name":"Grčec","latitude":"41.98806000","longitude":"21.33028000","native":"Грчец","translations":{"ar":"جريتشيك","br":"Grčec","de":"Grčec","es":"Grčec","fa":"گرچ","fr":"Grec","hi":"ग्रेचेक","hr":"Grčec","it":"Grčec","ja":"グルチェツ","ko":"그르체츠","nl":"Grieks","pl":"Grčec","pt":"Grčec","pt-BR":"Grčec","ru":"Грчец","tr":"Yunanca","uk":"Грчец","zh-CN":"格切茨"}},{"name":"Kondovo","latitude":"42.01167000","longitude":"21.31361000","native":"Кондово","translations":{"ar":"كوندوفو","br":"Kondovo","de":"Kondovo","es":"Kondovo","fa":"کندوو","fr":"Kondovo","hi":"कोंडोवो","hr":"Kondovo","it":"Kondovo","ja":"コンドヴォ","ko":"콘도보","nl":"Kondovo","pl":"Kondowo","pt":"Kondovo","pt-BR":"Kondovo","ru":"Кондово","tr":"Kondovo","uk":"Кондово","zh-CN":"孔多沃"}},{"name":"Krušopek","latitude":"41.97833000","longitude":"21.35444000","native":"Крушопек","translations":{"ar":"كروشوبيك","br":"Krušopek","de":"Krušopek","es":"Krušopek","fa":"کروشوپک","fr":"Krušopek","hi":"क्रुसोपेक","hr":"Krušopek","it":"Krušopek","ja":"クルショペック","ko":"크루쇼펙","nl":"Krušopek","pl":"Krušopek","pt":"Krušopek","pt-BR":"Krušopek","ru":"Крушопек","tr":"Krušopek","uk":"Крушопек","zh-CN":"克鲁索佩克"}}]},{"name":"Sopište Municipality","state_code":"70","latitude":"41.86384920","longitude":"21.30834990","cities":[{"name":"Сопиште","latitude":"41.95472000","longitude":"21.42750000","native":"Сопиште","translations":{"ar":"Сопиште","br":"Сопиште","de":"Сопиште","es":"Сопиште","fa":"سوپیشت","fr":"Сопиште","hi":"Сопиште","hr":"Sopište","it":"Sopishte","ja":"ソピシェ","ko":"소피슈테","nl":"Сопиште","pl":"Spopist","pt":"Sopishe","pt-BR":"Sopishe","ru":"Сопиште","tr":"Сопиште","uk":"Сопіше","zh-CN":"Сопиште"}}]},{"name":"Staro Nagoričane Municipality","state_code":"71","latitude":"42.21916920","longitude":"21.90455410","cities":[{"name":"Старо Нагоричане","latitude":"42.19806000","longitude":"21.82861000","native":"Старо Нагоричане","translations":{"ar":"ستار ناغوريتشاني","br":"Старо Нагоричане","de":"Старо Нагоричане","es":"Старо Нагоричане","fa":"Staro Nagoricane","fr":"Старо Нагоричане","hi":"स्टारो नैरोप्रोनिक","hr":"Staro Nagoričane","it":"Staro Нагоричане","ja":"Старо Нагоричане","ko":"스타로 나고리차네","nl":"Dit is het geval","pl":"Старо Нагоричане","pt":"Старо Нагоричане","pt-BR":"Старо Нагоричане","ru":"Старо Нагоричане","tr":"Старо Нагоричане","uk":"Старо Нагоричане","zh-CN":"斯塔罗·塔戈里察尼埃"}}]},{"name":"Štip Municipality","state_code":"83","latitude":"41.70792970","longitude":"22.19071220","cities":[{"name":"Shtip","latitude":"41.74583000","longitude":"22.19583000","native":"Штип","translations":{"ar":"نصيحة","br":"Shtip","de":"Tipp","es":"Punta de lanza","fa":"شِتیپ","fr":"Shtip","hi":"श्टिप","hr":"Štip","it":"Shtip","ja":"シュティップ","ko":"슈팁","nl":"Shtip","pl":"Sztip","pt":"Shtip","pt-BR":"Shtip","ru":"Штип","tr":"İştip","uk":"Штіп","zh-CN":"什蒂普"}}]},{"name":"Struga Municipality","state_code":"72","latitude":"41.31737440","longitude":"20.66456830","cities":[{"name":"Delogožda","latitude":"41.25728000","longitude":"20.72180000","native":"Делогожда","translations":{"ar":"ديلوجوزدا","br":"Delogožda","de":"Delogožda","es":"Delogožda","fa":"دلوگوژدا","fr":"Délogožda","hi":"डेलोगोज़्दा","hr":"Delogožda","it":"Delogožda","ja":"デロゴジュダ","ko":"델로고즈다","nl":"Delogožda","pl":"Delogožda","pt":"Delogožda","pt-BR":"Delogožda","ru":"Делогожда","tr":"Delogožda","uk":"Делогоджа","zh-CN":"德洛戈日达"}},{"name":"Labunista","latitude":"41.26861000","longitude":"20.59611000","native":"Лабуништа","translations":{"ar":"لابونيستا","br":"Labunista","de":"Labunista","es":"Labunista","fa":"لابونیستا","fr":"Labuniste","hi":"लाबुनिस्टा","hr":"Labunista","it":"Labunista","ja":"ラブニスタ","ko":"라부니스타","nl":"Labunista","pl":"Labunista","pt":"Labunista","pt-BR":"Labunista","ru":"Лабуниста","tr":"Labunista","uk":"Лабуніста","zh-CN":"拉布尼斯塔"}},{"name":"Lukovo","latitude":"41.35339000","longitude":"20.60637000","native":"Луково","translations":{"ar":"لوكوفو","br":"Lukovo","de":"Lukovo","es":"Lukovo","fa":"لوکووو","fr":"Loukovo","hi":"लुकोवो","hr":"Lukovo","it":"Lukovo","ja":"ルコヴォ","ko":"루코보","nl":"Lukovo","pl":"Łukowo","pt":"Lukovo","pt-BR":"Lukovo","ru":"Луково","tr":"Lukovo","uk":"Луково","zh-CN":"卢科沃"}},{"name":"Mislesevo","latitude":"41.18500000","longitude":"20.70861000","native":"Мислешево","translations":{"ar":"ميسليسيفو","br":"Mislesevo","de":"Mislesevo","es":"Mislesevo","fa":"میسلسوو","fr":"Mislesevo","hi":"मिस्लेसेवो","hr":"Misleševo","it":"Mislesevo","ja":"ミスレセヴォ","ko":"미슬레세보","nl":"Mislesevo","pl":"Mislesevo","pt":"Mislesevo","pt-BR":"Mislesevo","ru":"Мислесово","tr":"Mislesevo","uk":"Міслешево","zh-CN":"米斯莱舍沃"}},{"name":"Oktisi","latitude":"41.23250000","longitude":"20.60722000","native":"Октиси","translations":{"ar":"أوكتيسي","br":"Oktisi","de":"Oktisi","es":"Oktisi","fa":"اوکتیسی","fr":"Oktisi","hi":"ओक्टिसी","hr":"Oktisi","it":"Oktisi","ja":"オクティシ","ko":"옥티시","nl":"Oktisi","pl":"Oktisi","pt":"Oktisi","pt-BR":"Oktisi","ru":"Октиси","tr":"Oktisi","uk":"Октісі","zh-CN":"奥克蒂西"}},{"name":"Radolista","latitude":"41.16417000","longitude":"20.62333000","native":"Радолиста","translations":{"ar":"رادوليستا","br":"Radolista","de":"Radolista","es":"Radolista","fa":"رادولیستا","fr":"Radoliste","hi":"राडोलिस्टा","hr":"Radolista","it":"Radolista","ja":"ラドリスタ","ko":"라돌리스타","nl":"Radolista","pl":"Radolista","pt":"Radolista","pt-BR":"Radolista","ru":"Радолиста","tr":"Radolista","uk":"Радоліста","zh-CN":"拉多利斯塔"}},{"name":"Struga","latitude":"41.17799000","longitude":"20.67784000","native":"Струга","translations":{"ar":"ستروغا","br":"Struga","de":"Struga","es":"Struga","fa":"استروگا","fr":"Struga","hi":"स्त्रुगा","hr":"Struga","it":"Struga","ja":"ストルガ","ko":"스트루가","nl":"Struga","pl":"Struga","pt":"Struga","pt-BR":"Struga","ru":"Струга","tr":"Struga","uk":"Струга","zh-CN":"斯特鲁加"}},{"name":"Velesta","latitude":"41.24083000","longitude":"20.64389000","native":"Велешта","translations":{"ar":"فيليستا","br":"Velesta","de":"Velesta","es":"Velesta","fa":"ولستا","fr":"Velesta","hi":"वेलेस्टा","hr":"Velesta","it":"Velesta","ja":"ヴェレスタ","ko":"벨레스타","nl":"Velesta","pl":"Velesta","pt":"Velesta","pt-BR":"Velesta","ru":"Велеста","tr":"Velesta","uk":"Велеста","zh-CN":"韦莱斯塔"}}]},{"name":"Strumica Municipality","state_code":"73","latitude":"41.43780040","longitude":"22.64274280","cities":[{"name":"Kuklis","latitude":"41.40528000","longitude":"22.66528000","native":"Куклис","translations":{"ar":"كوكليس","br":"Kuklis","de":"Kuklis","es":"Kuklis","fa":"کوکلیس","fr":"Kuklis","hi":"कुकलिस","hr":"Kuklis","it":"Kuklis","ja":"ククリス","ko":"쿠클리스","nl":"Kuklis","pl":"Kuklis","pt":"Kuklis","pt-BR":"Kuklis","ru":"Куклис","tr":"Kuklis","uk":"Кукліс","zh-CN":"库克利斯"}},{"name":"Murtino","latitude":"41.41537000","longitude":"22.72589000","native":"Муртино","translations":{"ar":"مورتينو","br":"Murtino","de":"Murtino","es":"Murtino","fa":"مورتینو","fr":"Murtino","hi":"मर्टिनो","hr":"Murtino","it":"Murtino","ja":"ムルティーノ","ko":"무르티노","nl":"Murtino","pl":"Murtino","pt":"Murtino","pt-BR":"Murtino","ru":"Муртино","tr":"Murtino","uk":"Муртіно","zh-CN":"穆尔蒂诺"}},{"name":"Strumica","latitude":"41.43750000","longitude":"22.64333000","native":"Струмица","translations":{"ar":"ستروميكا","br":"Strumica","de":"Strumica","es":"Strumica","fa":"استرومیکا","fr":"Stroumita","hi":"स्ट्रुमिका","hr":"Strumica","it":"Strumica","ja":"ストルミツァ","ko":"스트루미차","nl":"Strumica","pl":"Strumica","pt":"Estrúmica","pt-BR":"Estrúmica","ru":"Струмица","tr":"Ustrumca","uk":"Струмиця","zh-CN":"斯特鲁米察"}},{"name":"Veljusa","latitude":"41.47611000","longitude":"22.56750000","native":"Вељуса","translations":{"ar":"فيليوسا","br":"Veljusa","de":"Veljusa","es":"Veljusa","fa":"ولیوسا","fr":"Veljusa","hi":"वेलजुसा","hr":"Veljusa","it":"Veljusa","ja":"ヴェルジュサ","ko":"벨주사","nl":"Veljusa","pl":"Veljusa","pt":"Veljusa","pt-BR":"Veljusa","ru":"Велюса","tr":"Veljusa","uk":"Вельюса","zh-CN":"维尔尤萨"}}]},{"name":"Studeničani Municipality","state_code":"74","latitude":"41.92256390","longitude":"21.53639650","cities":[{"name":"Batinci","latitude":"41.91909000","longitude":"21.47978000","native":"Батинци","translations":{"ar":"باتينجي","br":"Batinci","de":"Batinci","es":"Batinci","fa":"باتینجی","fr":"Batinci","hi":"बतिंसी","hr":"Batinci","it":"Batinci","ja":"バティンチ","ko":"바틴치","nl":"Batinci","pl":"Batinci","pt":"Batinci","pt-BR":"Batinci","ru":"Батинци","tr":"Batıncı","uk":"Батинці","zh-CN":"巴廷哲"}},{"name":"Dolno Količani","latitude":"41.88639000","longitude":"21.48556000","native":"Долно Количани","translations":{"ar":"دولنو كوليتشاني","br":"Dolno Količani","de":"Dolno Količani","es":"Dolno Količani","fa":"دولنو کولیچانی","fr":"Dolno Količani","hi":"डोल्नो कोलीचानी","hr":"Dolno Količani","it":"Dolno Količani","ja":"ドルノ・コリチャニ","ko":"돌노 콜리차니","nl":"Dolno Količani","pl":"Dolno Količani","pt":"Dolno Količani","pt-BR":"Dolno Količani","ru":"Долно Количани","tr":"Dolno Količani","uk":"Дольно-Колічані","zh-CN":"多尔诺科利查尼"}},{"name":"Morani","latitude":"41.90978000","longitude":"21.54997000","native":"Морани","translations":{"ar":"موراني","br":"Morani","de":"Morani","es":"Morani","fa":"مورانی","fr":"Morani","hi":"मोरानी","hr":"Morani","it":"Morani","ja":"モラニ","ko":"모라니","nl":"Morani","pl":"Morani","pt":"Morani","pt-BR":"Morani","ru":"Морани","tr":"Morani","uk":"Морані","zh-CN":"莫拉尼"}},{"name":"Studeničane","latitude":"41.92208000","longitude":"21.53483000","native":"Студеничане","translations":{"ar":"ستودينيكاني","br":"Studierien","de":"Studeničane","es":"Studeničane","fa":"دانشجو","fr":"Studeničane","hi":"स्टुडेनिकेन","hr":"Studeničane","it":"Studeničane","ja":"ストゥデニチャネ","ko":"스투데니차네","nl":"Studeničane","pl":"Studeničane","pt":"Estudantes","pt-BR":"Estudantes","ru":"Студеничане","tr":"Studeničane","uk":"Студенічане","zh-CN":"斯图德尼恰内"}}]},{"name":"Šuto Orizari Municipality","state_code":"84","latitude":"42.02904160","longitude":"21.40970270","cities":[{"name":"Šuto Orizare","latitude":"42.04000000","longitude":"21.42500000","native":"Шуто Оризаре","translations":{"ar":"سوتو أوريزاري","br":"Šuto Orizare","de":"Šuto Orizare","es":"Šuto Orizare","fa":"شوتو اوریزاره","fr":"Šuto Orizare","hi":"शुतो ओरिज़ारे","hr":"Šuto Orizare","it":"Šuto Orizare","ja":"シュト・オリザレ","ko":"슈토 오리자레","nl":"Šuto Orizare","pl":"Šuto Orizare","pt":"Šuto Orizare","pt-BR":"Šuto Orizare","ru":"Šuto Orizare","tr":"Šuto Orizare","uk":"Шуто Орізаре","zh-CN":"舒托·奥里萨雷"}}]},{"name":"Sveti Nikole Municipality","state_code":"69","latitude":"41.89803120","longitude":"21.99994350","cities":[{"name":"Gorobinci","latitude":"41.87507000","longitude":"21.87599000","native":"Горобинци","translations":{"ar":"جوروبينشي","br":"Gorobinci","de":"Gorobinci","es":"Gorobinci","fa":"گوروبینچی","fr":"Gorobinci","hi":"गोरोबिन्सी","hr":"Gorobinci","it":"Gorobinci","ja":"ゴロビンチ","ko":"고로빈치","nl":"Gorobinci","pl":"Gorobinci","pt":"Gorobini","pt-BR":"Gorobini","ru":"Горобинцы","tr":"Gorobinci","uk":"Горобинці","zh-CN":"戈罗宾奇"}},{"name":"Sveti Nikole","latitude":"41.86956000","longitude":"21.95274000","native":"Свети Николе","translations":{"ar":"سفيتي نيكول","br":"Sveti Nikole","de":"Sveti Nikole","es":"Sveti Nikole","fa":"سوتی نیکول","fr":"Sveti Nikole","hi":"स्वेती निकोले","hr":"Sveti Nikola","it":"Sveti Nikole","ja":"スヴェティ・ニコレ","ko":"스베티 니콜레","nl":"Sveti Nikole","pl":"Święta Nikole","pt":"Sveti Nikole","pt-BR":"Sveti Nikole","ru":"Свети Николь","tr":"Aziz Nikole","uk":"Светі Нікола","zh-CN":"圣尼古拉"}}]},{"name":"Tearce Municipality","state_code":"75","latitude":"42.07775110","longitude":"21.05349230","cities":[{"name":"Nerašte","latitude":"42.10711000","longitude":"21.10810000","native":"Нераште","translations":{"ar":"نيراشتي","br":"Nerašte","de":"Nerašte","es":"Nerašte","fa":"نراشت","fr":"Nerašte","hi":"नेरास्टे","hr":"Nerašte","it":"Nerašte","ja":"ネラシュテ","ko":"네라슈테","nl":"Nerašte","pl":"Nerašte","pt":"Nerašte","pt-BR":"Nerašte","ru":"Нераште","tr":"Nerašte","uk":"Нераште","zh-CN":"内拉什特"}},{"name":"Orashac","latitude":"42.06250000","longitude":"21.79972000","native":"Орашац","translations":{"ar":"أوراشاك","br":"Orashac","de":"Orashac","es":"Orashac","fa":"اوراشاک","fr":"Orashac","hi":"ओराशैक","hr":"Orašac","it":"Orashac","ja":"オラシャック","ko":"오라샤크","nl":"Orashac","pl":"Orasac","pt":"Orashac","pt-BR":"Orashac","ru":"Орашац","tr":"Orashac","uk":"Орашац","zh-CN":"奥拉沙克"}},{"name":"Pršovce","latitude":"42.08336000","longitude":"21.05994000","native":"Пршовце","translations":{"ar":"برشوفتشي","br":"Pršovce","de":"Pršovce","es":"Pršovce","fa":"پرشوفسه","fr":"Pršovce","hi":"प्रसोव्से","hr":"Pršovce","it":"Pršovce","ja":"プルショヴツェ","ko":"프르쇼브체","nl":"Pršovce","pl":"Pršovce","pt":"Pršovce","pt-BR":"Pršovce","ru":"Пршовце","tr":"Pršovce","uk":"Пршовце","zh-CN":"普尔绍夫采"}},{"name":"Slatino","latitude":"42.06784000","longitude":"21.03902000","native":"Слатино","translations":{"ar":"سلاتينو","br":"Slatino","de":"Slatino","es":"Latino","fa":"اسلاتینو","fr":"Slatino","hi":"स्लैटिनो","hr":"Slatino","it":"Slatino","ja":"スラティーノ","ko":"슬라티노","nl":"Slatino","pl":"Slatino","pt":"Slatino","pt-BR":"Slatino","ru":"Слатино","tr":"Slatino","uk":"Слатіно","zh-CN":"斯拉蒂诺"}},{"name":"Tearce","latitude":"42.07666000","longitude":"21.05310000","native":"Теарце","translations":{"ar":"تيرس","br":"Tearce","de":"Tearce","es":"Tearce","fa":"تِرس","fr":"Tearce","hi":"टर्स","hr":"Tearce","it":"Tearce","ja":"ティアス","ko":"티어스","nl":"Tearce","pl":"Tearce","pt":"Rasgar","pt-BR":"Rasgar","ru":"Тирс","tr":"Gözyaşı","uk":"Тірс","zh-CN":"蒂尔斯"}}]},{"name":"Tetovo Municipality","state_code":"76","latitude":"42.02748600","longitude":"20.95066360","cities":[{"name":"Dobrošte","latitude":"42.10333000","longitude":"21.07778000","native":"Доброште","translations":{"ar":"دوبروشت","br":"Dobrošte","de":"Dobrošte","es":"Dobrošte","fa":"دوبرشته","fr":"Dobrošte","hi":"डोब्रोस्टे","hr":"Dobrošte","it":"Dobrošte","ja":"ドブロシュテ","ko":"도브로슈테","nl":"Dobrošte","pl":"Dobrošte","pt":"Dobrošte","pt-BR":"Dobrošte","ru":"Доброште","tr":"Dobrošte","uk":"Доброште","zh-CN":"多布罗什特"}},{"name":"Džepčište","latitude":"42.03287000","longitude":"20.99817000","native":"Џепчиште","translations":{"ar":"دزيبست","br":"Džepčište","de":"Džepčište","es":"Džepčište","fa":"ژپچیشت","fr":"Džepčište","hi":"Džepčište","hr":"Džepčište","it":"Džepčište","ja":"ジェプチシュテ","ko":"제프치스테","nl":"Džepčište","pl":"Džepčište","pt":"Džepčište","pt-BR":"Džepčište","ru":"Джепчиште","tr":"Džepčište","uk":"Джепчиште","zh-CN":"德热普奇什特"}},{"name":"Golema Rečica","latitude":"41.98803000","longitude":"20.94517000","native":"Голема Речица","translations":{"ar":"جوليما ريتشا","br":"Golema Rečica","de":"Golema Rečica","es":"Golema Rečica","fa":"گولما رچیکا","fr":"Golema Rečica","hi":"गोलेमा रेसिका","hr":"Golema Rečica","it":"Golema Rečica","ja":"ゴレマ・レチツァ","ko":"골레마 레치카","nl":"Golema Rečica","pl":"Golema Rečica","pt":"Golema Rečica","pt-BR":"Golema Rečica","ru":"Голема Речица","tr":"Golema Rečica","uk":"Голема Речиця","zh-CN":"戈莱马·雷奇卡"}},{"name":"Pirok","latitude":"41.91083000","longitude":"20.91056000","native":"Пирок","translations":{"ar":"بيروك","br":"Pirok","de":"Pirok","es":"Pirok","fa":"پیروک","fr":"Pirok","hi":"पिरोक","hr":"Pirok","it":"Pirok","ja":"ピロク","ko":"피로크","nl":"Pirok","pl":"Pirok","pt":"Pirok","pt-BR":"Pirok","ru":"Пирок","tr":"Pirok","uk":"Пірок","zh-CN":"皮罗克"}},{"name":"Poroj","latitude":"42.02913000","longitude":"20.99266000","native":"Порој","translations":{"ar":"بورو","br":"Poroj","de":"Poroj","es":"Poroj","fa":"پوروژ","fr":"Poroj","hi":"पोरोज","hr":"Poroj","it":"Poroj","ja":"ポロジ","ko":"포로지","nl":"Poroj","pl":"Poroj","pt":"Poroj","pt-BR":"Poroj","ru":"Порож","tr":"Poroj","uk":"Порой","zh-CN":"波罗伊"}},{"name":"Selce","latitude":"42.03482000","longitude":"20.94035000","native":"Селце","translations":{"ar":"اختيار","br":"Selce","de":"Selce","es":"Seleccionar","fa":"سلسه","fr":"Sélectionner","hi":"सेल्से","hr":"Selce","it":"Selce","ja":"セルセ","ko":"셀세","nl":"Selce","pl":"Selce","pt":"Selce","pt-BR":"Selce","ru":"Селце","tr":"Selce","uk":"Селце","zh-CN":"塞尔切"}},{"name":"Šipkovica","latitude":"42.03500000","longitude":"20.91556000","native":"Шипковица","translations":{"ar":"سيبكوفيكا","br":"Šipkovica","de":"Šipkovica","es":"Šipkovica","fa":"شیپکوویچ","fr":"Šipkovica","hi":"शिपकोविका","hr":"Šipkovica","it":"Šipkovica","ja":"シプコビツァ","ko":"시프코비차","nl":"Šipkovica","pl":"Šipkovica","pt":"Šipkovica","pt-BR":"Šipkovica","ru":"Шипковица","tr":"Şipkovica","uk":"Шипковиця","zh-CN":"希普科维察"}},{"name":"Tetovo","latitude":"42.00973000","longitude":"20.97155000","native":"Тетово","translations":{"ar":"تيتوفو","br":"Tetovo","de":"Tetovo","es":"Tetovo","fa":"تتوو","fr":"Tetovo","hi":"टेटोवो","hr":"Tetovo","it":"Tetovo","ja":"テトヴォ","ko":"테토보","nl":"Tetovo","pl":"Tetowo","pt":"Tetovo","pt-BR":"Tetovo","ru":"Тетово","tr":"Kalkandelen","uk":"Тетово","zh-CN":"泰托沃"}}]},{"name":"Valandovo Municipality","state_code":"10","latitude":"41.32119090","longitude":"22.50066930","cities":[{"name":"Pirava","latitude":"41.32042000","longitude":"22.53047000","native":"Пирава","translations":{"ar":"بيرافا","br":"Pirava","de":"Pirava","es":"Pirava","fa":"پیراوا","fr":"Pirava","hi":"पिरावा","hr":"Pirava","it":"Pirava","ja":"ピラヴァ","ko":"피라바","nl":"Pirava","pl":"Pirava","pt":"Pirava","pt-BR":"Pirava","ru":"Пирава","tr":"Pirava","uk":"Пірава","zh-CN":"皮拉瓦"}},{"name":"Valandovo","latitude":"41.31744000","longitude":"22.56002000","native":"Валандово","translations":{"ar":"فالاندوفو","br":"Valandovo","de":"Valandovo","es":"Valandovo","fa":"والاندوو","fr":"Valandovo","hi":"वलन्दोवो","hr":"Valandovo","it":"Valandovo","ja":"ヴァランドヴォ","ko":"발란도보","nl":"Valandovo","pl":"Walandowo","pt":"Valandovo","pt-BR":"Valandovo","ru":"Валандово","tr":"Valandova","uk":"Валандово","zh-CN":"瓦兰多沃"}}]},{"name":"Vasilevo Municipality","state_code":"11","latitude":"41.47416990","longitude":"22.64221280","cities":[{"name":"Vasilevo","latitude":"41.47408000","longitude":"22.64301000","native":"Василево","translations":{"ar":"فاسيليفو","br":"Vasilevo","de":"Vasilevo","es":"Vasilevo","fa":"واسیلوو","fr":"Vasilevo","hi":"वैसिलेवो","hr":"Vasilevo","it":"Vasilevo","ja":"ヴァシレヴォ","ko":"바실레보","nl":"Vasilevo","pl":"Wasiljewo","pt":"Vasilevo","pt-BR":"Vasilevo","ru":"Василево","tr":"Vasilevo","uk":"Василево","zh-CN":"瓦西里沃"}}]},{"name":"Veles Municipality","state_code":"13","latitude":"41.72744260","longitude":"21.71376940","cities":[{"name":"Gorno Orizari","latitude":"41.68583000","longitude":"21.73475000","native":"Горно Оризари","translations":{"ar":"غورنو أوريزاري","br":"Gorno Orizari","de":"Gorno Orizari","es":"Gorno Orizari","fa":"گورنو اوریزاری","fr":"Gorno Orizari","hi":"गोर्नो ओरिज़ारी","hr":"Gorno Orizari","it":"Gorno Orizari","ja":"ゴルノ・オリザリ","ko":"고르노 오리자리","nl":"Gorno Orizari","pl":"Gorno Orizari","pt":"Gorno Orizari","pt-BR":"Gorno Orizari","ru":"Горно Оризари","tr":"Gorno Orizari","uk":"Горно Орізарі","zh-CN":"戈尔诺·奥里扎里"}},{"name":"Ivankovci","latitude":"41.84889000","longitude":"21.82028000","native":"Иванковци","translations":{"ar":"إيفانكوفسي","br":"Ivankovci","de":"Ivankovci","es":"Ivankovci","fa":"ایوانکوفسکی","fr":"Ivankovci","hi":"इवानकोव्स्की","hr":"Ivankovci","it":"Ivankovci","ja":"イヴァンコヴチ","ko":"이반코브치","nl":"Ivankovci","pl":"Ivankovci","pt":"Ivankovci","pt-BR":"Ivankovci","ru":"Иванковцы","tr":"Ivankovci","uk":"Іванковці","zh-CN":"伊万科夫齐"}},{"name":"Veles","latitude":"41.71556000","longitude":"21.77556000","native":"Велес","translations":{"ar":"فيليس","br":"Veles","de":"Veles","es":"Veles","fa":"ولز","fr":"Vélès","hi":"वेलेस","hr":"Veles","it":"Veles","ja":"ヴェレス","ko":"벨레스","nl":"Veles","pl":"Weles","pt":"Veles","pt-BR":"Veles","ru":"Велес","tr":"Veles","uk":"Велес","zh-CN":"韦莱斯"}}]},{"name":"Vevčani Municipality","state_code":"12","latitude":"41.24075430","longitude":"20.59156490","cities":[{"name":"Vevčani","latitude":"41.24056000","longitude":"20.59333000","native":"Вевчани","translations":{"ar":"فيفتشاني","br":"Vevčani","de":"Vevčani","es":"Vevčani","fa":"ووچانی","fr":"Vevčani","hi":"वेवकानी","hr":"Vevčani","it":"Vevčani","ja":"ヴェヴチャニ","ko":"베브차니","nl":"Vevčani","pl":"Vevčani","pt":"Vevčani","pt-BR":"Vevčani","ru":"Вевчани","tr":"Vevčani","uk":"Вевчани","zh-CN":"韦夫查尼"}}]},{"name":"Vinica Municipality","state_code":"14","latitude":"41.85710200","longitude":"22.57218810","cities":[{"name":"Blatec","latitude":"41.83668000","longitude":"22.57909000","native":"Блатек","translations":{"ar":"بلاتيك","br":"Blatec","de":"Blatec","es":"Blatec","fa":"بلاتک","fr":"Blatec","hi":"ब्लैटेक","hr":"Blatec","it":"Blatec","ja":"ブラテック","ko":"블라텍","nl":"Blatec","pl":"Blatec","pt":"Blatec","pt-BR":"Blatec","ru":"Блатец","tr":"Blatec","uk":"Блатец","zh-CN":"布拉泰克"}},{"name":"Gradec","latitude":"41.85068000","longitude":"22.51132000","native":"Градец","translations":{"ar":"جراديك","br":"Gradec","de":"Gradec","es":"Gradoc","fa":"گرادک","fr":"Gradec","hi":"ग्रेडेक","hr":"Gradec","it":"Gradec","ja":"グラデック","ko":"그라데크","nl":"Gradec","pl":"Gradec","pt":"Gradec","pt-BR":"Gradec","ru":"Градец","tr":"Sınıf","uk":"Градець","zh-CN":"格拉德茨"}},{"name":"Vinica","latitude":"41.88278000","longitude":"22.50917000","native":"Виница","translations":{"ar":"فينيكا","br":"Vinica","de":"Vinica","es":"Vínica","fa":"وینیکا","fr":"Vinica","hi":"विनिका","hr":"Vinica","it":"Vinica","ja":"ヴィニカ","ko":"비니카","nl":"Vinica","pl":"Winica","pt":"Vinica","pt-BR":"Vinica","ru":"Виница","tr":"Vinica","uk":"Вініця","zh-CN":"维尼察"}}]},{"name":"Vraneštica Municipality","state_code":"15","latitude":"41.48290870","longitude":"21.05796320","cities":[]},{"name":"Vrapčište Municipality","state_code":"16","latitude":"41.87911600","longitude":"20.83145000","cities":[{"name":"Dobri Dol","latitude":"41.86520000","longitude":"20.89009000","native":"Добри Дол","translations":{"ar":"دوبري دول","br":"Dobri Dol","de":"Dobri Dol","es":"Dobri Dol","fa":"دوبری دول","fr":"Dobri Dol","hi":"डोबरी डोल","hr":"Dobri Dol","it":"Dobri Dol","ja":"ドブリ・ドル","ko":"도브리 돌","nl":"Dobri Dol","pl":"Dobri Dol","pt":"Dobri Dol","pt-BR":"Dobri Dol","ru":"Добри Дол","tr":"Dobri Dol","uk":"Добрий Дол","zh-CN":"多布里·多尔"}},{"name":"Negotino","latitude":"41.87792000","longitude":"20.88389000","native":"Неготино","translations":{"ar":"نيغوتينو","br":"Negotino","de":"Negotino","es":"Negotino","fa":"نگوتینو","fr":"Négociation","hi":"नेगोतिनो","hr":"Negotino","it":"Negoziato","ja":"ネゴティーノ","ko":"네고티노","nl":"Onderhandelen","pl":"Negotino","pt":"Negociante","pt-BR":"Negociante","ru":"Неготино","tr":"Müzakere","uk":"Неготіно","zh-CN":"内戈蒂诺"}},{"name":"Vrapčište","latitude":"41.83439000","longitude":"20.88563000","native":"Врапчиште","translations":{"ar":"فرابتشيستي","br":"Vrapčište","de":"Vrapčište","es":"Vrapčište","fa":"وراچیشت","fr":"Vrapčište","hi":"व्रप्किस्ते","hr":"Vrapčište","it":"Vrapčište","ja":"ヴラプチシュテ","ko":"브라프치슈테","nl":"Vrapčište","pl":"Vrapčište","pt":"Vrapčište","pt-BR":"Vrapčište","ru":"Врапчиште","tr":"Vrapčište","uk":"Врапчиште","zh-CN":"弗拉普奇什特"}}]},{"name":"Zajas Municipality","state_code":"31","latitude":"41.60303280","longitude":"20.87913430","cities":[]},{"name":"Zelenikovo Municipality","state_code":"32","latitude":"41.87338120","longitude":"21.60272500","cities":[{"name":"Zelenikovo","latitude":"41.88413000","longitude":"21.58848000","native":"Зелениково","translations":{"ar":"زيلينيكوفو","br":"Zelenikovo","de":"Selenikowo","es":"Zelenikovo","fa":"زلنیکوو","fr":"Zelenikovo","hi":"ज़ेलेनिकोवो","hr":"Zelenikovo","it":"Zelenikovo","ja":"ゼレニコヴォ","ko":"젤레니코보","nl":"Zelenikovo","pl":"Zielenikowo","pt":"Zelenikovo","pt-BR":"Zelenikovo","ru":"Зелениково","tr":"Zelenikovo","uk":"Зелениково","zh-CN":"泽列尼科沃"}}]},{"name":"Želino Municipality","state_code":"30","latitude":"41.90065310","longitude":"21.11757670","cities":[{"name":"Dobarce","latitude":"41.95530000","longitude":"21.08875000","native":"Добарце","translations":{"ar":"دوبارسي","br":"Dobarce","de":"Dobarce","es":"Dobarce","fa":"دوبارس","fr":"Dobarce","hi":"डोबार्से","hr":"Dobarce","it":"Dobarce","ja":"ドバルチェ","ko":"도바르체","nl":"Dobarce","pl":"Dobarce","pt":"Dobarce","pt-BR":"Dobarce","ru":"Добарце","tr":"Dobarce","uk":"Добарце","zh-CN":"多巴尔塞"}},{"name":"Larce","latitude":"41.93319000","longitude":"21.12628000","native":"Ларс","translations":{"ar":"لارس","br":"Larce","de":"Larce","es":"Larce","fa":"لارسه","fr":"Larce","hi":"लार्स","hr":"Larce","it":"Larce","ja":"ラルス","ko":"라르스","nl":"Larce","pl":"Larce","pt":"Larce","pt-BR":"Larce","ru":"Ларс","tr":"Larce","uk":"Ларс","zh-CN":"拉尔斯"}},{"name":"Sedlarevo","latitude":"41.88306000","longitude":"21.12750000","native":"Седларево","translations":{"ar":"سيدلاريفو","br":"Sedlarevo","de":"Sedlarevo","es":"Sedlarevo","fa":"سدلارِوو","fr":"Sedlarevo","hi":"सेडलरेवो","hr":"Sedlarevo","it":"Sedlarevo","ja":"セドラレヴォ","ko":"세들라레보","nl":"Sedlarevo","pl":"Sedlarevo","pt":"Sedlarevo","pt-BR":"Sedlarevo","ru":"Седларево","tr":"Sedlarevo","uk":"Седларево","zh-CN":"塞德拉雷沃"}},{"name":"Strimnica","latitude":"41.96719000","longitude":"21.03598000","native":"Стримница","translations":{"ar":"ستريمنيكا","br":"Strimnica","de":"Strimnica","es":"Strimnica","fa":"استریمنیکا","fr":"Strimnica","hi":"स्ट्रिम्निका","hr":"Strimnica","it":"Strimnica","ja":"ストリムニツァ","ko":"스트립니차","nl":"Strimnica","pl":"Strimnica","pt":"Strimnica","pt-BR":"Strimnica","ru":"Стримница","tr":"Strimnica","uk":"Стрімніца","zh-CN":"斯特里姆尼察"}},{"name":"Zelino","latitude":"41.98028000","longitude":"21.06417000","native":"Желино","translations":{"ar":"زيلينو","br":"Zelino","de":"Zelino","es":"Zelino","fa":"زلینو","fr":"Zelino","hi":"ज़ेलिनो","hr":"Želino","it":"Zelino","ja":"ゼリーノ","ko":"젤리노","nl":"Zelino","pl":"Zelino","pt":"Zelino","pt-BR":"Zelino","ru":"Зелино","tr":"Zelino","uk":"Зеліно","zh-CN":"泽利诺"}}]},{"name":"Zrnovci Municipality","state_code":"33","latitude":"41.82282210","longitude":"22.41722560","cities":[{"name":"Zrnovci","latitude":"41.85417000","longitude":"22.44444000","native":"Зрновци","translations":{"ar":"زرنوفشي","br":"Zrnovci","de":"Zrnovci","es":"Zrnovci","fa":"زرنوچی","fr":"Zrnovci","hi":"जर्नोव्स्की","hr":"Žrnovci","it":"Zrnovci","ja":"ズルノフチ","ko":"즈르노프치","nl":"Zrnovci","pl":"Zrnovci","pt":"Zrnovci","pt-BR":"Zrnovci","ru":"Зрновци","tr":"Zrnovci","uk":"Зрновці","zh-CN":"兹尔诺夫奇"}}]}]}