{"code":"MR","states":[{"name":"Adrar Region","state_code":"07","latitude":"19.86521760","longitude":"-12.80547530","cities":[{"name":"Atar","latitude":"20.51770000","longitude":"-13.04857000","native":"أتار","translations":{"br":"Atar","ko":"아타르","pt-BR":"Atar","pt":"Atar","nl":"Atar","hr":"Atar","fa":"عطار","de":"Atar","es":"Atar","fr":"Atar","ja":"アタール","it":"Atar","zh-CN":"阿塔尔","tr":"Atar","ru":"Атар","uk":"Атар","pl":"Atar","hi":"अतर","ar":"أتار"}},{"name":"Chingueṭṭi","latitude":"20.46300000","longitude":"-12.36200000","native":"شنقيط","translations":{"br":"Chingueṭṭi","ko":"칭게티","pt-BR":"Chingueṭṭi","pt":"Chingueṭṭi","nl":"Chingueṭṭi","hr":"Činguṭṭi","fa":"چینگوتی","de":"Chingueṭṭi","es":"Chingueti","fr":"Chingueṭṭi","ja":"チンゲティ","it":"Chingueṭṭi","zh-CN":"钦格蒂","tr":"Çingueṭṭi","ru":"Чингетти","uk":"Чінгетті","pl":"Chingueṭṭi","hi":"Chinguetti","ar":"شنقيط"}}]},{"name":"Assaba Region","state_code":"03","latitude":"16.77595580","longitude":"-11.52480550","cities":[{"name":"Barkéwol","latitude":"16.64039000","longitude":"-12.49849000","native":"باركيول","translations":{"br":"Barkéwol","ko":"바르케볼","pt-BR":"Barkéwol","pt":"Barkéwol","nl":"Barkéwol","hr":"Barkéwol","fa":"بارکول","de":"Barkéwol","es":"Barkéwol","fr":"Barkéwol","ja":"バルケウォル","it":"Barkéwol","zh-CN":"巴克沃尔","tr":"Barkéwol","ru":"Баркеволь","uk":"Баркевол","pl":"Barkéwol","hi":"बार्केवोल","ar":"باركيول"}},{"name":"Kiffa","latitude":"16.62073000","longitude":"-11.40208000","native":"كيفة","translations":{"br":"Kiffa","ko":"키파","pt-BR":"Kiffa","pt":"Kiffa","nl":"Kiffa","hr":"Kiffa","fa":"کیفا","de":"Kiffa","es":"Kiffa","fr":"Kiffa","ja":"キファ","it":"Kiffa","zh-CN":"基法","tr":"Kiffa","ru":"Киффа","uk":"Кіффа","pl":"Kifa","hi":"किफ़ा","ar":"كيفة"}}]},{"name":"Brakna Region","state_code":"05","latitude":"17.23175610","longitude":"-13.17403480","cities":[{"name":"’Elb el Jmel","latitude":"17.01050000","longitude":"-13.97102000","native":"قلب الجميل","translations":{"br":"’Elb el Jmel","ko":"엘브 엘 제멜","pt-BR":"'Elb el Jmel","pt":"'Elb el Jmel","nl":"’Elb el Jmel","hr":"Elb el Jmel","fa":"الب الجمل","de":"’Elb el Jmel","es":"Elb el Jmel","fr":"’Elb el Jmel","ja":"エルブ・エル・ジュメル","it":"’Elb el Jmel","zh-CN":"埃尔布·埃尔·杰梅尔","tr":"’Elb el Jmel","ru":"’Эльб-эль-Джмель","uk":"Ельб-ель-Джмель","pl":"Elb el Jmel","hi":"’एल्ब एल जमेल","ar":"قلب الجميل"}},{"name":"Aleg","latitude":"17.05314000","longitude":"-13.91312000","native":"أليج","translations":{"br":"Aleg","ko":"알레그","pt-BR":"Aleg","pt":"Aleg","nl":"Aleg","hr":"Aleg","fa":"آلگ","de":"Aleg","es":"Aleg","fr":"Aleg","ja":"アレグ","it":"Aleg","zh-CN":"阿莱格","tr":"Aleg","ru":"Алег","uk":"Алег","pl":"Aleg","hi":"एक पांव","ar":"أليج"}}]},{"name":"Dakhlet Nouadhibou","state_code":"08","latitude":"20.59855880","longitude":"-16.25221430","cities":[{"name":"Nouadhibou","latitude":"20.94188000","longitude":"-17.03842000","native":"نواذيبو","translations":{"br":"Nouadhibou","ko":"누아디부","pt-BR":"Nouadhibou","pt":"Nouadhibou","nl":"Nouadhibou","hr":"Nouadhibou","fa":"نوادیبو","de":"Nouadhibou","es":"Nuadibú","fr":"Nouadhibou","ja":"ヌアディブ","it":"Nouadhibou","zh-CN":"努瓦迪布","tr":"Nouadhibou","ru":"Нуадибу","uk":"Нуадібу","pl":"Nawazibu","hi":"नौआदीबौ","ar":"نواذيبو"}}]},{"name":"Gorgol Region","state_code":"04","latitude":"15.97173570","longitude":"-12.62162110","cities":[{"name":"Kaédi","latitude":"16.15027000","longitude":"-13.50370000","native":"كادي","translations":{"br":"Kaédi","ko":"카에디","pt-BR":"Kaédi","pt":"Kaédi","nl":"Kaédi","hr":"Kaédi","fa":"کائدی","de":"Kaédi","es":"Kaédi","fr":"Kaédi","ja":"カエディ","it":"Kaédi","zh-CN":"卡埃迪","tr":"Kaedi","ru":"Каэди","uk":"Каеді","pl":"Kaédi","hi":"काएदी","ar":"كادي"}}]},{"name":"Guidimaka Region","state_code":"10","latitude":"15.25573310","longitude":"-12.25479190","cities":[{"name":"Sélibaby","latitude":"15.15846000","longitude":"-12.18430000","native":"سيليبابي","translations":{"br":"Sélibaby","ko":"셀리바비","pt-BR":"Sélibaby","pt":"Sélibaby","nl":"Sélibaby","hr":"Sélibaby","fa":"سلیبابی","de":"Sélibaby","es":"Sélibaby","fr":"Sélibaby","ja":"セリベイビー","it":"Sélibaby","zh-CN":"塞利巴比","tr":"Sélibaby","ru":"Селибаби","uk":"Селібабі","pl":"Sélibaby","hi":"सेलीबेबी","ar":"سيليبابي"}}]},{"name":"Hodh Ech Chargui Region","state_code":"01","latitude":"18.67370260","longitude":"-7.09287700","cities":[{"name":"Néma","latitude":"16.61702000","longitude":"-7.25649000","native":"نيما","translations":{"br":"Néma","ko":"네마","pt-BR":"Nema","pt":"Nema","nl":"Néma","hr":"Néma","fa":"نما","de":"Néma","es":"Néma","fr":"Néma","ja":"ネマ","it":"Néma","zh-CN":"内玛","tr":"Nema","ru":"Нема","uk":"Нема","pl":"Néma","hi":"नेमा","ar":"نيما"}}]},{"name":"Hodh El Gharbi Region","state_code":"02","latitude":"16.69121490","longitude":"-9.54509740","cities":[{"name":"Aioun","latitude":"16.66140000","longitude":"-9.61490000","native":"عيون","translations":{"br":"Aioun","ko":"아이운","pt-BR":"Aioun","pt":"Aioun","nl":"Aioun","hr":"Aioun","fa":"ایون","de":"Aioun","es":"Aioun","fr":"Aïoun","ja":"アイウン","it":"Aioun","zh-CN":"艾翁","tr":"Aioun","ru":"Аюн","uk":"Айон","pl":"Aioun","hi":"ऐउन","ar":"عيون"}}]},{"name":"Inchiri Region","state_code":"12","latitude":"20.02805610","longitude":"-15.40680790","cities":[{"name":"Akjoujt","latitude":"19.74657000","longitude":"-14.38531000","native":"أكجوجت","translations":{"br":"Akjoujt","ko":"악주트","pt-BR":"Akjoujt","pt":"Akjoujt","nl":"Akjoujt","hr":"Akjoujt","fa":"آکجوجت","de":"Akjoujt","es":"Akjoujt","fr":"Akjoujt","ja":"アクジョウト","it":"Akjoujt","zh-CN":"阿克朱伊特","tr":"Akjoujt","ru":"Акжужт","uk":"Акжуйт","pl":"Akdżudżt","hi":"अकजौज्त","ar":"أكجوجت"}}]},{"name":"Nouakchott-Nord Region","state_code":"14","latitude":"18.11302050","longitude":"-15.89949560","cities":[]},{"name":"Nouakchott-Ouest Region","state_code":"13","latitude":"18.15113570","longitude":"-15.99349100","cities":[]},{"name":"Nouakchott-Sud Region","state_code":"15","latitude":"17.97092880","longitude":"-15.94648740","cities":[]},{"name":"Tagant Region","state_code":"09","latitude":"18.54675270","longitude":"-9.90181310","cities":[]},{"name":"Tiris Zemmour Region","state_code":"11","latitude":"24.57737640","longitude":"-9.90181310","cities":[{"name":"Zouerate","latitude":"22.73542000","longitude":"-12.47134000","native":"الزويرات","translations":{"br":"Zouerate","ko":"주에라테","pt-BR":"Zouerate","pt":"Zouerate","nl":"Zouerate","hr":"Zouerate","fa":"زورات","de":"Zouerate","es":"Zouerate","fr":"Zouerate","ja":"ズエラテ","it":"Zouerato","zh-CN":"祖埃拉特","tr":"Zouerate","ru":"Зуэрат","uk":"Зуерате","pl":"Zouerate","hi":"ज़ौएरेट","ar":"الزويرات"}}]},{"name":"Trarza Region","state_code":"06","latitude":"17.86649640","longitude":"-14.65878210","cities":[{"name":"Rosso","latitude":"16.51378000","longitude":"-15.80503000","native":"روسو","translations":{"br":"Rosso","ko":"로소","pt-BR":"Rosso","pt":"Rosso","nl":"Rood","hr":"Rosso","fa":"روسو","de":"Rosso","es":"Rojo","fr":"Rouge","ja":"ロッソ","it":"Rosso","zh-CN":"罗索","tr":"Kızıl","ru":"Россо","uk":"Россо","pl":"Rosso","hi":"रोसो","ar":"روسو"}},{"name":"Tékane","latitude":"16.60175000","longitude":"-15.34866000","native":"تيكاني","translations":{"br":"Tékane","ko":"테카네","pt-BR":"Tékane","pt":"Tékane","nl":"Tékane","hr":"Tekane","fa":"تکان","de":"Tékane","es":"Tékane","fr":"Tékane","ja":"テカネ","it":"Tékane","zh-CN":"特卡内","tr":"Tekane","ru":"Текан","uk":"Текан","pl":"Tékane","hi":"टेकाने","ar":"تيكاني"}}]}]}