{"code":"MV","states":[{"name":"Addu Atoll","state_code":"01","latitude":"-0.63009950","longitude":"73.15856260","cities":[{"name":"Hithadhoo","latitude":"-0.60000000","longitude":"73.08333000","native":"ހިޓާއޫއޫ","translations":{"ar":"هيثادهو","br":"Hithadhoo","de":"Hithadhoo","es":"Hithadhoo","fa":"هیتادو","fr":"Hithadhoo","hi":"हितधू","hr":"Hithadhoo","it":"Hithadhoo","ja":"ヒタドゥー","ko":"히타두","nl":"Hithadhoo","pl":"Hithadhoo","pt":"Hithadhoo","pt-BR":"Hithadhoo","ru":"Хитадху","tr":"Hithadhoo","uk":"Хітадху","zh-CN":"希塔杜","hy":"Հիտադու"}},{"name":"Meedhoo","latitude":"-0.58333000","longitude":"73.23333000","native":"މީޑްހޫ","translations":{"ar":"ميدو","br":"Meedhoo","de":"Meedhoo","es":"Meedhoo","fa":"میدو","fr":"Meedhoo","hi":"मीधू","hr":"Meedhoo","it":"Meedhoo","ja":"ミードゥー","ko":"미두","nl":"Meedhoo","pl":"Meedhoo","pt":"Meedhoo","pt-BR":"Meedhoo","ru":"Мидху","tr":"Meedhoo","uk":"Мідху","zh-CN":"米杜","hy":"Միդու"}}]},{"name":"Alif Alif Atoll","state_code":"02","latitude":"4.08500000","longitude":"72.85154790","cities":[]},{"name":"Alif Dhaal Atoll","state_code":"00","latitude":"3.65433020","longitude":"72.80427970","cities":[]},{"name":"Central Province","state_code":"CE","latitude":null,"longitude":null,"cities":[]},{"name":"Dhaalu Atoll","state_code":"17","latitude":"2.84685020","longitude":"72.94605660","cities":[{"name":"Kudahuvadhoo","latitude":"2.67075000","longitude":"72.89437000","native":"ކުޑަހުވައްދޫ","translations":{"ar":"كوداهوفادهو","br":"Kudahuvadhoo","de":"Kudahuvadhoo","es":"Kudahuvadhoo","fa":"کوداهوادو","fr":"Kudahuvadhoo","hi":"Kudahuvadhoo","hr":"Kudahuvadhoo","it":"Kudahuvadhoo","ja":"クダフヴァドゥ","ko":"쿠다후바두","nl":"Kudahuvadhoo","pl":"Kudahuvadhoo","pt":"Kudahuvadhoo","pt-BR":"Kudahuvadhoo","ru":"Кудахувадху","tr":"Kudahuvadhoo","uk":"Кудахувадху","zh-CN":"库达胡瓦杜","hy":"Կուդահուվադու"}}]},{"name":"Faafu Atoll","state_code":"14","latitude":"3.23094090","longitude":"72.94605660","cities":[]},{"name":"Gaafu Alif Atoll","state_code":"27","latitude":"0.61248130","longitude":"73.32370800","cities":[{"name":"Viligili","latitude":"0.75906000","longitude":"73.43296000","native":"ވިލިގިލީ","translations":{"ar":"فيليجيلي","br":"Viligili","de":"Viligili","es":"Viligili","fa":"ویلیگیلی","fr":"Viligili","hi":"विलिगिली","hr":"Viligili","it":"Viligili","ja":"ヴィリギリ","ko":"빌리질리","nl":"Viligili","pl":"Viligili","pt":"Viligili","pt-BR":"Viligili","ru":"Вилигили","tr":"Viligili","uk":"Вілігілі","zh-CN":"维利吉利","hy":"Վիլիգիլի"}}]},{"name":"Gaafu Dhaalu Atoll","state_code":"28","latitude":"0.35880400","longitude":"73.18216230","cities":[{"name":"Thinadhoo","latitude":"0.53060000","longitude":"72.99969000","native":"ތިންދުދޫ","translations":{"ar":"ثينادهو","br":"Thinadhoo","de":"Thinadhoo","es":"Thinadhoo","fa":"تینادهو","fr":"Thinadhoo","hi":"थिनाधू","hr":"Thinadhoo","it":"Thinadhoo","ja":"ティナドゥ","ko":"티나두","nl":"Thinadhoo","pl":"Thinadhoo","pt":"Thinadhoo","pt-BR":"Thinadhoo","ru":"Тинаду","tr":"Thinadhoo","uk":"Тінадху","zh-CN":"蒂纳杜","hy":"Թինադու"}}]},{"name":"Gnaviyani Atoll","state_code":"29","latitude":"-0.30064250","longitude":"73.42391430","cities":[{"name":"Fuvahmulah","latitude":"-0.29878000","longitude":"73.42403000","native":"ފުވައްމުލައް","translations":{"ar":"فوفامولاه","br":"Fuvahmulah","de":"Fuvahmulah","es":"Fuvahmulah","fa":"فواحموله","fr":"Fuvahmulah","hi":"फ़ुवाहमुला","hr":"Fuvahmulah","it":"Fuvahmulah","ja":"フヴァフムラ","ko":"푸바물라","nl":"Fuvahmulah","pl":"Fuvammulah","pt":"Fuvahmulah","pt-BR":"Fuvahmulah","ru":"Фувахмулах","tr":"Fuvahmulah","uk":"Фувахмула","zh-CN":"富瓦穆拉","hy":"Ֆուվամուլա"}}]},{"name":"Haa Alif Atoll","state_code":"07","latitude":"6.99034880","longitude":"72.94605660","cities":[{"name":"Dhidhdhoo","latitude":"6.88744000","longitude":"73.11402000","native":"މޮޑެއާ","translations":{"ar":"ديهدهو","br":"Dhidhdhoo","de":"Dhidhdhoo","es":"Dhidhdhoo","fa":"دهیدهو","fr":"Dhidhdhoo","hi":"धिधधू","hr":"Dhidhdhoo","it":"Dhidhdhoo","ja":"ディドゥ","ko":"디드두","nl":"Dhidhdhoo","pl":"Dhidhdhoo","pt":"Dhidhdhoo","pt-BR":"Dhidhdhoo","ru":"Дхиддху","tr":"Dhidhdhoo","uk":"Дідхду","zh-CN":"迪德胡","hy":"Դիդդու"}}]},{"name":"Haa Dhaalu Atoll","state_code":"23","latitude":"6.57827170","longitude":"72.94605660","cities":[{"name":"Kulhudhuffushi","latitude":"6.62207000","longitude":"73.06998000","native":"ކުލް.","translations":{"ar":"كولهودوفوشي","br":"Kulhudhuffushi","de":"Kulhudhuffushi","es":"Kulhudhuffushi","fa":"کولهودوفوشی","fr":"Kulhudhuffushi","hi":"कुलहुधुफ़ुशी","hr":"Kulhudhuffushi","it":"Kulhudhuffushi","ja":"クルフドゥフシ","ko":"쿨후두푸시","nl":"Kulhudhuffushi","pl":"Kulhudhuffushi","pt":"Kulhudhuffushi","pt-BR":"Kulhudhuffushi","ru":"Кулхудхуффуши","tr":"Kulhudhuffushi","uk":"Кулхудуффуші","zh-CN":"库尔胡杜夫西","hy":"Կուլհուդուֆուշի"}}]},{"name":"Kaafu Atoll","state_code":"26","latitude":"4.45589790","longitude":"73.55941280","cities":[{"name":"Guraidhoo","latitude":"3.90045000","longitude":"73.46623000","native":"ގުރައިދުދޫ","translations":{"ar":"غوريدهو","br":"Guraidhoo","de":"Guraidhoo","es":"Guraidhoo","fa":"گورایدهو","fr":"Guraidhoo","hi":"गुरैधू","hr":"Guraidhoo","it":"Guraidhoo","ja":"グライドゥ","ko":"구라이두","nl":"Guraidhoo","pl":"Guraidhoo","pt":"Guraidhoo","pt-BR":"Guraidhoo","ru":"Гурайдо","tr":"Guraidhoo","uk":"Гурайду","zh-CN":"古拉德胡","hy":"Գուրայդու"}},{"name":"Hulhumale","latitude":"4.21169000","longitude":"73.54008000","native":"ހުލްހޫމަލޭ","translations":{"ar":"هولهومالي","br":"Hulhumale","de":"Hulhumale","es":"Hulhumale","fa":"هولهوماله","fr":"Hulhumalé","hi":"हुलहुमाले","hr":"Hulhumale","it":"Hulhumale","ja":"フルフマレ","ko":"훌루말레","nl":"Hulhumale","pl":"Hulhumale","pt":"Hulhumale","pt-BR":"Hulhumale","ru":"Хулхумале","tr":"Hulhumale","uk":"Хулхумале","zh-CN":"胡鲁马累","hy":"Հուլհումալե"}},{"name":"Maafushi","latitude":"3.94231000","longitude":"73.49070000","native":"މާފުޝީ","translations":{"ar":"مافوشي","br":"Maafushi","de":"Maafushi","es":"Maafushi","fa":"ماافوشی","fr":"Maafushi","hi":"माफुशी","hr":"Maafushi","it":"Maafushi","ja":"マーフシ","ko":"마푸시","nl":"Maafushi","pl":"Maafushi","pt":"Maafushi","pt-BR":"Maafushi","ru":"Маафуши","tr":"Maafuşi","uk":"Маафуші","zh-CN":"马富士","hy":"Մաաֆուշի"}},{"name":"Male","latitude":"4.17521000","longitude":"73.50916000","native":"ފިރިހެން","translations":{"ar":"ذكر","br":"Par","de":"Männlich","es":"Masculino","fa":"مرد","fr":"Mâle","hi":"पुरुष","hr":"Muški","it":"Maschio","ja":"男","ko":"남성","nl":"Mannelijk","pl":"Mężczyzna","pt":"Macho","pt-BR":"Macho","ru":"Мужской","tr":"Erkek","uk":"Чоловік","zh-CN":"男性","hy":"Մալե"}}]},{"name":"Laamu Atoll","state_code":"05","latitude":"1.94307370","longitude":"73.41802110","cities":[{"name":"Fonadhoo","latitude":"1.83243000","longitude":"73.50257000","native":"ފޯއެނޫއޯ","translations":{"ar":"فونادهو","br":"Fonadhoo","de":"Fonadhoo","es":"Fonadhoo","fa":"فونادو","fr":"Fonadhoo","hi":"फोनाधू","hr":"Fonadhoo","it":"Fonadhoo","ja":"フォナドゥ","ko":"포나두","nl":"Fonadhoo","pl":"Fonadhoo","pt":"Fonadhoo","pt-BR":"Fonadhoo","ru":"Фонду","tr":"Fonadhoo","uk":"Фонадху","zh-CN":"福纳杜","hy":"Ֆոնադու"}}]},{"name":"Lhaviyani Atoll","state_code":"03","latitude":"5.37470210","longitude":"73.51229280","cities":[{"name":"Naifaru","latitude":"5.44438000","longitude":"73.36571000","native":"ނައިފާރ","translations":{"ar":"نايفارو","br":"Naifaru","de":"Naifaru","es":"Naifaru","fa":"نایفارو","fr":"Naifaru","hi":"नाइफ़ारू","hr":"Naifaru","it":"Naifaru","ja":"ナイファル","ko":"나이파루","nl":"Naifaru","pl":"Naifaru","pt":"Naifaru","pt-BR":"Naifaru","ru":"Наифару","tr":"Naifaru","uk":"Найфару","zh-CN":"内法鲁","hy":"Նայֆարու"}}]},{"name":"Malé","state_code":"MLE","latitude":"46.34888670","longitude":"10.90724890","cities":[]},{"name":"Meemu Atoll","state_code":"12","latitude":"3.00903450","longitude":"73.51229280","cities":[{"name":"Muli","latitude":"2.91667000","longitude":"73.56667000","native":"އަނެއްކާ","translations":{"ar":"مولي","br":"Muli","de":"Muli","es":"Muli","fa":"مولی","fr":"Muli","hi":"मुली","hr":"Muli","it":"Muli","ja":"ムリ","ko":"무리","nl":"Muli","pl":"Muli","pt":"Muli","pt-BR":"Muli","ru":"Мули","tr":"Çok","uk":"Мулі","zh-CN":"穆里","hy":"Մուլի"}}]},{"name":"Noonu Atoll","state_code":"25","latitude":"5.85512760","longitude":"73.32370800","cities":[{"name":"Manadhoo","latitude":"5.76687000","longitude":"73.41360000","native":"މަނާދޫ","translations":{"ar":"مانادو","br":"Manadhoo","de":"Manadhoo","es":"Manadhoo","fa":"مانادهو","fr":"Manadhoo","hi":"मनाधू","hr":"Manadhoo","it":"Manadhoo","ja":"マナドゥ","ko":"마나두","nl":"Manadhoo","pl":"Manadhoo","pt":"Manadhoo","pt-BR":"Manadhoo","ru":"Манаду","tr":"Manadhoo","uk":"Манадху","zh-CN":"马纳杜","hy":"Մանադու"}}]},{"name":"North Central Province","state_code":"NC","latitude":null,"longitude":null,"cities":[]},{"name":"North Province","state_code":"NO","latitude":"8.88550270","longitude":"80.27673270","cities":[]},{"name":"Raa Atoll","state_code":"13","latitude":"5.60064570","longitude":"72.94605660","cities":[{"name":"Ugoofaaru","latitude":"5.66812000","longitude":"73.03017000","native":"އުގޯބާ","translations":{"ar":"أوغوفارو","br":"Ugoofaaru","de":"Ugoofaaru","es":"Ugoofaaru","fa":"اوگوفارو","fr":"Ugoofaaru","hi":"उगूफारू","hr":"Ugoofaaru","it":"Ugoofaaru","ja":"ウグーファアル","ko":"우구파루","nl":"Ugoofaaru","pl":"Ugoofaaru","pt":"Ugoofaaru","pt-BR":"Ugoofaaru","ru":"Угоофаару","tr":"Ugoofaaru","uk":"Угуфаару","zh-CN":"乌古法鲁","hy":"Ուգուֆարու"}}]},{"name":"Shaviyani Atoll","state_code":"24","latitude":"6.17511000","longitude":"73.13496050","cities":[{"name":"Funadhoo","latitude":"6.15091000","longitude":"73.29013000","native":"ފުނަދުދޫ","translations":{"ar":"فونادهو","br":"Funadhoo","de":"Funadhoo","es":"Funadhoo","fa":"فونادهو","fr":"Funadhoo","hi":"फुनाद्हू","hr":"Funadhoo","it":"Funadhoo","ja":"フナドゥー","ko":"푸나두","nl":"Funadhoo","pl":"Funadhoo","pt":"Funadhoo","pt-BR":"Funadhoo","ru":"Фунадху","tr":"Funadhoo","uk":"Фунадху","zh-CN":"富纳杜","hy":"Ֆունադու"}}]},{"name":"South Central Province","state_code":"SC","latitude":"7.25649960","longitude":"80.72144170","cities":[{"name":"Mahibadhoo","latitude":"3.75713000","longitude":"72.96893000","native":"މަހިބަދޫ","translations":{"ar":"ماهيبادهو","br":"Mahibadhoo","de":"Mahibadhoo","es":"Mahibadhoo","fa":"ماهیبادهو","fr":"Mahibadhoo","hi":"महिबाधू","hr":"Mahibadhoo","it":"Mahibadhoo","ja":"マヒバドゥ","ko":"마히바두","nl":"Mahibadhoo","pl":"Mahibadhoo","pt":"Mahibadhoo","pt-BR":"Mahibadhoo","ru":"Махибадху","tr":"Mahibadhoo","uk":"Махібадху","zh-CN":"马希巴杜","hy":"Մահիբադու"}}]},{"name":"South Province","state_code":"SU","latitude":"-21.74820060","longitude":"166.17837390","cities":[]},{"name":"Thaa Atoll","state_code":"08","latitude":"2.43111610","longitude":"73.18216230","cities":[{"name":"Veymandoo","latitude":"2.18772000","longitude":"73.09556000","native":"ވެއިމަންޑޫ","translations":{"ar":"فيماندو","br":"Veymandoo","de":"Veymandoo","es":"Veymandoo","fa":"وییماندو","fr":"Veymandoo","hi":"वेयमांडू","hr":"Veymandoo","it":"Veymandoo","ja":"ヴェイマンドゥー","ko":"베이만두","nl":"Veymandoo","pl":"Veymandoo","pt":"Veymandoo","pt-BR":"Veymandoo","ru":"Веймандоо","tr":"Veymandoo","uk":"Вейманду","zh-CN":"维曼杜","hy":"Վեյմանդու"}}]},{"name":"Upper South Province","state_code":"US","latitude":"0.23070000","longitude":"73.27948460","cities":[]},{"name":"Vaavu Atoll","state_code":"04","latitude":"3.39554380","longitude":"73.51229280","cities":[{"name":"Felidhoo","latitude":"3.47182000","longitude":"73.54699000","native":"ފެލިދޫ","translations":{"ar":"فيليدو","br":"Felidhoo","de":"Felidhoo","es":"Felidhoo","fa":"فلیدهو","fr":"Felidhoo","hi":"फेलिडू","hr":"Felidhoo","it":"Felidhoo","ja":"フェリドゥ","ko":"펠리두","nl":"Felidhoo","pl":"Felidhoo","pt":"Felidhoo","pt-BR":"Felidhoo","ru":"Фелидху","tr":"Felidhoo","uk":"Фелідху","zh-CN":"费利杜","hy":"Ֆելիդու"}}]}]}