{"code":"NZ","states":[{"name":"Auckland Region","state_code":"AUK","latitude":"-36.66753280","longitude":"174.77333250","cities":[{"name":"Auckland","latitude":"-36.84853000","longitude":"174.76349000","native":"Auckland","translations":{"br":"Auckland","ko":"오클랜드","pt-BR":"Auckland","pt":"Auckland","nl":"Auckland","hr":"Auckland","fa":"آوکلند","de":"Auckland","es":"Auckland","fr":"Auckland","ja":"オークランド","it":"Auckland","zh-CN":"奥克兰","tr":"Auckland","ru":"Окленд","uk":"Окленд","pl":"Okland","hi":"ऑकलैंड","ar":"أوكلاند"}},{"name":"Mangere","latitude":"-36.96807000","longitude":"174.79875000","native":"Idle","translations":{"br":"Mangere","ko":"망게레","pt-BR":"Mangere","pt":"Mangere","nl":"Mangere","hr":"Mangere","fa":"مانگر","de":"Mangere","es":"Mangere","fr":"Mangere","ja":"マンゲレ","it":"Mangere","zh-CN":"曼格雷","tr":"Mangere","ru":"Мангере","uk":"Мангере","pl":"Mangere","hi":"मंगेरे","ar":"مانجير"}},{"name":"Manukau City","latitude":"-36.99282000","longitude":"174.87986000","native":"Manukau City","translations":{"br":"Kêr Manukau","ko":"마누카우 시티","pt-BR":"Cidade de Manukau","pt":"Cidade de Manukau","nl":"Manukau-stad","hr":"Grad Manukau","fa":"شهر مانوکاو","de":"Manukau City","es":"Ciudad de Manukau","fr":"Ville de Manukau","ja":"マヌカウ市","it":"Città di Manukau","zh-CN":"曼努考市","tr":"Manukau Şehri","ru":"Город Манукау","uk":"Місто Манукау","pl":"Miasto Manukau","hi":"मनुकाउ शहर","ar":"مدينة مانوكاو"}},{"name":"Muriwai Beach","latitude":"-36.81667000","longitude":"174.45000000","native":"Murkey Beach","translations":{"br":"Traezhenn Muriwai","ko":"무리와이 비치","pt-BR":"Praia de Muriwai","pt":"Praia de Muriwai","nl":"Muriwai-strand","hr":"Plaža Muriwai","fa":"ساحل موریوای","de":"Muriwai Strand","es":"Playa Muriwai","fr":"Plage de Muriwai","ja":"ムリワイビーチ","it":"Spiaggia di Muriwai","zh-CN":"穆里怀海滩","tr":"Muriwai Plajı","ru":"Пляж Муривай","uk":"Пляж Мурівай","pl":"Plaża Muriwai","hi":"मुरीवाई बीच","ar":"شاطئ موريواي"}},{"name":"Murrays Bay","latitude":"-36.72819000","longitude":"174.75019000","native":"Murrays Bay","translations":{"br":"Bae Murrays","ko":"머레이스 베이","pt-BR":"Baía de Murrays","pt":"Baía de Murrays","nl":"Murraysbaai","hr":"Murraysov zaljev","fa":"خلیج مورایس","de":"Murrays Bay","es":"Bahía de Murrays","fr":"Baie de Murrays","ja":"マレーズベイ","it":"Baia di Murray","zh-CN":"默里斯湾","tr":"Murrays Körfezi","ru":"Мюррейс-Бей","uk":"Затока Мюррейс","pl":"Zatoka Murraysa","hi":"मरेज़ बे","ar":"خليج موراي"}},{"name":"North Shore","latitude":"-36.80000000","longitude":"174.75000000","native":"North Shore","translations":{"br":"Aod an Norzh","ko":"노스 쇼어","pt-BR":"Costa Norte","pt":"Costa Norte","nl":"Noordkust","hr":"Sjeverna obala","fa":"ساحل شمالی","de":"Nordküste","es":"Costa Norte","fr":"Côte-Nord","ja":"ノースショア","it":"Costa settentrionale","zh-CN":"北岸","tr":"Kuzey Kıyısı","ru":"Северный берег","uk":"Північний берег","pl":"Północny Brzeg","hi":"उत्तरी किनारा","ar":"الشاطئ الشمالي"}},{"name":"Pakuranga","latitude":"-36.88333000","longitude":"174.91667000","native":"Broken","translations":{"br":"Pakuranga","ko":"파쿠랑가","pt-BR":"Pakuranga","pt":"Pakuranga","nl":"Pakuranga","hr":"Pakuranga","fa":"پاکورانگا","de":"Pakuranga","es":"Pakuranga","fr":"Pakuranga","ja":"パクランガ","it":"Pakuranga","zh-CN":"帕库兰加","tr":"Pakuranga","ru":"Пакуранга","uk":"Пакуранга","pl":"Pakuranga","hi":"पाकुरंगा","ar":"باكورانجا"}},{"name":"Papakura","latitude":"-37.06573000","longitude":"174.94393000","native":"Layer","translations":{"br":"Papakura","ko":"파파쿠라","pt-BR":"Papakura","pt":"Papakura","nl":"Papakura","hr":"Papakura","fa":"پاپاکورا","de":"Papakura","es":"Papakura","fr":"Papakura","ja":"パパクラ","it":"Papakura","zh-CN":"帕帕库拉","tr":"Papakura","ru":"Папакура","uk":"Папакура","pl":"Papakura","hi":"पापाकुरा","ar":"باباكورا"}},{"name":"Parakai","latitude":"-36.65000000","longitude":"174.43333000","native":"Anti","translations":{"br":"Parakai","ko":"파라카이","pt-BR":"Parakai","pt":"Parakai","nl":"Parakai","hr":"Parakai","fa":"پاراکای","de":"Parakai","es":"Parakai","fr":"Parakai","ja":"パラカイ","it":"Parakai","zh-CN":"帕拉凯","tr":"Parakai","ru":"Паракай","uk":"Паракай","pl":"Parakai","hi":"परकाई","ar":"باراكاي"}},{"name":"Pukekohe East","latitude":"-37.20000000","longitude":"174.95000000","native":"Puke","translations":{"br":"Pukekohe East","ko":"푸케코헤 이스트","pt-BR":"Pukekohe Leste","pt":"Pukekohe Leste","nl":"Pukekohe Oost","hr":"Pukekohe Istok","fa":"پوکه‌کوهه شرقی","de":"Pukekohe Ost","es":"Pukekohe Este","fr":"Pukekohe Est","ja":"プケコヘ東","it":"Pukekohe Est","zh-CN":"普基科希东部","tr":"Pukekohe Doğu","ru":"Пукекохе Восток","uk":"Пукекохе Іст","pl":"Pukekohe Wschód","hi":"पुकेकोहे पूर्व","ar":"بوكيكوهي الشرقية"}},{"name":"Red Hill","latitude":"-37.05820000","longitude":"174.97019000","native":"Red Hill","translations":{"br":"Menez Ruz","ko":"레드힐","pt-BR":"Colina Vermelha","pt":"Colina Vermelha","nl":"Rode Heuvel","hr":"Crveno brdo","fa":"رد هیل","de":"Roter Hügel","es":"Colina roja","fr":"Colline Rouge","ja":"レッドヒル","it":"Red Hill","zh-CN":"红山","tr":"Kızıl Tepe","ru":"Красный Холм","uk":"Червоний пагорб","pl":"Czerwone Wzgórze","hi":"लाल पहाड़ी","ar":"التل الأحمر"}},{"name":"Rosebank","latitude":"-36.87495000","longitude":"174.66991000","native":"Rose bank","translations":{"br":"Rosebank","ko":"로즈뱅크","pt-BR":"Rosebank","pt":"Rosebank","nl":"Rozenbank","hr":"Rosebank","fa":"رزبانک","de":"Rosebank","es":"Banco de rosas","fr":"Rosebank","ja":"ローズバンク","it":"Rosebank","zh-CN":"罗斯班克","tr":"Gülbank","ru":"Роузбанк","uk":"Роузбенк","pl":"Rosebank","hi":"रोज़बैंक","ar":"روزبانك"}},{"name":"Rothesay Bay","latitude":"-36.72602000","longitude":"174.74064000","native":"Rothesay Bay","translations":{"br":"Bae Rothesay","ko":"로데세이 베이","pt-BR":"Baía de Rothesay","pt":"Baía de Rothesay","nl":"Rothesaybaai","hr":"Zaljev Rothesay","fa":"خلیج روتسی","de":"Rothesay Bay","es":"Bahía de Rothesay","fr":"Baie de Rothesay","ja":"ロスセイ湾","it":"Baia di Rothesay","zh-CN":"罗塞湾","tr":"Rothesay Körfezi","ru":"Ротсей-Бей","uk":"Ротсей-Бей","pl":"Zatoka Rothesay","hi":"रोथेसे खाड़ी","ar":"خليج روثيساي"}},{"name":"Takanini","latitude":"-37.04820000","longitude":"174.90019000","native":"Takanani","translations":{"br":"Takanini","ko":"타카니니","pt-BR":"Takanini","pt":"Takanini","nl":"Takanini","hr":"Takanini","fa":"تاکانینی","de":"Takanini","es":"Takanini","fr":"Takanini","ja":"タカニニ","it":"Takanini","zh-CN":"塔卡尼尼","tr":"Takanini","ru":"Таканини","uk":"Таканіні","pl":"Takanini","hi":"ताकानिनी","ar":"تاكانيني"}},{"name":"Tamaki","latitude":"-36.88820000","longitude":"174.86019000","native":"Tamaki","translations":{"br":"Tamaki","ko":"타마키","pt-BR":"Tamaki","pt":"Tamaki","nl":"Tamaki","hr":"Tamaki","fa":"تاماکی","de":"Tamaki","es":"Tamaki","fr":"Tamaki","ja":"玉木","it":"Tamaki","zh-CN":"玉木","tr":"Tamaki","ru":"Тамаки","uk":"Тамакі","pl":"Tamaki","hi":"तमाकी","ar":"تاماكي"}},{"name":"Titirangi","latitude":"-36.93754000","longitude":"174.65584000","native":"Fetish","translations":{"br":"Titirangi","ko":"티티랑기","pt-BR":"Titirangi","pt":"Titirangi","nl":"Titirangi","hr":"Titirangi","fa":"تیتیرنگی","de":"Titirangi","es":"Titirangi","fr":"Titirangi","ja":"ティティランギ","it":"Titirangi","zh-CN":"蒂蒂朗伊","tr":"Titirangi","ru":"Титиранги","uk":"Тітірангі","pl":"Titirangi","hi":"तितिरांगी","ar":"تيتيرانجي"}},{"name":"Waitakere","latitude":"-36.91754000","longitude":"174.65773000","native":"Waitakere","translations":{"br":"Waitakere","ko":"와이타케레","pt-BR":"Waitakere","pt":"Waitakere","nl":"Waitakere","hr":"Waitakere","fa":"ویتاکر","de":"Waitakere","es":"Waitakere","fr":"Waitakere","ja":"ワイタケレ","it":"Waitakere","zh-CN":"怀塔科拉","tr":"Waitakere","ru":"Вайтакере","uk":"Вайтакере","pl":"Waitakere","hi":"वैटेकर","ar":"وايتاكيري"}},{"name":"Waiuku","latitude":"-37.24806000","longitude":"174.73489000","native":"Waiuku","translations":{"br":"Waiuku","ko":"와이우쿠","pt-BR":"Waiuku","pt":"Waiuku","nl":"Waiuku","hr":"Waiuku","fa":"وایوکو","de":"Waiuku","es":"Waiuku","fr":"Waiuku","ja":"ワイウク","it":"Waiuku","zh-CN":"怀乌库","tr":"Waiuku","ru":"Вайуку","uk":"Вайуку","pl":"Waiuku","hi":"वाइउकु","ar":"وايوكو"}},{"name":"Warkworth","latitude":"-36.40000000","longitude":"174.66667000","native":"Warkworth","translations":{"br":"Warkworth","ko":"워크워스","pt-BR":"Warkworth","pt":"Warkworth","nl":"Warkworth","hr":"Warkworth","fa":"وارک‌ورث","de":"Warkworth","es":"Warkworth","fr":"Warkworth","ja":"ワークワース","it":"Warkworth","zh-CN":"沃克沃斯","tr":"Warkworth","ru":"Уоркуорт","uk":"Воркворт","pl":"Warkworth","hi":"वार्कवर्थ","ar":"واركوورث"}},{"name":"Wellsford","latitude":"-36.28333000","longitude":"174.51667000","native":"Wellsford","translations":{"br":"Wellsford","ko":"웰스포드","pt-BR":"Wellsford","pt":"Wellsford","nl":"Wellsford","hr":"Wellsford","fa":"ولزفورد","de":"Wellsford","es":"Wellsford","fr":"Wellsford","ja":"ウェルズフォード","it":"Wellsford","zh-CN":"韦尔斯福德","tr":"Wellsford","ru":"Уэллсфорд","uk":"Веллсфорд","pl":"Wellsford","hi":"वेल्सफोर्ड","ar":"ويلسفورد"}},{"name":"Wiri","latitude":"-36.99820000","longitude":"174.86019000","native":"Drill","translations":{"br":"Wiri","ko":"위리","pt-BR":"Wiri","pt":"Wiri","nl":"Wiri","hr":"Wiri","fa":"ویری","de":"Wiri","es":"Wiri","fr":"Wiri","ja":"ウィリ","it":"Wiri","zh-CN":"维里","tr":"Wiri","ru":"Вири","uk":"Вірі","pl":"Wiri","hi":"विरी","ar":"ويري"}}]},{"name":"Bay of Plenty Region","state_code":"BOP","latitude":"-37.42339170","longitude":"176.74163740","cities":[{"name":"Edgecumbe","latitude":"-37.98333000","longitude":"176.83333000","native":"Edgecumbe","translations":{"br":"Edgecumbe","ko":"에지컴비","pt-BR":"Edgecumbe","pt":"Edgecumbe","nl":"Edgecumbe","hr":"Edgecumbe","fa":"اجکامب","de":"Edgecumbe","es":"Edgecumbe","fr":"Edgecumbe","ja":"エッジカム","it":"Edgecumbe","zh-CN":"埃奇坎比","tr":"Edgecumbe","ru":"Эджкумб","uk":"Еджкумб","pl":"Edgecumbe","hi":"एजकुम्बे","ar":"إيدجكومب"}},{"name":"Katikati","latitude":"-37.55000000","longitude":"175.91667000","native":"In the middle","translations":{"br":"Katikati","ko":"카티카티","pt-BR":"Katikati","pt":"Katikati","nl":"Katikati","hr":"Katikati","fa":"کاتیکاتی","de":"Katikati","es":"Katikati","fr":"Katikati","ja":"カティカティ","it":"Katikati","zh-CN":"卡蒂卡蒂","tr":"Katikati","ru":"Катикати","uk":"Катікаті","pl":"Katikati","hi":"कटिकाटी","ar":"كاتيكاتي"}},{"name":"Kawerau","latitude":"-38.10000000","longitude":"176.70000000","native":"KAW","translations":{"br":"Kawerau","ko":"카웨라우","pt-BR":"Kawerau","pt":"Kawerau","nl":"Kawerau","hr":"Kawerau","fa":"کاوارو","de":"Kawerau","es":"Kawerau","fr":"Kawerau","ja":"カウェラウ","it":"Kawerau","zh-CN":"卡韦劳","tr":"Kawerau","ru":"Каверау","uk":"Каверау","pl":"Kawerau","hi":"कावेरौ","ar":"كاوراو"}},{"name":"Maketu","latitude":"-37.76667000","longitude":"176.45000000","native":"Maketu","translations":{"br":"Maketu","ko":"마케투","pt-BR":"Maketu","pt":"Maketu","nl":"Maketu","hr":"Maketu","fa":"ماکتو","de":"Maketu","es":"Maketu","fr":"Maketu","ja":"マケトゥ","it":"Maketu","zh-CN":"马凯图","tr":"Maketu","ru":"Макету","uk":"Макету","pl":"Maketu","hi":"मकेटू","ar":"ماكيتو"}},{"name":"Murupara","latitude":"-38.46667000","longitude":"176.70000000","native":"Mrubara","translations":{"br":"Murupara","ko":"무루파라","pt-BR":"Murupara","pt":"Murupara","nl":"Murupara","hr":"Murupara","fa":"موروپارا","de":"Murupara","es":"Murupara","fr":"Murupara","ja":"ムルパラ","it":"Murupara","zh-CN":"穆鲁帕拉","tr":"Murupara","ru":"Мурупара","uk":"Мурупара","pl":"Murupara","hi":"मुरुपारा","ar":"موروبارا"}},{"name":"Opotiki","latitude":"-38.00915000","longitude":"177.28706000","native":"Opotiki","translations":{"br":"Opotiki","ko":"오포티키","pt-BR":"Opotiki","pt":"Opotiki","nl":"Opotiki","hr":"Opotiki","fa":"اوپوتیکی","de":"Opotiki","es":"Opotiki","fr":"Opotiki","ja":"オポティキ","it":"Opotiki","zh-CN":"奥波蒂基","tr":"Opotiki","ru":"Опотики","uk":"Опотікі","pl":"Opotiki","hi":"ओपोटिकी","ar":"أوبوتيكي"}},{"name":"Rotorua","latitude":"-38.13874000","longitude":"176.24516000","native":"Rotorua","translations":{"br":"Rotorua","ko":"로토루아","pt-BR":"Rotorua","pt":"Rotorua","nl":"Rotorua","hr":"Rotorua","fa":"روتوروا","de":"Rotorua","es":"Rotorua","fr":"Rotorua","ja":"ロトルア","it":"Rotorua","zh-CN":"罗托鲁阿","tr":"Rotorua","ru":"Роторуа","uk":"Роторуа","pl":"Rotorua","hi":"रोटोरूआ","ar":"روتوروا"}},{"name":"Tauranga","latitude":"-37.68611000","longitude":"176.16667000","native":"Tauranga","translations":{"br":"Tauranga","ko":"타우랑가","pt-BR":"Tauranga","pt":"Tauranga","nl":"Tauranga","hr":"Tauranga","fa":"تائورانگا","de":"Tauranga","es":"Tauranga","fr":"Tauranga","ja":"タウランガ","it":"Tauranga","zh-CN":"陶朗加","tr":"Tauranga","ru":"Тауранга","uk":"Тауранга","pl":"Tauranga","hi":"टॉरंगा","ar":"تورانجا"}},{"name":"Waihi Beach","latitude":"-37.40000000","longitude":"175.93333000","native":"Waihi Beach","translations":{"br":"Traezhenn Waihi","ko":"와이히 비치","pt-BR":"Praia de Waihi","pt":"Praia de Waihi","nl":"Waihi-strand","hr":"Plaža Waihi","fa":"ساحل وایهی","de":"Waihi Beach","es":"Playa Waihi","fr":"Plage de Waihi","ja":"ワイヒビーチ","it":"Spiaggia di Waihi","zh-CN":"怀希海滩","tr":"Waihi Plajı","ru":"Пляж Вайхи","uk":"Пляж Вайхі","pl":"Plaża Waihi","hi":"वैही बीच","ar":"شاطئ وايهي"}},{"name":"Whakatane","latitude":"-37.95855000","longitude":"176.98545000","native":"Whakatane","translations":{"br":"Whakatane","ko":"화카타네","pt-BR":"Whakatane","pt":"Whakatane","nl":"Whakatane","hr":"Whakatane","fa":"واکاتان","de":"Whakatane","es":"Whakatane","fr":"Whakatane","ja":"ワカタネ","it":"Whakatane","zh-CN":"瓦卡塔尼","tr":"Whakatane","ru":"Факатане","uk":"Вакатане","pl":"Whakatane","hi":"व्हाकाटाने","ar":"واكاتان"}}]},{"name":"Canterbury Region","state_code":"CAN","latitude":"-43.75422750","longitude":"171.16372450","cities":[{"name":"Amberley","latitude":"-43.15589000","longitude":"172.72975000","native":"Amberley","translations":{"br":"Amberley","ko":"앰버리","pt-BR":"Amberley","pt":"Amberley","nl":"Amberley","hr":"Amberley","fa":"امبرلی","de":"Amberley","es":"Amberley","fr":"Amberley","ja":"アンバーリー","it":"Amberley","zh-CN":"安伯利","tr":"Amberley","ru":"Эмберли","uk":"Амберлі","pl":"Amberley","hi":"एम्बरली","ar":"أمبرلي"}},{"name":"Ashburton","latitude":"-43.89834000","longitude":"171.73011000","native":"Ashburton","translations":{"br":"Ashburton","ko":"애쉬버튼","pt-BR":"Ashburton","pt":"Ashburton","nl":"Ashburton","hr":"Ashburton","fa":"اشبرتون","de":"Ashburton","es":"Ashburton","fr":"Ashburton","ja":"アシュバートン","it":"Ashburton","zh-CN":"阿什伯顿","tr":"Ashburton","ru":"Эшбертон","uk":"Ашбертон","pl":"Ashburton","hi":"एशबर्टन","ar":"أشبورتون"}},{"name":"Ashburton District","latitude":"-43.90000000","longitude":"171.75000000","native":"Ashburton District","translations":{"br":"Distrig Ashburton","ko":"애쉬버튼 지구","pt-BR":"Distrito de Ashburton","pt":"Distrito de Ashburton","nl":"Ashburton District","hr":"Okrug Ashburton","fa":"ناحیه اشبرتون","de":"Ashburton District","es":"Distrito de Ashburton","fr":"District d'Ashburton","ja":"アシュバートン地区","it":"Distretto di Ashburton","zh-CN":"阿什伯顿区","tr":"Ashburton Bölgesi","ru":"Район Эшбертон","uk":"Район Ашбертон","pl":"Dzielnica Ashburton","hi":"एशबर्टन जिला","ar":"منطقة أشبورتون"}},{"name":"Burnham","latitude":"-43.61667000","longitude":"172.31667000","native":"Burnham","translations":{"br":"Burnham","ko":"번햄","pt-BR":"Burnham","pt":"Burnham","nl":"Burnham","hr":"Burnham","fa":"برنهام","de":"Burnham","es":"Burnham","fr":"Burnham","ja":"バーナム","it":"Burnham","zh-CN":"伯纳姆","tr":"Burnham","ru":"Бернхэм","uk":"Бернем","pl":"Burnham","hi":"बर्नहैम","ar":"بيرنهام"}},{"name":"Christchurch","latitude":"-43.53333000","longitude":"172.63333000","native":"Christchurch","translations":{"br":"Christchurch","ko":"크라이스트처치","pt-BR":"Christchurch","pt":"Christchurch","nl":"Christchurch","hr":"Christchurch","fa":"کرایست‌چرچ","de":"Christchurch","es":"Christchurch","fr":"Christchurch","ja":"クライストチャーチ","it":"Christchurch","zh-CN":"基督城","tr":"Christchurch","ru":"Крайстчерч","uk":"Крайстчерч","pl":"Christchurch","hi":"क्राइस्टचर्च","ar":"كرايستشيرش"}},{"name":"Christchurch City","latitude":"-43.64578000","longitude":"172.74586000"},{"name":"Darfield","latitude":"-43.48333000","longitude":"172.11667000","native":"Darfield","translations":{"br":"Darfield","ko":"다필드","pt-BR":"Darfield","pt":"Darfield","nl":"Darfield","hr":"Darfield","fa":"دارفیلد","de":"Darfield","es":"Darfield","fr":"Darfield","ja":"ダーフィールド","it":"Darfield","zh-CN":"达菲尔德","tr":"Darfield","ru":"Дарфилд","uk":"Дарфілд","pl":"Darfield","hi":"डारफील्ड","ar":"دارفيلد"}},{"name":"Geraldine","latitude":"-44.09061000","longitude":"171.24458000","native":"Geraldine","translations":{"br":"Geraldine","ko":"제럴딘","pt-BR":"Geraldine","pt":"Geraldine","nl":"Geraldine","hr":"Geraldine","fa":"جرالدین","de":"Geraldine","es":"Geraldine","fr":"Géraldine","ja":"ジェラルディン","it":"Geraldina","zh-CN":"杰拉尔丁","tr":"Geraldine","ru":"Джеральдин","uk":"Джеральдін","pl":"Geraldine","hi":"गेराल्डिन","ar":"جيرالدين"}},{"name":"Kaiapoi","latitude":"-43.37832000","longitude":"172.64013000","native":"Kiapei","translations":{"br":"Kaiapoi","ko":"카이아포이","pt-BR":"Kaiapoi","pt":"Kaiapoi","nl":"Kaiapoi","hr":"Kaiapoi","fa":"کایاپوی","de":"Kaiapoi","es":"Kaiapoi","fr":"Kaiapoi","ja":"カイアポイ","it":"Kaiapoi","zh-CN":"凯阿波伊","tr":"Kaiapoi","ru":"Каиапои","uk":"Кайапой","pl":"Kaiapoi","hi":"काइपोई","ar":"كايابوي"}},{"name":"Leeston","latitude":"-43.76667000","longitude":"172.30000000","native":"Readingon","translations":{"br":"Leeston","ko":"리스턴","pt-BR":"Leeston","pt":"Leeston","nl":"Leeston","hr":"Leeston","fa":"لستون","de":"Leeston","es":"Leeston","fr":"Leeston","ja":"リーストン","it":"Leeston","zh-CN":"利斯顿","tr":"Leeston","ru":"Листон","uk":"Лістон","pl":"Leeston","hi":"लीस्टन","ar":"ليستون"}},{"name":"Lincoln","latitude":"-43.65000000","longitude":"172.48333000","native":"Lincoln","translations":{"br":"Lincoln","ko":"링컨","pt-BR":"Lincoln","pt":"Lincoln","nl":"Lincoln","hr":"Lincoln","fa":"لینکلن","de":"Lincoln","es":"Lincoln","fr":"Lincoln","ja":"リンカーン","it":"Lincoln","zh-CN":"林肯","tr":"Lincoln","ru":"Линкольн","uk":"Лінкольн","pl":"Lincoln","hi":"लिंकन","ar":"لينكولن"}},{"name":"Mackenzie District","latitude":"-43.93987000","longitude":"170.51913000"},{"name":"Methven","latitude":"-43.63333000","longitude":"171.65000000","native":"Methven","translations":{"br":"Methven","ko":"메스벤","pt-BR":"Methven","pt":"Methven","nl":"Methven","hr":"Methven","fa":"متون","de":"Methven","es":"Methven","fr":"Methven","ja":"メスベン","it":"Methven","zh-CN":"梅思文","tr":"Methven","ru":"Метвен","uk":"Метвен","pl":"Methven","hi":"Methven","ar":"ميثفين"}},{"name":"Oxford","latitude":"-43.30000000","longitude":"172.18333000","native":"Oxford","translations":{"br":"Oxford","ko":"옥스퍼드","pt-BR":"Oxford","pt":"Oxford","nl":"Oxford","hr":"Oxford","fa":"آکسفورد","de":"Oxford","es":"Oxford","fr":"Oxford","ja":"オックスフォード","it":"Oxford","zh-CN":"牛津","tr":"Oxford","ru":"Оксфорд","uk":"Оксфорд","pl":"Oksford","hi":"ऑक्सफ़ोर्ड","ar":"أكسفورد"}},{"name":"Pleasant Point","latitude":"-44.26667000","longitude":"171.13333000","native":"Pleasant Point","translations":{"br":"Poent plijus","ko":"플레전트 포인트","pt-BR":"Pleasant Point","pt":"Pleasant Point","nl":"Aangenaam punt","hr":"Pleasant Point","fa":"نقطه دلپذیر","de":"Angenehmer Punkt","es":"Punto agradable","fr":"Pointe agréable","ja":"プレザントポイント","it":"Punto piacevole","zh-CN":"普莱森特角","tr":"Hoş Nokta","ru":"Плезант Пойнт","uk":"Плезант-Пойнт","pl":"Przyjemny punkt","hi":"सुखद बिंदु","ar":"نقطة ممتعة"}},{"name":"Prebbleton","latitude":"-43.58333000","longitude":"172.51667000","native":"Prebbleton","translations":{"br":"Prebbleton","ko":"프레블턴","pt-BR":"Prebbleton","pt":"Prebbleton","nl":"Prebbleton","hr":"Prebbleton","fa":"پربلتون","de":"Prebbleton","es":"Prebbleton","fr":"Prebbleton","ja":"プレブルトン","it":"Prebbleton","zh-CN":"普雷布尔顿","tr":"Prebbleton","ru":"Пребблтон","uk":"Пребблтон","pl":"Prebbleton","hi":"प्रीबलटन","ar":"بريبلتون"}},{"name":"Rakaia","latitude":"-43.75000000","longitude":"172.01667000","native":"Lifted","translations":{"br":"Rakaia","ko":"라카이아","pt-BR":"Rakaia","pt":"Rakaia","nl":"Rakaia","hr":"Rakaia","fa":"راکایا","de":"Rakaia","es":"Rakaia","fr":"Rakaia","ja":"ラカイア","it":"Rakaia","zh-CN":"拉凯亚","tr":"Rakaia","ru":"Ракайя","uk":"Ракая","pl":"Rakaia","hi":"राकाइया","ar":"راكايا"}},{"name":"Rolleston","latitude":"-43.58333000","longitude":"172.38333000","native":"Rolleston","translations":{"br":"Rolleston","ko":"롤스턴","pt-BR":"Rolleston","pt":"Rolleston","nl":"Rolleston","hr":"Rolleston","fa":"رولستون","de":"Rolleston","es":"Rolleston","fr":"Rolleston","ja":"ロールストン","it":"Rolleston","zh-CN":"罗尔斯顿","tr":"Rolleston","ru":"Роллстон","uk":"Роллестон","pl":"Rolleston","hi":"रोलस्टोन","ar":"رولستون"}},{"name":"Selwyn District","latitude":"-43.32226000","longitude":"171.87064000"},{"name":"Timaru","latitude":"-44.39672000","longitude":"171.25364000","native":"Timaru","translations":{"br":"Timaru","ko":"티마루","pt-BR":"Timaru","pt":"Timaru","nl":"Timaru","hr":"Timaru","fa":"تیمارو","de":"Timaru","es":"Timarú","fr":"Timaru","ja":"ティマル","it":"Timaru","zh-CN":"提马鲁","tr":"Timaru","ru":"Тимару","uk":"Тімару","pl":"Timaru","hi":"टिमरू","ar":"تيمارو"}},{"name":"Timaru District","latitude":"-44.40000000","longitude":"171.21667000","native":"Timaru District","translations":{"br":"Distrig Timaru","ko":"티마루 지구","pt-BR":"Distrito de Timaru","pt":"Distrito de Timaru","nl":"Timaru-district","hr":"Okrug Timaru","fa":"ناحیه تیمارو","de":"Timaru-Distrikt","es":"Distrito de Timaru","fr":"District de Timaru","ja":"ティマルー地区","it":"Distretto di Timaru","zh-CN":"蒂马鲁区","tr":"Timaru Bölgesi","ru":"Район Тимару","uk":"Район Тімару","pl":"Dystrykt Timaru","hi":"तिमारू जिला","ar":"منطقة تيمارو"}},{"name":"Tinwald","latitude":"-43.91667000","longitude":"171.71667000","native":"Tinwald","translations":{"br":"Tinwald","ko":"틴월드","pt-BR":"Tinwald","pt":"Tinwald","nl":"Tinwald","hr":"Tinwald","fa":"تینوالد","de":"Tinwald","es":"Tinwald","fr":"Tinwald","ja":"ティンワルド","it":"Tinwald","zh-CN":"廷瓦尔德","tr":"Tinwald","ru":"Тинвальд","uk":"Тінвальд","pl":"Tinwald","hi":"टिनवाल्ड","ar":"تينوالد"}},{"name":"Waimakariri District","latitude":"-43.20750000","longitude":"172.33286000"},{"name":"Woodend","latitude":"-43.31667000","longitude":"172.66667000","native":"Woodend","translations":{"br":"Koad","ko":"우드엔드","pt-BR":"De madeira","pt":"De madeira","nl":"Houten","hr":"Woodend","fa":"وودند","de":"Woodend","es":"Madera","fr":"Woodend","ja":"ウッドエンド","it":"Woodend","zh-CN":"伍登德","tr":"Woodend","ru":"Вуденд","uk":"Вуденд","pl":"Drewniany","hi":"Woodend","ar":"ووديند"}}]},{"name":"Chatham Islands","state_code":"CIT","latitude":"-44.00575230","longitude":"-176.54006740","cities":[{"name":"Waitangi","latitude":"-43.95353000","longitude":"-176.55973000","native":"Waitangi","translations":{"br":"Gortoz","ko":"와이탕이","pt-BR":"Waitangi","pt":"Waitangi","nl":"Waitangi","hr":"Waitangi","fa":"وایتانگی","de":"Waitangi","es":"Waitangi","fr":"Waitangi","ja":"ワイタンギ","it":"Waitangi","zh-CN":"怀唐伊","tr":"Waitangi","ru":"Вайтанги","uk":"Вайтангі","pl":"Waitangi","hi":"वैतांगी","ar":"وايتانجي"}}]},{"name":"Gisborne District","state_code":"GIS","latitude":"-38.13581740","longitude":"178.32393090","cities":[{"name":"Gisborne","latitude":"-38.65333000","longitude":"178.00417000","native":"Gisborne","translations":{"br":"Gisborne","ko":"기스본","pt-BR":"Gisborne","pt":"Gisborne","nl":"Gisborne","hr":"Gisborne","fa":"گیسبورن","de":"Gisborne","es":"Gisborne","fr":"Gisborne","ja":"ギズボーン","it":"Gisborne","zh-CN":"吉斯伯恩","tr":"Gisborne","ru":"Гисборн","uk":"Гісборн","pl":"Gisborne","hi":"Gisborne","ar":"جيسبورن"}}]},{"name":"Hawke's Bay Region","state_code":"HKB","latitude":"-39.60165970","longitude":"176.58044730","cities":[{"name":"Hastings","latitude":"-39.63810000","longitude":"176.84918000","native":"Hastings","translations":{"br":"Hastings","ko":"헤이스팅스","pt-BR":"Hastings","pt":"Hastings","nl":"Hastings","hr":"Hastings","fa":"هیستینگز","de":"Hastings","es":"Hastings","fr":"Hastings","ja":"ヘイスティングス","it":"Hastings","zh-CN":"黑斯廷斯","tr":"Hastings","ru":"Гастингс","uk":"Гастінгс","pl":"Hastings","hi":"हेस्टिंग्स","ar":"هاستينغز"}},{"name":"Napier","latitude":"-39.49260000","longitude":"176.91233000","native":"Napier","translations":{"br":"Napier","ko":"네이피어","pt-BR":"Napier","pt":"Napier","nl":"Napier","hr":"Napier","fa":"ناپیر","de":"Napier","es":"Napier","fr":"Napier","ja":"ネイピア","it":"Napier","zh-CN":"纳皮尔","tr":"Napier","ru":"Нейпир","uk":"Нейпір","pl":"Napier","hi":"नेपियर","ar":"نابير"}},{"name":"Taradale","latitude":"-39.53333000","longitude":"176.85000000","native":"Throadle","translations":{"br":"Taradale","ko":"타라데일","pt-BR":"Taradale","pt":"Taradale","nl":"Taradale","hr":"Taradale","fa":"تاراداله","de":"Taradale","es":"Taradale","fr":"Taradale","ja":"タラデール","it":"Taradale","zh-CN":"塔拉代尔","tr":"Taradale","ru":"Тарадейл","uk":"Тарадейл","pl":"Taradale","hi":"टाराडेल","ar":"تاراديل"}},{"name":"Wairoa","latitude":"-39.03333000","longitude":"177.36667000","native":"Waima","translations":{"br":"Wairoa","ko":"와이로아","pt-BR":"Wairoa","pt":"Wairoa","nl":"Wairoa","hr":"Wairoa","fa":"وایروا","de":"Wairoa","es":"Wairoa","fr":"Wairoa","ja":"ワイロア","it":"Wairoa","zh-CN":"怀罗阿","tr":"Wairoa","ru":"Вайроа","uk":"Вайроа","pl":"Wairoa","hi":"वैरोआ","ar":"وايروا"}}]},{"name":"Manawatu-Wanganui Region","state_code":"MWT","latitude":"-39.72733560","longitude":"175.43755740","cities":[{"name":"Bulls","latitude":"-40.17487000","longitude":"175.38463000","native":"Bulls","translations":{"br":"Ejened","ko":"황소들","pt-BR":"Touros","pt":"Touros","nl":"Stieren","hr":"Bikovi","fa":"گاو نرها","de":"Bullen","es":"Toros","fr":"Taureaux","ja":"ブルズ","it":"Tori","zh-CN":"公牛队","tr":"Boğalar","ru":"Быки","uk":"Бики","pl":"Byki","hi":"बुल्स","ar":"الثيران"}},{"name":"Foxton","latitude":"-40.46667000","longitude":"175.30000000","native":"Foxton","translations":{"br":"Foxton","ko":"폭스턴","pt-BR":"Foxton","pt":"Foxton","nl":"Foxton","hr":"Foxton","fa":"فاکستون","de":"Foxton","es":"Foxton","fr":"Foxton","ja":"フォックストン","it":"Foxton","zh-CN":"福克斯顿","tr":"Foxton","ru":"Фокстон","uk":"Фокстон","pl":"Foxton","hi":"फॉक्सटन","ar":"فوكستون"}},{"name":"Horowhenua District","latitude":"-40.57733000","longitude":"175.38071000"},{"name":"Levin","latitude":"-40.63333000","longitude":"175.27500000","native":"Levin","translations":{"br":"Levin","ko":"번갯불","pt-BR":"Levin","pt":"Levin","nl":"Levin","hr":"Munja","fa":"لوین","de":"Levin","es":"Levin","fr":"Lévin","ja":"レビン","it":"Levin","zh-CN":"莱文","tr":"Levin","ru":"Левин","uk":"Левін","pl":"Lewin","hi":"वज्र","ar":"ليفين"}},{"name":"Manawatu District","latitude":"-40.11979000","longitude":"175.67426000"},{"name":"Palmerston North","latitude":"-40.35636000","longitude":"175.61113000","native":"Palmerston North","translations":{"br":"Palmerston Norzh","ko":"파머스턴 노스","pt-BR":"Palmerston Norte","pt":"Palmerston Norte","nl":"Palmerston Noord","hr":"Palmerston North","fa":"پالمرستون شمالی","de":"Palmerston Nord","es":"Palmerston Norte","fr":"Palmerston Nord","ja":"パーマストンノース","it":"Palmerston North","zh-CN":"北帕默斯顿","tr":"Palmerston Kuzeyi","ru":"Палмерстон-Норт","uk":"Палмерстон-Норт","pl":"Palmerston Północ","hi":"पामर्स्टन नॉर्थ","ar":"بالمرستون نورث"}},{"name":"Waiouru","latitude":"-39.47753000","longitude":"175.66834000","native":"Waiouru","translations":{"br":"Waiouru","ko":"와이오루","pt-BR":"Waiouru","pt":"Waiouru","nl":"Waiouru","hr":"Waiouru","fa":"وایورو","de":"Waiouru","es":"Waiouru","fr":"Waiouru","ja":"ワイオル","it":"Waiouru","zh-CN":"怀乌鲁","tr":"Waiouru","ru":"Вайору","uk":"Вайоуру","pl":"Waiouru","hi":"वैइओरु","ar":"وايورو"}},{"name":"Wanganui","latitude":"-39.93333000","longitude":"175.05000000","native":"Wanganui","translations":{"br":"Wanganui","ko":"왕가누이","pt-BR":"Wanganui","pt":"Wanganui","nl":"Wanganui","hr":"Wanganui","fa":"وانگانویی","de":"Wanganui","es":"Wanganui","fr":"Wanganui","ja":"ワンガヌイ","it":"Wanganui","zh-CN":"旺格努伊","tr":"Wanganui","ru":"Вангануи","uk":"Вангануї","pl":"Wanganui","hi":"वांगानुई","ar":"وانجانوي"}}]},{"name":"Marlborough Region","state_code":"MBH","latitude":"-41.59168830","longitude":"173.76240530","cities":[{"name":"Blenheim","latitude":"-41.51603000","longitude":"173.95280000","native":"Blenheim","translations":{"br":"Blenheim","ko":"황금빛 사과","pt-BR":"Blenheim","pt":"Blenheim","nl":"Blenheim","hr":"Blenheim","fa":"بلنهایم","de":"Blenheim","es":"Blenheim","fr":"Blenheim","ja":"ブレナム","it":"Blenheim","zh-CN":"布伦海姆","tr":"Blenheim","ru":"Бленхейм","uk":"Бленгейм","pl":"Blenheim","hi":"ब्लेंहिएम","ar":"بلينهايم"}},{"name":"Picton","latitude":"-41.29067000","longitude":"174.00801000","native":"Picton","translations":{"br":"Pikton","ko":"픽턴","pt-BR":"Picton","pt":"Picton","nl":"Picton","hr":"Picton","fa":"پیکتون","de":"Picton","es":"Picton","fr":"Picton","ja":"ピクトン","it":"Picton","zh-CN":"皮克顿","tr":"Picton","ru":"Пиктон","uk":"Піктон","pl":"Picton","hi":"पिक्टन","ar":"بيكتون"}}]},{"name":"Nelson Region","state_code":"NSN","latitude":"-41.29853970","longitude":"173.24414910","cities":[{"name":"Nelson","latitude":"-41.27078000","longitude":"173.28404000","native":"Nelson","translations":{"br":"Nelson","ko":"넬슨","pt-BR":"Nelson","pt":"Nelson","nl":"Nelson","hr":"Nelson","fa":"نلسون","de":"Nelson","es":"Nelson","fr":"Nelson","ja":"ネルソン","it":"Nelson","zh-CN":"纳尔逊","tr":"Nelson","ru":"Нельсон","uk":"Нельсон","pl":"Nelson","hi":"नेल्सन","ar":"نيلسون"}}]},{"name":"Northland Region","state_code":"NTL","latitude":"-35.41361720","longitude":"173.93208060","cities":[{"name":"Ahipara","latitude":"-35.16667000","longitude":"173.16667000","native":"Crisis","translations":{"br":"Ahipara","ko":"아히파라","pt-BR":"Ahipara","pt":"Ahipara","nl":"Ahipara","hr":"Ahipara","fa":"آهیپارا","de":"Ahipara","es":"Ahipara","fr":"Ahipara","ja":"アヒパラ","it":"Ahipara","zh-CN":"阿希帕拉","tr":"Ahipara","ru":"Ахипара","uk":"Ахіпара","pl":"Ahipara","hi":"अहिपारा","ar":"أهيبارا"}},{"name":"Dargaville","latitude":"-35.93333000","longitude":"173.88333000","native":"Dargaville","translations":{"br":"Dargaville","ko":"다가빌","pt-BR":"Dargaville","pt":"Dargaville","nl":"Dargaville","hr":"Dargaville","fa":"دارگاویل","de":"Dargaville","es":"Dargaville","fr":"Dargaville","ja":"ダーガビル","it":"Dargaville","zh-CN":"达格维尔","tr":"Dargaville","ru":"Даргавилль","uk":"Даргавіль","pl":"Dargaville","hi":"डार्गाविल","ar":"دارجافيل"}},{"name":"Far North District","latitude":"-35.03359000","longitude":"173.48841000"},{"name":"Kaipara District","latitude":"-35.99546000","longitude":"174.04688000"},{"name":"Kaitaia","latitude":"-35.11485000","longitude":"173.26366000","native":"Kaitaia","translations":{"br":"Kaitaia","ko":"카이타이아","pt-BR":"Kaitaia","pt":"Kaitaia","nl":"Kaitaia","hr":"Kaitaia","fa":"کایتایا","de":"Kaitaia","es":"Kaitaia","fr":"Kaitaia","ja":"カイタイア","it":"Kaitaia","zh-CN":"凯塔亚","tr":"Kaitaia","ru":"Каитаиа","uk":"Кайтая","pl":"Kaitaia","hi":"कैतैया","ar":"كايتايا"}},{"name":"Kawakawa","latitude":"-35.38333000","longitude":"174.06667000","native":"Kawakawa","translations":{"br":"Kawakawa","ko":"카와카와","pt-BR":"Kawakawa","pt":"Kawakawa","nl":"Kawakawa","hr":"Kawakawa","fa":"کاواکاوا","de":"Kawakawa","es":"Kawakawa","fr":"Kawakawa","ja":"川川","it":"Kawakawa","zh-CN":"川川","tr":"Kavakawa","ru":"Кавакава","uk":"Кавакава","pl":"Kawakawa","hi":"कावाकावा","ar":"كاواكاوا"}},{"name":"Kerikeri","latitude":"-35.22676000","longitude":"173.94739000","native":"Minish","translations":{"br":"Kerikeri","ko":"케리케리","pt-BR":"Kerikeri","pt":"Kerikeri","nl":"Kerikeri","hr":"Kerikeri","fa":"کریکری","de":"Kerikeri","es":"Kerikeri","fr":"Kerikeri","ja":"ケリケリ","it":"Kerikeri","zh-CN":"凯里凯里","tr":"Kerikeri","ru":"Керикери","uk":"Керікері","pl":"Kerikeri","hi":"केरीकेरी","ar":"كيريكيري"}},{"name":"Maungatapere","latitude":"-35.75000000","longitude":"174.20000000","native":"Maungatbelpera","translations":{"br":"Maungatapere","ko":"마운가타페레","pt-BR":"Maungatapere","pt":"Maungatapere","nl":"Maungatapere","hr":"Maungatapere","fa":"ماونگاتاپر","de":"Maungatapere","es":"Maungatapere","fr":"Maungatapere","ja":"マウンガタペレ","it":"Maungatapere","zh-CN":"芒加塔佩雷","tr":"Maungatapere","ru":"Маунгатапере","uk":"Маунгатапере","pl":"Maungatapere","hi":"मौंगतापेरे","ar":"ماونغاتابيري"}},{"name":"Moerewa","latitude":"-35.38333000","longitude":"174.03333000","native":"Moerewa","translations":{"br":"Moerewa","ko":"모에레와","pt-BR":"Moerewa","pt":"Moerewa","nl":"Moerewa","hr":"Moerewa","fa":"موروا","de":"Moerewa","es":"Moerewa","fr":"Moerewa","ja":"モエレワ","it":"Moerewa","zh-CN":"莫雷瓦","tr":"Moerewa","ru":"Моерева","uk":"Моерева","pl":"Moerewa","hi":"मोएरेवा","ar":"موريوا"}},{"name":"Ngunguru","latitude":"-35.61667000","longitude":"174.50000000","native":"Tungor","translations":{"br":"Ngunguru","ko":"응구루","pt-BR":"Ngunguru","pt":"Ngunguru","nl":"Ngunguru","hr":"Ngunguru","fa":"نگونگورو","de":"Ngunguru","es":"Ngunguru","fr":"Ngunguru","ja":"ングングル","it":"Ngunguru","zh-CN":"恩贡古鲁","tr":"Ngunguru","ru":"Нгунгуру","uk":"Нгунгуру","pl":"Ngunguru","hi":"न्गुंगुरु","ar":"نجونجورو"}},{"name":"Paihia","latitude":"-35.28067000","longitude":"174.09103000","native":"Goodness","translations":{"br":"Paihia","ko":"파이히아","pt-BR":"Paihia","pt":"Paihia","nl":"Paihia","hr":"Paihia","fa":"پاییا","de":"Paihia","es":"Paihia","fr":"Paihia","ja":"パイヒア","it":"Paihia","zh-CN":"派希亚","tr":"Paihia","ru":"Паихия","uk":"Пайхія","pl":"Paihia","hi":"पैहिया","ar":"بايهيا"}},{"name":"Ruakaka","latitude":"-35.90818000","longitude":"174.45019000","native":"Twist","translations":{"br":"Ruakaka","ko":"루아카카","pt-BR":"Ruakaka","pt":"Ruakaka","nl":"Ruakaka","hr":"Ruakaka","fa":"روآکا","de":"Ruakaka","es":"Ruakaka","fr":"Ruakaka","ja":"ルアカカ","it":"Ruakaka","zh-CN":"鲁阿卡卡","tr":"Ruakaka","ru":"Руакака","uk":"Руакака","pl":"Ruakaka","hi":"रुआकाका","ar":"رواكاكا"}},{"name":"Taipa","latitude":"-34.99604000","longitude":"173.46665000","native":"Taunel","translations":{"br":"Taipa","ko":"타이파","pt-BR":"Taipa","pt":"Taipa","nl":"Taipa","hr":"Taipa","fa":"تایپا","de":"Taipa","es":"Taipa","fr":"Taipa","ja":"タイパ","it":"Taipa","zh-CN":"氹仔","tr":"Taypa","ru":"Тайпа","uk":"Тайпа","pl":"Taipa","hi":"ताइपा","ar":"تايبا"}},{"name":"Waimate North","latitude":"-35.31667000","longitude":"173.88333000","native":"Waimate North","translations":{"br":"Waimate Norzh","ko":"와이마테 북쪽","pt-BR":"Waimate Norte","pt":"Waimate Norte","nl":"Waimate Noord","hr":"Sjeverni Waimate","fa":"وایمات شمالی","de":"Waimate Nord","es":"Waimate Norte","fr":"Waimate Nord","ja":"ワイマテ・ノース","it":"Waimate Nord","zh-CN":"怀马特北","tr":"Waimate Kuzeyi","ru":"Северный Ваймате","uk":"Ваймате Норт","pl":"Waimate Północ","hi":"वाइमेट नॉर्थ","ar":"وايميت الشمالية"}},{"name":"Whangarei","latitude":"-35.73167000","longitude":"174.32391000","native":"Whangarei","translations":{"br":"Whangarei","ko":"황가레이","pt-BR":"Whangarei","pt":"Whangarei","nl":"Whangarei","hr":"Whangarei","fa":"وانگاری","de":"Whangarei","es":"Whangarei","fr":"Whangarei","ja":"ファンガレイ","it":"Whangarei","zh-CN":"旺格雷","tr":"Whangarei","ru":"Фангареи","uk":"Вангарей","pl":"Whangarei","hi":"वॉन्गेरी","ar":"وانجاري"}}]},{"name":"Otago Region","state_code":"OTA","latitude":"-45.47906710","longitude":"170.15475670","cities":[{"name":"Arrowtown","latitude":"-44.93837000","longitude":"168.81007000","native":"Arrowtown","translations":{"br":"Arrowtown","ko":"애로우타운","pt-BR":"Arrowtown","pt":"Arrowtown","nl":"Pijlstad","hr":"Arrowtown","fa":"آروتاون","de":"Arrowtown","es":"Arrowtown","fr":"Arrowtown","ja":"アロータウン","it":"Arrowtown","zh-CN":"箭镇","tr":"Arrowtown","ru":"Эрроутаун","uk":"Ерроутаун","pl":"Arrowtown","hi":"एरोटाउन","ar":"أروتاون"}},{"name":"Balclutha","latitude":"-46.23389000","longitude":"169.75000000","native":"Balclutha","translations":{"br":"Balclutha","ko":"발클루타","pt-BR":"Balclutha","pt":"Balclutha","nl":"Balclutha","hr":"Balclutha","fa":"بالکلوتا","de":"Balclutha","es":"Balclutha","fr":"Balclutha","ja":"バルクルーサ","it":"Balclutha","zh-CN":"巴尔克卢萨","tr":"Balclutha","ru":"Балклута","uk":"Балклута","pl":"Balclutha","hi":"बालक्लुथा","ar":"بالكلوثا"}},{"name":"Clutha District","latitude":"-46.03883000","longitude":"169.60617000"},{"name":"Cromwell","latitude":"-45.03837000","longitude":"169.20008000","native":"Cromwell","translations":{"br":"Cromwell","ko":"크롬웰","pt-BR":"Cromwell","pt":"Cromwell","nl":"Cromwell","hr":"Cromwell","fa":"کرامول","de":"Cromwell","es":"Cromwell","fr":"Cromwell","ja":"クロムウェル","it":"Cromwell","zh-CN":"克伦威尔","tr":"Cromwell","ru":"Кромвель","uk":"Кромвель","pl":"Cromwell","hi":"क्रॉमवेल","ar":"كرومويل"}},{"name":"Dunedin","latitude":"-45.87416000","longitude":"170.50361000","native":"Dunedin","translations":{"br":"Dinedin","ko":"더니든","pt-BR":"Dunedin","pt":"Dunedin","nl":"Dunedin","hr":"Dunedin","fa":"داندین","de":"Dunedin","es":"Dunedin","fr":"Dunedin","ja":"ダニーデン","it":"Dunedin","zh-CN":"达尼丁","tr":"Dunedin","ru":"Данидин","uk":"Данідін","pl":"Dunedin","hi":"डुनेडिन","ar":"دنيدن"}},{"name":"Kingston","latitude":"-45.33288000","longitude":"168.71476000","native":"Kingston","translations":{"br":"Kingston","ko":"킹스턴","pt-BR":"Kingston","pt":"Kingston","nl":"Kingston","hr":"Kingston","fa":"کینگستون","de":"Kingston","es":"Kingston","fr":"Kingston","ja":"キングストン","it":"Kingston","zh-CN":"金斯顿","tr":"Kingston","ru":"Кингстон","uk":"Кінгстон","pl":"Kingston","hi":"किन्टाल","ar":"كينغستون"}},{"name":"Milton","latitude":"-46.12083000","longitude":"169.96944000","native":"Milton","translations":{"br":"Milton","ko":"밀턴","pt-BR":"Milton","pt":"Milton","nl":"Milton","hr":"Milton","fa":"میلتون","de":"Milton","es":"Milton","fr":"Milton","ja":"ミルトン","it":"Milton","zh-CN":"米尔顿","tr":"Milton","ru":"Милтон","uk":"Мілтон","pl":"Milton","hi":"मिल्टन","ar":"ميلتون"}},{"name":"Oamaru","latitude":"-45.09758000","longitude":"170.97087000","native":"Oamaru","translations":{"br":"Oamaru","ko":"오아마루","pt-BR":"Oamaru","pt":"Oamaru","nl":"Oamaru","hr":"Oamaru","fa":"اومارو","de":"Oamaru","es":"Oamaru","fr":"Oamaru","ja":"オアマル","it":"Oamaru","zh-CN":"奥玛鲁","tr":"Oamaru","ru":"Оамару","uk":"Оамару","pl":"Oamaru","hi":"ओमारू","ar":"أوامارو"}},{"name":"Papatowai","latitude":"-46.56069000","longitude":"169.47068000","native":"Cockter","translations":{"br":"Papatowai","ko":"파파토와이","pt-BR":"Papatowai","pt":"Papatowai","nl":"Papatowai","hr":"Papatowai","fa":"پاپاتووای","de":"Papatowai","es":"Papatowai","fr":"Papatowai","ja":"パパトワイ","it":"Papatowai","zh-CN":"帕帕托瓦伊","tr":"Papatowai","ru":"Папатоваи","uk":"Папатавай","pl":"Papatowai","hi":"पापातोवाई","ar":"باباتواي"}},{"name":"Portobello","latitude":"-45.85000000","longitude":"170.65000000","native":"Portobello","translations":{"br":"Portobello","ko":"포르토벨로","pt-BR":"Portobello","pt":"Portobello","nl":"Portobello","hr":"Portobello","fa":"پورتوبلو","de":"Portobello","es":"Portobello","fr":"Portobello","ja":"ポートベロー","it":"Portobello","zh-CN":"波托贝罗","tr":"Portobello","ru":"Портобелло","uk":"Портобелло","pl":"Portobello","hi":"पोर्टोबेलो","ar":"بورتوبيللو"}},{"name":"Queenstown","latitude":"-45.03023000","longitude":"168.66271000","native":"Queenstown","translations":{"br":"Queenstown","ko":"퀸스타운","pt-BR":"Queenstown","pt":"Queenstown","nl":"Queenstown","hr":"Queenstown","fa":"کوئینستاون","de":"Queenstown","es":"Queenstown","fr":"Queenstown","ja":"クイーンズタウン","it":"Queenstown","zh-CN":"皇后镇","tr":"Queenstown","ru":"Квинстаун","uk":"Квінстаун","pl":"Queenstown","hi":"क्वीन्सटाउन","ar":"كوينزتاون"}},{"name":"Wanaka","latitude":"-44.70000000","longitude":"169.15000000","native":"Wanaka","translations":{"br":"Wanaka","ko":"와나카","pt-BR":"Wanaka","pt":"Wanaka","nl":"Wanaka","hr":"Wanaka","fa":"واناکا","de":"Wanaka","es":"Wanaka","fr":"Wanaka","ja":"ワナカ","it":"Wanaka","zh-CN":"瓦纳卡","tr":"Wanaka","ru":"Ванака","uk":"Ванака","pl":"Wanaka","hi":"वनाका","ar":"واناكا"}}]},{"name":"Southland Region","state_code":"STL","latitude":"-45.84891590","longitude":"167.67553870","cities":[{"name":"Bluff","latitude":"-46.60000000","longitude":"168.33333000","native":"Bluff","translations":{"br":"Bluff","ko":"절벽","pt-BR":"Blefe","pt":"Blefe","nl":"Bluffen","hr":"Blef","fa":"بلوف","de":"Bluff","es":"Bluff","fr":"Bluffer","ja":"ブラフ","it":"Bluff","zh-CN":"虚张声势","tr":"Blöf","ru":"Блеф","uk":"Блеф","pl":"Urwisko","hi":"धोखा","ar":"خدعة"}},{"name":"Gore","latitude":"-46.10282000","longitude":"168.94357000","native":"Gore","translations":{"br":"Gore","ko":"핏덩어리","pt-BR":"Sangue","pt":"Sangue","nl":"Bloed","hr":"Krvavost","fa":"گور","de":"Blut","es":"Sangre","fr":"Sang","ja":"ゴア","it":"Sangue","zh-CN":"血块","tr":"Kan","ru":"Гор","uk":"Гор","pl":"Klin","hi":"तिकोना कपड़ा","ar":"جور"}},{"name":"Invercargill","latitude":"-46.40000000","longitude":"168.35000000","native":"Invercargill","translations":{"br":"Invercargill","ko":"인버카길","pt-BR":"Invercargill","pt":"Invercargill","nl":"Invercargill","hr":"Invercargill","fa":"اینورکارگیل","de":"Invercargill","es":"Invercargill","fr":"Invercargill","ja":"インバーカーギル","it":"Invercargill","zh-CN":"因弗卡吉尔","tr":"Invercargill","ru":"Инверкаргилл","uk":"Інверкаргілл","pl":"Invercargill","hi":"इन्वरकार्गिल","ar":"إنفركارجيل"}},{"name":"Riverton","latitude":"-46.35000000","longitude":"168.01667000","native":"Riverton","translations":{"br":"Riverton","ko":"리버튼","pt-BR":"Riverton","pt":"Riverton","nl":"Riverton","hr":"Riverton","fa":"ریورتون","de":"Riverton","es":"Riverton","fr":"Riverton","ja":"リバートン","it":"Riverton","zh-CN":"里弗顿","tr":"Riverton","ru":"Ривертон","uk":"Рівертон","pl":"Riverton","hi":"रिवर्टन","ar":"ريفرتون"}},{"name":"Southland District","latitude":"-45.77256000","longitude":"167.85266000"},{"name":"Te Anau","latitude":"-45.41667000","longitude":"167.71667000","native":"Te Anau","translations":{"br":"Te Anau","ko":"테아나우","pt-BR":"Te Anau","pt":"Te Anau","nl":"Te Anau","hr":"Te Anau","fa":"ته آنائو","de":"Te Anau","es":"Te Anau","fr":"Te Anau","ja":"テアナウ","it":"Te Anau","zh-CN":"蒂阿瑙","tr":"Te Anau","ru":"Те Анау","uk":"Те-Анау","pl":"Te Anau","hi":"ते अनाउ","ar":"تي آناو"}},{"name":"Winton","latitude":"-46.15000000","longitude":"168.33333000","native":"Winton","translations":{"br":"Winton","ko":"윈튼","pt-BR":"Winton","pt":"Winton","nl":"Winton","hr":"Winton","fa":"وینتون","de":"Winton","es":"Winton","fr":"Winton","ja":"ウィントン","it":"Winton","zh-CN":"温顿","tr":"Winton","ru":"Уинтон","uk":"Вінтон","pl":"Winton","hi":"विंटन","ar":"وينتون"}}]},{"name":"Taranaki Region","state_code":"TKI","latitude":"-39.35381490","longitude":"174.43827210","cities":[{"name":"Eltham","latitude":"-39.42917000","longitude":"174.30000000","native":"Eltham","translations":{"br":"Eltham","ko":"엘텀","pt-BR":"Eltham","pt":"Eltham","nl":"Eltham","hr":"Eltham","fa":"التام","de":"Eltham","es":"Eltham","fr":"Eltham","ja":"エルサム","it":"Eltham","zh-CN":"埃尔特姆","tr":"Eltham","ru":"Элтэм","uk":"Елтем","pl":"Eltham","hi":"एल्थम","ar":"إيلثام"}},{"name":"Hawera","latitude":"-39.59167000","longitude":"174.28333000","native":"Hazard","translations":{"br":"Hawera","ko":"하웨라","pt-BR":"Hawera","pt":"Hawera","nl":"Hawera","hr":"Hawera","fa":"هاورا","de":"Hawera","es":"Hawera","fr":"Hawera","ja":"ハウェラ","it":"Hawera","zh-CN":"哈韦拉","tr":"Havera","ru":"Хавера","uk":"Хавера","pl":"Hawera","hi":"हवेरा","ar":"هاويرا"}},{"name":"New Plymouth","latitude":"-39.06667000","longitude":"174.08333000","native":"New Plymouth","translations":{"br":"New Plymouth","ko":"뉴플리머스","pt-BR":"Novo Plymouth","pt":"Novo Plymouth","nl":"Nieuw Plymouth","hr":"Novi Plymouth","fa":"نیو پلیموث","de":"Neues Plymouth","es":"Nueva Plymouth","fr":"Nouvelle Plymouth","ja":"ニュープリマス","it":"Nuova Plymouth","zh-CN":"新普利茅斯","tr":"Yeni Plymouth","ru":"Нью-Плимут","uk":"Нью-Плімут","pl":"Nowy Plymouth","hi":"न्यू प्लायमाउथ","ar":"نيو بلايموث"}},{"name":"New Plymouth District","latitude":"-39.05865000","longitude":"174.10309000","native":"New Plymouth District","translations":{"br":"Distrig New Plymouth","ko":"뉴플리머스 지구","pt-BR":"Distrito de New Plymouth","pt":"Distrito de New Plymouth","nl":"Nieuw Plymouth District","hr":"Okrug New Plymouth","fa":"ناحیه نیو پلیموث","de":"Bezirk New Plymouth","es":"Distrito de New Plymouth","fr":"Quartier de New Plymouth","ja":"ニュープリマス地区","it":"Distretto di New Plymouth","zh-CN":"新普利茅斯区","tr":"New Plymouth Bölgesi","ru":"Район Нью-Плимут","uk":"Нью-Плімутський округ","pl":"Dzielnica New Plymouth","hi":"न्यू प्लायमाउथ जिला","ar":"منطقة نيو بليموث"}},{"name":"Opunake","latitude":"-39.45556000","longitude":"173.85833000","native":"Opunake","translations":{"br":"Opunake","ko":"오푸나케","pt-BR":"Opunake","pt":"Opunake","nl":"Opunake","hr":"Opunake","fa":"اوپوناکه","de":"Opunake","es":"Opunake","fr":"Opunake","ja":"オプナケ","it":"Opunake","zh-CN":"奥普纳克","tr":"Opunake","ru":"Опунаке","uk":"Опунаке","pl":"Opunake","hi":"ओपुनाके","ar":"أوبوناكي"}},{"name":"Patea","latitude":"-39.75833000","longitude":"174.48333000","native":"Patea is the best","translations":{"br":"Patea","ko":"파테아","pt-BR":"Pátea","pt":"Pátea","nl":"Patea","hr":"Patéa","fa":"پاته","de":"Patea","es":"Patea","fr":"Patea","ja":"膝蓋骨","it":"Patea","zh-CN":"帕泰亚","tr":"Patea","ru":"Патеа","uk":"Патеа","pl":"Patea","hi":"पटिया","ar":"باتيا"}},{"name":"South Taranaki District","latitude":"-39.52156000","longitude":"174.37160000"},{"name":"Waitara","latitude":"-39.00158000","longitude":"174.23836000","native":"Liquid","translations":{"br":"Waitara","ko":"와이타라","pt-BR":"Waitara","pt":"Waitara","nl":"Waitara","hr":"Waitara","fa":"وایتارا","de":"Waitara","es":"Waitara","fr":"Waitara","ja":"ワイタラ","it":"Waitara","zh-CN":"怀塔拉","tr":"Waitara","ru":"Вайтара","uk":"Вайтара","pl":"Waitara","hi":"वेतारा","ar":"وايتارا"}}]},{"name":"Tasman District","state_code":"TAS","latitude":"-41.45711840","longitude":"172.82097400","cities":[{"name":"Brightwater","latitude":"-41.38333000","longitude":"173.11667000","native":"Brightwater","translations":{"br":"Brightwater","ko":"브라이트워터","pt-BR":"Água Brilhante","pt":"Água Brilhante","nl":"Helder water","hr":"Brightwater","fa":"برایت‌واتر","de":"Brightwater","es":"Agua brillante","fr":"Brightwater","ja":"ブライトウォーター","it":"Acqua brillante","zh-CN":"布莱特沃特","tr":"Brightwater","ru":"Брайтвотер","uk":"Брайтвотер","pl":"Brightwater","hi":"ब्राइटवाटर","ar":"برايت ووتر"}},{"name":"Mapua","latitude":"-41.25000000","longitude":"173.10000000","native":"Mapua","translations":{"br":"Mapoua","ko":"마푸아","pt-BR":"Mapua","pt":"Mapua","nl":"Mapua","hr":"Mapua","fa":"مپوا","de":"Mapua","es":"Mapua","fr":"Mapua","ja":"マプア","it":"Mapua","zh-CN":"马普阿","tr":"Mapua","ru":"Мапуа","uk":"Мапуа","pl":"Mapua","hi":"मापुआ","ar":"مابوا"}},{"name":"Motueka","latitude":"-41.13333000","longitude":"173.01667000","native":"Motueka","translations":{"br":"Motueka","ko":"모투에카","pt-BR":"Motueka","pt":"Motueka","nl":"Motueka","hr":"Motueka","fa":"موتوکا","de":"Motueka","es":"Motueka","fr":"Motueka","ja":"モトゥエカ","it":"Motueka","zh-CN":"莫图伊卡","tr":"Motueka","ru":"Мотуэка","uk":"Мотуека","pl":"Motueka","hi":"मचुएका","ar":"موتويكا"}},{"name":"Richmond","latitude":"-41.33333000","longitude":"173.18333000","native":"Richmond","translations":{"br":"Richmond","ko":"리치몬드","pt-BR":"Richmond","pt":"Richmond","nl":"Richmond","hr":"Richmond","fa":"ریچموند","de":"Richmond","es":"Richmond","fr":"Richmond","ja":"リッチモンド","it":"Richmond","zh-CN":"里士满","tr":"Richmond","ru":"Ричмонд","uk":"Річмонд","pl":"Richmond","hi":"रिचमंड","ar":"ريتشموند"}},{"name":"Takaka","latitude":"-40.85000000","longitude":"172.80000000","native":"Takaka","translations":{"br":"Takaka","ko":"타카카","pt-BR":"Takaka","pt":"Takaka","nl":"Takaka","hr":"Takaka","fa":"تاکاکا","de":"Takaka","es":"Takaka","fr":"Takaka","ja":"タカカ","it":"Takaka","zh-CN":"塔卡卡","tr":"Takaka","ru":"Такака","uk":"Такака","pl":"Takaka","hi":"ताकाका","ar":"تاكاكا"}},{"name":"Wakefield","latitude":"-41.40000000","longitude":"173.05000000","native":"Wakefield","translations":{"br":"Wakefield","ko":"웨이크필드","pt-BR":"Wakefield","pt":"Wakefield","nl":"Wakefield","hr":"Wakefield","fa":"ویکفیلد","de":"Wakefield","es":"Wakefield","fr":"Wakefield","ja":"ウェイクフィールド","it":"Wakefield","zh-CN":"韦克菲尔德","tr":"Wakefield","ru":"Уэйкфилд","uk":"Вейкфілд","pl":"Wakefield","hi":"वेकफील्ड","ar":"ويكفيلد"}}]},{"name":"Waikato Region","state_code":"WKO","latitude":"-37.61908620","longitude":"175.02334600","cities":[{"name":"Cambridge","latitude":"-37.87822000","longitude":"175.44020000","native":"Cambridge","translations":{"br":"Kembre","ko":"케임브리지","pt-BR":"Cambridge","pt":"Cambridge","nl":"Cambridge","hr":"Cambridge","fa":"کمبریج","de":"Cambridge","es":"Cambridge","fr":"Cambridge","ja":"ケンブリッジ","it":"Cambridge","zh-CN":"剑桥","tr":"Cambridge","ru":"Кембридж","uk":"Кембридж","pl":"Cambridge","hi":"कैंब्रिज","ar":"كامبريدج"}},{"name":"Coromandel","latitude":"-36.76110000","longitude":"175.49634000","native":"Coromandel","translations":{"br":"Koromandel","ko":"코로만델","pt-BR":"Coromandel","pt":"Coromandel","nl":"Coromandel","hr":"Koromandel","fa":"کوروماندل","de":"Coromandel","es":"Coromandel","fr":"Coromandel","ja":"コロマンデル","it":"Coromandel","zh-CN":"科罗曼德","tr":"Koromandel","ru":"Коромандель","uk":"Коромандель","pl":"Koromandel","hi":"COROMANDEL","ar":"كورومانديل"}},{"name":"Hamilton","latitude":"-37.78333000","longitude":"175.28333000","native":"Hamilton","translations":{"br":"Hamilton","ko":"해밀턴","pt-BR":"Hamilton","pt":"Hamilton","nl":"Hamilton","hr":"Hamilton","fa":"همیلتون","de":"Hamilton","es":"Hamilton","fr":"Hamilton","ja":"ハミルトン","it":"Hamilton","zh-CN":"汉密尔顿","tr":"Hamilton","ru":"Гамильтон","uk":"Гамільтон","pl":"Hamilton","hi":"हैमिल्टन","ar":"هاميلتون"}},{"name":"Matamata","latitude":"-37.81060000","longitude":"175.76237000","native":"Watch","translations":{"br":"Matamata","ko":"마타마타","pt-BR":"Matamata","pt":"Matamata","nl":"Matamata","hr":"Matamata","fa":"ماتاماتا","de":"Matamata","es":"Matamata","fr":"Matamata","ja":"マタマタ","it":"Matamata","zh-CN":"马塔玛塔","tr":"Matamata","ru":"Матамата","uk":"Матамата","pl":"Matamata","hi":"महात्मा","ar":"ماتاماتا"}},{"name":"Ngaruawahia","latitude":"-37.66738000","longitude":"175.15554000","native":"Ngaruawahia","translations":{"br":"Ngaruawahia","ko":"응가루아와히아","pt-BR":"Ngaruawahia","pt":"Ngaruawahia","nl":"Ngaruawahia","hr":"Ngaruawahia","fa":"نگاروواواهیا","de":"Ngaruawahia","es":"Ngaruawahia","fr":"Ngaruawahia","ja":"ンガルアワヒア","it":"Ngaruawahia","zh-CN":"恩加鲁阿瓦希亚","tr":"Ngaruawahia","ru":"Нгаруавахия","uk":"Нгаруавахіа","pl":"Ngaruawahia","hi":"न्गारुआवाहिया","ar":"نغارواواهيا"}},{"name":"Ngatea","latitude":"-37.28333000","longitude":"175.50000000","native":"Nga","translations":{"br":"Ngatea","ko":"응가테아","pt-BR":"Ngatea","pt":"Ngatea","nl":"Ngatea","hr":"Ngatea","fa":"نگاتیا","de":"Ngatea","es":"Ngatea","fr":"Ngatea","ja":"ンガテア","it":"Ngatea","zh-CN":"恩加特亚","tr":"Ngatea","ru":"Нгатеа","uk":"Нгатеа","pl":"Ngatea","hi":"नगाटिया","ar":"نغاتيا"}},{"name":"Otorohanga","latitude":"-38.18333000","longitude":"175.20000000","native":"Oatorohanga","translations":{"br":"Otorohanga","ko":"오토로항가","pt-BR":"Otorohanga","pt":"Otorohanga","nl":"Otorohanga","hr":"Otorohanga","fa":"اوتوروهانگا","de":"Otorohanga","es":"Otorohanga","fr":"Otorohanga","ja":"オトロハンガ","it":"Otorohanga","zh-CN":"奥托罗汉格","tr":"Otorohanga","ru":"Отороханга","uk":"Отороханга","pl":"Otorohanga","hi":"ओटोरोहंगा","ar":"أوتوروهانجا"}},{"name":"Paeroa","latitude":"-37.36667000","longitude":"175.66667000","native":"Paeroa","translations":{"br":"Paeroa","ko":"파에로아","pt-BR":"Paeroa","pt":"Paeroa","nl":"Paeroa","hr":"Paeroa","fa":"پائروا","de":"Paeroa","es":"Paeroa","fr":"Paeroa","ja":"パエロア","it":"Paeroa","zh-CN":"派罗瓦","tr":"Paeroa","ru":"Паэроа","uk":"Паероа","pl":"Paeroa","hi":"पैरोआ","ar":"بايروا"}},{"name":"Raglan","latitude":"-37.80000000","longitude":"174.88333000","native":"Raglan","translations":{"br":"Raglan","ko":"라글란","pt-BR":"Raglã","pt":"Raglã","nl":"Raglan","hr":"Raglan kaput","fa":"راگلان","de":"Raglan","es":"Raglán","fr":"Raglan","ja":"ラグラン","it":"Raglan","zh-CN":"拉格伦","tr":"Raglan","ru":"Реглан","uk":"Реглан","pl":"Raglan","hi":"रागलान","ar":"الرغلا ن معطف"}},{"name":"South Waikato District","latitude":"-38.16797000","longitude":"175.88624000"},{"name":"Tairua","latitude":"-37.01667000","longitude":"175.85000000","native":"Old","translations":{"br":"Tairua","ko":"타이루아","pt-BR":"Tairua","pt":"Tairua","nl":"Tairua","hr":"Tairua","fa":"تایروا","de":"Tairua","es":"Tairua","fr":"Tairua","ja":"タイルア","it":"Tairua","zh-CN":"泰鲁阿","tr":"Tairua","ru":"Таируа","uk":"Тайруа","pl":"Tairua","hi":"ताइरुआ","ar":"تايروا"}},{"name":"Taupo","latitude":"-38.68333000","longitude":"176.08333000","native":"Taupo","translations":{"br":"Taupo","ko":"타우포","pt-BR":"Taupo","pt":"Taupo","nl":"Taupo","hr":"Taupo","fa":"تائوپو","de":"Taupo","es":"Taupo","fr":"Taupo","ja":"タウポ","it":"Taupo","zh-CN":"陶波","tr":"Taupo","ru":"Таупо","uk":"Таупо","pl":"Taupo","hi":"तौपो","ar":"تاوبو"}},{"name":"Te Kauwhata","latitude":"-37.40000000","longitude":"175.15000000","native":"Graph","translations":{"br":"Te Kauwhata","ko":"테 카우와타","pt-BR":"Te Kauwhata","pt":"Te Kauwhata","nl":"Te Kauwhata","hr":"Te Kauwhata","fa":"ته کاوهاتا","de":"Te Kauwhata","es":"Te Kauwhata","fr":"Te Kauwhata","ja":"テ・カウワタ","it":"Te Kauwhata","zh-CN":"蒂考瓦塔","tr":"Te Kauwhata","ru":"Те Каухата","uk":"Те Каувата","pl":"Te Kauwhata","hi":"ते कौवाहाटा","ar":"تي كاوهاتا"}},{"name":"Thames","latitude":"-37.13832000","longitude":"175.54011000","native":"Thames","translations":{"br":"Thames","ko":"템스 강","pt-BR":"Tâmisa","pt":"Tâmisa","nl":"Theems","hr":"Temza","fa":"تیمز","de":"Themse","es":"Támesis","fr":"Tamise","ja":"テムズ川","it":"Tamigi","zh-CN":"泰晤士河","tr":"Thames","ru":"Темза","uk":"Темза","pl":"Tamiza","hi":"थेम्स","ar":"نهر التايمز"}},{"name":"Tokoroa","latitude":"-38.23333000","longitude":"175.86667000","native":"Tokoroa","translations":{"br":"Tokoroa","ko":"토코로아","pt-BR":"Tokoroa","pt":"Tokoroa","nl":"Tokoroa","hr":"Tokoroa","fa":"توکوروآ","de":"Tokoroa","es":"Tokoroa","fr":"Tokoroa","ja":"トコロア","it":"Tokoroa","zh-CN":"托科罗阿","tr":"Tokoroa","ru":"Токороа","uk":"Токороа","pl":"Tokoroa","hi":"टोकोरोआ","ar":"توكوروا"}},{"name":"Turangi","latitude":"-38.99037000","longitude":"175.80837000","native":"Dyvert","translations":{"br":"Turangi","ko":"투랑기","pt-BR":"Turangi","pt":"Turangi","nl":"Turangi","hr":"Turangi","fa":"تورنگی","de":"Turangi","es":"Turangi","fr":"Turangi","ja":"トゥランギ","it":"Turangi","zh-CN":"图朗伊","tr":"Turangi","ru":"Туранги","uk":"Турангі","pl":"Turangi","hi":"तुरंगी","ar":"تورانجي"}},{"name":"Waihi","latitude":"-37.38333000","longitude":"175.83333000","native":"Waihi","translations":{"br":"Waihi","ko":"와이히","pt-BR":"Waihi","pt":"Waihi","nl":"Waihi","hr":"Waihi","fa":"وایهی","de":"Waihi","es":"Waihi","fr":"Waihi","ja":"ワイヒ","it":"Waihi","zh-CN":"怀希","tr":"Waihi","ru":"Вайхи","uk":"Вайхі","pl":"Waihi","hi":"वैही","ar":"وايهي"}},{"name":"Whangamata","latitude":"-37.20000000","longitude":"175.86667000","native":"Whangamata","translations":{"br":"Whangamata","ko":"황가마타","pt-BR":"Whangamata","pt":"Whangamata","nl":"Whangamata","hr":"Whangamata","fa":"وانگاماتا","de":"Whangamata","es":"Whangamata","fr":"Whangamata","ja":"ファンガマタ","it":"Whangamata","zh-CN":"旺阿马塔","tr":"Whangamata","ru":"Вангамата","uk":"Вангамата","pl":"Whangamata","hi":"वांगामाता","ar":"وانغاماتا"}},{"name":"Whitianga","latitude":"-36.83333000","longitude":"175.70000000","native":"WHITIANGA","translations":{"br":"Whitianga","ko":"휘티앙가","pt-BR":"Whitianga","pt":"Whitianga","nl":"Whitianga","hr":"Whitianga","fa":"ویتیانگا","de":"Whitianga","es":"Whitianga","fr":"Whitianga","ja":"フィティアンガ","it":"Whitianga","zh-CN":"怀蒂昂格","tr":"Whitianga","ru":"Уитианга","uk":"Вітіанга","pl":"Whitianga","hi":"व्हिटियांगा","ar":"ويتيانجا"}}]},{"name":"Wellington Region","state_code":"WGN","latitude":"-41.02993230","longitude":"175.43755740","cities":[{"name":"Brooklyn","latitude":"-41.30586000","longitude":"174.76257000","native":"Brooklyn","translations":{"br":"Brooklyn","ko":"브루클린","pt-BR":"Brooklyn","pt":"Brooklyn","nl":"Brooklyn","hr":"Brooklyn","fa":"بروکلین","de":"Brooklyn","es":"Brooklyn","fr":"Brooklyn","ja":"ブルックリン","it":"Brooklyn","zh-CN":"布鲁克林","tr":"Brooklyn","ru":"Бруклин","uk":"Бруклін","pl":"Brooklyn","hi":"ब्रुकलीन","ar":"بروكلين"}},{"name":"Castlepoint","latitude":"-40.90000000","longitude":"176.21667000","native":"Castlepoint","translations":{"br":"Castlepoint","ko":"캐슬포인트","pt-BR":"Castlepoint","pt":"Castlepoint","nl":"Kasteelpunt","hr":"Castlepoint","fa":"کسل‌پوینت","de":"Burgpunkt","es":"Punto del castillo","fr":"Castlepoint","ja":"キャッスルポイント","it":"Castlepoint","zh-CN":"卡斯尔波因特","tr":"Kale noktası","ru":"Каслпойнт","uk":"Каслпойнт","pl":"Castlepoint","hi":"कैसलपॉइंट","ar":"كاسل بوينت"}},{"name":"Kapiti Coast District","latitude":"-40.85682000","longitude":"175.14690000"},{"name":"Kelburn","latitude":"-41.28333000","longitude":"174.76667000","native":"Kelburn","translations":{"br":"Kelburn","ko":"켈번","pt-BR":"Kelburn","pt":"Kelburn","nl":"Kelburn","hr":"Kelburn","fa":"کلبورن","de":"Kelburn","es":"Kelburn","fr":"Kelburn","ja":"ケルバーン","it":"Kelburn","zh-CN":"凯尔伯恩","tr":"Kelburn","ru":"Кельберн","uk":"Келберн","pl":"Kelburn","hi":"केलबर्न","ar":"كيلبورن"}},{"name":"Khandallah","latitude":"-41.24500000","longitude":"174.79422000","native":"Khandallah","translations":{"br":"Khandallah","ko":"칸달라","pt-BR":"Khandallah","pt":"Khandallah","nl":"Khandallah","hr":"Khandallah","fa":"خانداله","de":"Khandallah","es":"Khandallah","fr":"Khandallah","ja":"カンダラ","it":"Khandallah","zh-CN":"坎达拉","tr":"Khandallah","ru":"Кхандаллах","uk":"Хандалла","pl":"Khandallah","hi":"खंडल्लाह","ar":"خندالله"}},{"name":"Lower Hutt","latitude":"-41.21667000","longitude":"174.91667000","native":"Lower Hutt","translations":{"br":"Lower Hutt","ko":"로어헛","pt-BR":"Lower Hutt","pt":"Lower Hutt","nl":"Beneden Hutt","hr":"Donji Hutt","fa":"لاور هات","de":"Lower Hutt","es":"Lower Hutt","fr":"Basse-Hutt","ja":"ローワーハット","it":"Lower Hutt","zh-CN":"下哈特","tr":"Aşağı Hutt","ru":"Нижний Хатт","uk":"Нижній Хатт","pl":"Dolny Hutt","hi":"लोअर हट","ar":"لور هت"}},{"name":"Masterton","latitude":"-40.95972000","longitude":"175.65750000","native":"Masterton","translations":{"br":"Masterton","ko":"마스터턴","pt-BR":"Masterton","pt":"Masterton","nl":"Masterton","hr":"Masterton","fa":"مسترتون","de":"Masterton","es":"Masterton","fr":"Masterton","ja":"マスタートン","it":"Masterton","zh-CN":"马斯特顿","tr":"Masterton","ru":"Мастертон","uk":"Мастертон","pl":"Masterton","hi":"मास्टर्टन","ar":"ماسترتون"}},{"name":"Otaki","latitude":"-40.75833000","longitude":"175.15000000","native":"Otaki","translations":{"br":"Otaki","ko":"오타키","pt-BR":"Otaki","pt":"Otaki","nl":"Otaki","hr":"Otaki","fa":"اوتاکی","de":"Otaki","es":"Otaki","fr":"Otaki","ja":"大滝","it":"Otaki","zh-CN":"大泷","tr":"Otaki","ru":"Отаки","uk":"Отакі","pl":"Otaki","hi":"ओटाकी","ar":"أوتاكي"}},{"name":"Paraparaumu","latitude":"-40.91667000","longitude":"175.01667000","native":"Paraparau","translations":{"br":"Paraparaumu","ko":"파라파라우무","pt-BR":"Paraparaumu","pt":"Paraparaumu","nl":"Paraparaumu","hr":"Paraparaumu","fa":"پاراپارائومو","de":"Paraparaumu","es":"Paraparaumu","fr":"Paraparaumu","ja":"パラパラウム","it":"Paraparaumu","zh-CN":"帕拉帕拉乌穆","tr":"Paraparaumu","ru":"Парапарауму","uk":"Парапарауму","pl":"Paraparaumu","hi":"परापारामु","ar":"باراباراومو"}},{"name":"Petone","latitude":"-41.22827000","longitude":"174.87019000","native":"Petone","translations":{"br":"Peton","ko":"페톤","pt-BR":"Petone","pt":"Petone","nl":"Petone","hr":"Petone","fa":"پتونه","de":"Petone","es":"Petone","fr":"Pétone","ja":"ペトーン","it":"Petone","zh-CN":"佩托内","tr":"Petone","ru":"Петоне","uk":"Петоне","pl":"Petone","hi":"पेटोन","ar":"بيتون"}},{"name":"Porirua","latitude":"-41.13333000","longitude":"174.85000000","native":"Porirua","translations":{"br":"Porirua","ko":"포리루아","pt-BR":"Porirua","pt":"Porirua","nl":"Porirua","hr":"Porirua","fa":"پوریروا","de":"Porirua","es":"Porirua","fr":"Porirua","ja":"ポリルア","it":"Porirua","zh-CN":"波里鲁阿","tr":"Porirua","ru":"Порируа","uk":"Поріруа","pl":"Porirua","hi":"पोरिरुआ","ar":"بوريروا"}},{"name":"South Wairarapa District","latitude":"-41.26731000","longitude":"175.38442000"},{"name":"Upper Hutt","latitude":"-41.13827000","longitude":"175.05020000","native":"Upper Hutt","translations":{"br":"Upper Hutt","ko":"어퍼 허트","pt-BR":"Upper Hutt","pt":"Upper Hutt","nl":"Boven Hutt","hr":"Gornji Hutt","fa":"هات بالایی","de":"Upper Hutt","es":"Upper Hutt","fr":"Hutt supérieur","ja":"アッパーハット","it":"Upper Hutt","zh-CN":"上哈特","tr":"Yukarı Hutt","ru":"Верхний Хатт","uk":"Верхній Хатт","pl":"Górny Hutt","hi":"अपर हट","ar":"أبر هت"}},{"name":"Waipawa","latitude":"-41.41222000","longitude":"175.51528000","native":"Waipawa","translations":{"br":"Waipawa","ko":"와이파와","pt-BR":"Waipawa","pt":"Waipawa","nl":"Waipawa","hr":"Waipawa","fa":"وایپاوا","de":"Waipawa","es":"Waipawa","fr":"Waipawa","ja":"ワイパワ","it":"Waipawa","zh-CN":"怀帕瓦","tr":"Waipawa","ru":"Вайпава","uk":"Вайпава","pl":"Waipawa","hi":"वाइपावा","ar":"وايباوا"}},{"name":"Wellington","latitude":"-41.28664000","longitude":"174.77557000","native":"Wellington","translations":{"br":"Wellington","ko":"웰링턴","pt-BR":"Wellington","pt":"Wellington","nl":"Wellington","hr":"Wellington","fa":"ولینگتون","de":"Wellington","es":"Wellington","fr":"Wellington","ja":"ウェリントン","it":"Wellington","zh-CN":"惠灵顿","tr":"Wellington","ru":"Веллингтон","uk":"Веллінгтон","pl":"Wellington","hi":"वेलिंग्टन","ar":"ويلينغتون"}},{"name":"Wellington City","latitude":"-41.25300000","longitude":"174.75424000"}]},{"name":"West Coast Region","state_code":"WTC","latitude":"62.41136340","longitude":"-149.07297140","cities":[{"name":"Greymouth","latitude":"-42.46667000","longitude":"171.20000000","native":"Greymouth","translations":{"br":"Greymouth","ko":"그레이마우스","pt-BR":"Greymouth","pt":"Greymouth","nl":"Greymouth","hr":"Greymouth","fa":"گریموث","de":"Greymouth","es":"Greymouth","fr":"Greymouth","ja":"グレイマウス","it":"Greymouth","zh-CN":"格雷茅斯","tr":"Gri ağız","ru":"Греймут","uk":"Греймут","pl":"Greymouth","hi":"ग्रेमाउथ","ar":"سمكة رمادية"}},{"name":"Hokitika","latitude":"-42.71667000","longitude":"170.96667000","native":"Hokitika","translations":{"br":"Hokitika","ko":"호키티카","pt-BR":"Hokitika","pt":"Hokitika","nl":"Hokitika","hr":"Hokitika","fa":"هوکیتیکا","de":"Hokitika","es":"Hokitika","fr":"Hokitika","ja":"ホキティカ","it":"Hokitika","zh-CN":"霍基蒂卡","tr":"Hokitika","ru":"Хокитика","uk":"Хокітіка","pl":"Hokitika","hi":"होकिटिका","ar":"هوكيتيكا"}},{"name":"Westport","latitude":"-41.75262000","longitude":"171.60370000","native":"Westport","translations":{"br":"Westport","ko":"웨스트포트","pt-BR":"Westport","pt":"Westport","nl":"Westport","hr":"Westport","fa":"وستپورت","de":"Westport","es":"Westport","fr":"Westport","ja":"ウェストポート","it":"Westport","zh-CN":"韦斯特波特","tr":"Westport","ru":"Вестпорт","uk":"Вестпорт","pl":"Westport","hi":"वेस्टपोर्ट","ar":"ويستبورت"}}]}]}