{"code":"RW","states":[{"name":"Eastern Province","state_code":"02","latitude":null,"longitude":null,"cities":[{"name":"Kibungo","latitude":"-2.15970000","longitude":"30.54270000","native":"Kibungo","translations":{"br":"Kibungo","ko":"키붕고","pt-BR":"Kibungo","pt":"Kibungo","nl":"Kibungo","hr":"Kibungo","fa":"کیبونگو","de":"Kibungo","es":"Kibungo","fr":"Kibungo","ja":"キブンゴ","it":"Kibungo","zh-CN":"基邦戈","tr":"Kibungo","ru":"Кибунго","uk":"Кібунго","pl":"Kibungo","hi":"किबुंगो","ar":"كيبونغو","hy":"Կիբունգո"}},{"name":"Rwamagana","latitude":"-1.94870000","longitude":"30.43470000","native":"Rwamagana","translations":{"br":"Rwamagana","ko":"르와마가나","pt-BR":"Rwamagana","pt":"Rwamagana","nl":"Rwamagana","hr":"Rwamagana","fa":"رواماگانا","de":"Rwamagana","es":"Rwamagana","fr":"Rwamagana","ja":"ルワマガナ","it":"Rwamagana","zh-CN":"鲁瓦马加纳","tr":"Rwamagana","ru":"Рвамагана","uk":"Рвамагана","pl":"Rwamagana","hi":"रवामागाना","ar":"رواماغانا","hy":"Ռվամագանա"}}]},{"name":"Kigali district","state_code":"01","latitude":"-1.94407270","longitude":"30.06188510","cities":[{"name":"Kigali","latitude":"-1.94995000","longitude":"30.05885000","native":"Kigali","translations":{"br":"Kigaleg","ko":"키갈리","pt-BR":"Kigali","pt":"Kigali","nl":"Kigali","hr":"Kigali","fa":"کیگالی","de":"Kigali","es":"Kigali","fr":"Kigali","ja":"キガリ","it":"Kigali","zh-CN":"基加利","tr":"Kigali","ru":"Кигали","uk":"Кігалі","pl":"Kigali","hi":"किगली","ar":"كيغالي","hy":"Կիգալի"}}]},{"name":"Northern Province","state_code":"03","latitude":null,"longitude":null,"cities":[{"name":"Byumba","latitude":"-1.57630000","longitude":"30.06750000","native":"Byumba","translations":{"br":"Byumba","ko":"비움바","pt-BR":"Byumba","pt":"Byumba","nl":"Byumba","hr":"Byumba","fa":"بیومبا","de":"Byumba","es":"Byumba","fr":"Byumba","ja":"ビュンバ","it":"Byumba","zh-CN":"比温巴","tr":"Byumba","ru":"Бьюмба","uk":"Б'юмба","pl":"Byumba","hi":"ब्यूम्बा","ar":"بيومبا","hy":"Բիումբա"}},{"name":"Musanze","latitude":"-1.49984000","longitude":"29.63497000","native":"Musanze","translations":{"br":"Musanze","ko":"무산제","pt-BR":"Musanze","pt":"Musanze","nl":"Musanze","hr":"Musanze","fa":"موسانزه","de":"Musanze","es":"Musanze","fr":"Musanze","ja":"ムサンゼ","it":"Musanze","zh-CN":"穆桑泽","tr":"Musanze","ru":"Мусанзе","uk":"Мусанзе","pl":"Musanze","hi":"मुसांज़े","ar":"موسانزي","hy":"Մուսանզե"}}]},{"name":"Southern Province","state_code":"05","latitude":null,"longitude":null,"cities":[{"name":"Butare","latitude":"-2.59667000","longitude":"29.73944000","native":"Butare","translations":{"br":"Butare","ko":"부타레","pt-BR":"Butare","pt":"Butare","nl":"Butare","hr":"Butare","fa":"بوتاره","de":"Butare","es":"Pero son","fr":"Butare","ja":"ブタレ","it":"Butare","zh-CN":"布塔雷","tr":"Butare","ru":"Бутаре","uk":"Бутаре","pl":"Butare","hi":"लेकिन हैं","ar":"بوتاري","hy":"Բուտարե"}},{"name":"Eglise Catholique, Centrale GIKO","latitude":"-1.93653000","longitude":"29.80610000","translations":{"hy":"Եղիսե Կաթոլիկ, Կենտրոնական GIKO"}},{"name":"Gitarama","latitude":"-2.07444000","longitude":"29.75667000","native":"Gitarama","translations":{"br":"Gitarama","ko":"기타라마","pt-BR":"Guitarra","pt":"Guitarra","nl":"Gitaar","hr":"Gitarama","fa":"گیتاراما","de":"Gitarama","es":"Guitarra","fr":"Gitarama","ja":"ギタラマ","it":"Gitarama","zh-CN":"吉塔拉马","tr":"Gitarama","ru":"Гитарама","uk":"Гітарама","pl":"Gitarama","hi":"गीताराम","ar":"جيتاراما","hy":"Գիտարամա"}},{"name":"Nzega","latitude":"-2.47900000","longitude":"29.55640000","native":"NZEGA","translations":{"br":"Nzega","ko":"은제가","pt-BR":"Nzega","pt":"Nzega","nl":"Nzega","hr":"Nzega","fa":"نزگا","de":"Nzega","es":"Nzega","fr":"Nzega","ja":"ンゼガ","it":"Nzega","zh-CN":"恩泽加","tr":"Nzega","ru":"Нзега","uk":"Нзега","pl":"Nzega","hi":"न्ज़ेगा","ar":"نزيجا","hy":"Նզեգա"}}]},{"name":"Western Province","state_code":"04","latitude":null,"longitude":null,"cities":[{"name":"Cyangugu","latitude":"-2.48460000","longitude":"28.90750000","native":"Cyangugu","translations":{"br":"Cyangugu","ko":"시안구구","pt-BR":"Cyangugu","pt":"Cyangugu","nl":"Cyangugu","hr":"Cjangugu","fa":"سیانگوگو","de":"Cyangugu","es":"Cyangugu","fr":"Cyangugu","ja":"チャンググ","it":"Cyangugu","zh-CN":"尚古古","tr":"Cyangugu","ru":"Сьянгугу","uk":"Цьянгугу","pl":"Cyangugu","hi":"च्यांगुगु","ar":"سيانجوجو","hy":"Ցիանգուգու"}},{"name":"Gisenyi","latitude":"-1.70278000","longitude":"29.25639000","native":"Gisenyi","translations":{"br":"Gisenyi","ko":"기세니","pt-BR":"Gisenyi","pt":"Gisenyi","nl":"Gisenyi","hr":"Gisenyi","fa":"گیسنی","de":"Gisenyi","es":"Gisenyi","fr":"Gisenyi","ja":"ギセニ","it":"Gisenyi","zh-CN":"吉塞尼","tr":"Gisenyi","ru":"Гисеньи","uk":"Гісеньї","pl":"Gisenyi","hi":"गिसेनी","ar":"جيسيني","hy":"Գիսենյի"}},{"name":"Kibuye","latitude":"-2.06028000","longitude":"29.34778000","native":"Kibuye","translations":{"br":"Kibuye","ko":"키부예","pt-BR":"Kibuye","pt":"Kibuye","nl":"Kibuye","hr":"Kibuye","fa":"کیبویه","de":"Kibuye","es":"Kibuye","fr":"Kibuye","ja":"キブエ","it":"Kibuye","zh-CN":"基布耶","tr":"Kibuye","ru":"Кибуе","uk":"Кібує","pl":"Kibuye","hi":"किबुये","ar":"كيبويي","hy":"Կիբույե"}}]}]}