{"code":"SA","states":[{"name":"'Asir Region","state_code":"14","latitude":"19.09690620","longitude":"42.86378750","cities":[{"name":"Abha","latitude":"18.21639000","longitude":"42.50528000","native":"أبها","translations":{"br":"Abha","ko":"아브하","pt-BR":"Abha","pt":"Abha","nl":"Abha","hr":"Abha","fa":"ابها","de":"Abha","es":"Abha","fr":"Abha (Arabie saoudite)","ja":"アブハー","it":"Abha","zh-CN":"阿卜哈","tr":"Abha","ru":"Абха","uk":"Абга","pl":"Abha","hi":"आभा","ar":"أبها","bn":"আবহা","id":"Abha","vi":"Abha","zh":"艾卜哈"}},{"name":"Al Majāridah","latitude":"19.12361000","longitude":"41.91111000","native":"المجاردة","translations":{"br":"Al Majāridah","ko":"알 마자리다","pt-BR":"Al Majāridah","pt":"Al Majāridah","nl":"Al Majāridah","hr":"Al Majāridah","fa":"المجاریده","de":"Al Majāridah","es":"Al Majāridah","fr":"Al Majāridah","ja":"アル・マジャリダ","it":"Al Majāridah","zh-CN":"阿尔马贾里达","tr":"Al Majāridah","ru":"Аль-Маджарида","uk":"Аль-Маджаріда","pl":"Al Majāridah","hi":"अल मजारिदा","ar":"المجاردة"}},{"name":"An Nimāş","latitude":"19.14547000","longitude":"42.12009000"},{"name":"Khamis Mushait","latitude":"18.30000000","longitude":"42.73333000","native":"خميس مشيط","translations":{"br":"Khamis Mushait","ko":"카미스 무샤이트","pt-BR":"Khamis Mushait","pt":"Khamis Mushait","nl":"Khamis Mushait","hr":"Khamis Mushait","fa":"خمیس ​​مشیط","de":"Chamis Muschait","es":"Khamis Mushait","fr":"Khamis Mushait","ja":"カミス・ムシャイト","it":"Khamis Mushait","zh-CN":"哈米斯·穆谢特","tr":"Khamis Muşayt","ru":"Хамис Мушаит","uk":"Хаміс Мушаїт","pl":"Khamis Mushait","hi":"ख़ामिस मुशैत","ar":"خميس مشيط"}},{"name":"Qal‘at Bīshah","latitude":"20.00054000","longitude":"42.60520000"},{"name":"Sabt Al Alayah","latitude":"19.70000000","longitude":"41.91667000"},{"name":"Tabālah","latitude":"19.95000000","longitude":"42.40000000","native":"طبلة","translations":{"br":"Tabālah","ko":"타발라","pt-BR":"Tabālah","pt":"Tabālah","nl":"Tabālah","hr":"Tabala","fa":"تباله","de":"Tabālah","es":"Tabalá","fr":"Tabalah","ja":"タバラ","it":"Tabālah","zh-CN":"塔巴拉","tr":"Tabālah","ru":"Табала","uk":"Табала","pl":"Tabālah","hi":"तबालाह","ar":"طبلة"}}]},{"name":"Al Bahah Region","state_code":"11","latitude":"20.27227390","longitude":"41.44125100","cities":[{"name":"Al Bahah","latitude":"20.01288000","longitude":"41.46767000","native":"الباحة","translations":{"br":"Al Bahah","ko":"알 바하","pt-BR":"Al Bahah","pt":"Al Bahah","nl":"Al Bahah","hr":"Al-Bahah","fa":"البهاح","de":"Al-Bahah","es":"Al Bahah","fr":"Al Bahah","ja":"アル・バハ","it":"Al Bahah","zh-CN":"艾尔巴哈","tr":"El Bahah","ru":"Аль-Баха","uk":"Аль-Бахах","pl":"Al Bahah","hi":"अल बहाह","ar":"الباحة"}},{"name":"Al Mindak","latitude":"20.15880000","longitude":"41.28337000","native":"المندق","translations":{"br":"Al Mindak","ko":"알 민다크","pt-BR":"Al Mindak","pt":"Al Mindak","nl":"Al Mindak","hr":"Al Mindak","fa":"آل میندک","de":"Al Mindak","es":"Al Mindak","fr":"Al Mindak","ja":"アル・ミンダック","it":"Al Mindak","zh-CN":"阿尔明达克","tr":"Al Mindak","ru":"Аль Миндак","uk":"Аль Міндак","pl":"Al Mindak","hi":"अल मिंडक","ar":"المندق"}}]},{"name":"Al Jawf Region","state_code":"12","latitude":"29.88735600","longitude":"39.32062410","cities":[{"name":"Qurayyat","latitude":"31.33176000","longitude":"37.34282000","native":"قريات","translations":{"br":"Qurayyat","ko":"쿠라이야트","pt-BR":"Qurayyat","pt":"Qurayyat","nl":"Qurayyat","hr":"Kurajati","fa":"قریات","de":"Qurayyat","es":"Qurayyat","fr":"Qurayyat","ja":"クライヤット","it":"Qurayyat","zh-CN":"古莱亚特","tr":"Kurayyat","ru":"Курайят","uk":"Курайят","pl":"Kurajjat","hi":"क़ुरैयात","ar":"قريات"}},{"name":"Sakakah","latitude":"29.96974000","longitude":"40.20641000","native":"سكاكا","translations":{"br":"Sakakah","ko":"사카카","pt-BR":"Sakakah","pt":"Sakakah","nl":"Sakakah","hr":"Sakakah","fa":"سکاکه","de":"Sakakah","es":"Sakakah","fr":"Sakaka","ja":"サカカ","it":"Sakakah","zh-CN":"萨卡卡","tr":"Sakakah","ru":"Сакака","uk":"Сакака","pl":"Sakakah","hi":"सकाका","ar":"سكاكا"}},{"name":"Şuwayr","latitude":"30.11713000","longitude":"40.38925000","native":"شوير","translations":{"br":"Şuwayr","ko":"수와이르","pt-BR":"Şuwayr","pt":"Şuwayr","nl":"Şuwayr","hr":"Šuvajr","fa":"شوایر","de":"Şuwayr","es":"Suwayr","fr":"Suwayr","ja":"シュワイル","it":"Şuwayr","zh-CN":"苏韦尔","tr":"Şuwayr","ru":"Шувайр","uk":"Шувайр","pl":"Şuwayr","hi":"सुवेर","ar":"شوير"}},{"name":"Ţubarjal","latitude":"30.49987000","longitude":"38.21603000","native":"طبرجل","translations":{"br":"Ţubarjal","ko":"타바르잘","pt-BR":"Ţubarjal","pt":"Ţubarjal","nl":"Ţubarjal","hr":"Tubarjal","fa":"توبارجال","de":"Ţubarjal","es":"Tubarjal","fr":"Tubarjal","ja":"トゥバルジャル","it":"Ţubarjal","zh-CN":"塔巴尔加尔","tr":"Ţubarjal","ru":"Цубарджал","uk":"Тубарджал","pl":"Ţubarjal","hi":"Ţubarjal","ar":"طبرجل"}}]},{"name":"Al Madinah Region","state_code":"03","latitude":"24.84039770","longitude":"39.32062410","cities":[{"name":"Al-`Ula","latitude":"26.60853000","longitude":"37.92316000"},{"name":"Badr Ḩunayn","latitude":"23.78292000","longitude":"38.79047000"},{"name":"Medina","latitude":"24.46861000","longitude":"39.61417000","native":"المدينة المنورة","translations":{"br":"Medina","ko":"메디나","pt-BR":"Medina","pt":"Medina","nl":"Medina","hr":"Medina","fa":"مدینه","de":"Medina","es":"Medina","fr":"Médine","ja":"メディナ","it":"Medina","zh-CN":"麦地那","tr":"Medine","ru":"Медина","uk":"Медіна","pl":"Medyna","hi":"मेडिना","ar":"المدينة المنورة"}},{"name":"Sulţānah","latitude":"24.49258000","longitude":"39.58572000"},{"name":"Yanbu","latitude":"24.08954000","longitude":"38.06180000","native":"ينبع","translations":{"br":"Yanbu","ko":"얀부","pt-BR":"Ianbu","pt":"Ianbu","nl":"Yanbu","hr":"Yanbu","fa":"ینبع","de":"Yanbu","es":"Yanbu","fr":"Yanbu","ja":"ヤンブー","it":"Yanbu","zh-CN":"延布","tr":"Yenbu","ru":"Янбу","uk":"Янбу","pl":"Yanbu","hi":"यानबु","ar":"ينبع"}}]},{"name":"Al-Qassim Region","state_code":"05","latitude":"26.20782600","longitude":"43.48373800","cities":[{"name":"Adh Dhibiyah","latitude":"26.02700000","longitude":"43.15700000","native":"الذبيحة","translations":{"br":"Adh Dhibiyah","ko":"아드 디비야","pt-BR":"Adh Dhibiyah","pt":"Adh Dhibiyah","nl":"Adh Dhibiyah","hr":"Adh Dhibiyah","fa":"اده ذبیه","de":"Adh Dhibiyah","es":"Adh Dhibiyah","fr":"Adh Dhibiyah","ja":"アドゥ・ディビヤ","it":"Adh Dhibiyah","zh-CN":"阿兹迪比耶","tr":"Adh Dhibiyah","ru":"Аз Дх Дхибия","uk":"Адх Дхібія","pl":"Adh Dhibiyah","hi":"अज़ धिबियाह","ar":"الذبيحة"}},{"name":"Al Bukayrīyah","latitude":"26.13915000","longitude":"43.65782000","native":"البكيرية","translations":{"br":"Al Bukayrīyah","ko":"알 부카이리야","pt-BR":"Al Bukayrīyah","pt":"Al Bukayrīyah","nl":"Al Bukayrīyah","hr":"Al Bukayrīyah","fa":"البکیریه","de":"Al Bukayrīyah","es":"Al Bukayrīyah","fr":"Al Bukayrīyah","ja":"アル・ブカイリーヤ","it":"Al Bukayrīyah","zh-CN":"布凯里耶","tr":"Al Bukayriyah","ru":"Аль-Букайрия","uk":"Аль-Букайрія","pl":"Al Bukayrīyah","hi":"अल बुकैरीयाह","ar":"البكيرية"}},{"name":"Al Fuwayliq","latitude":"26.44360000","longitude":"43.25164000","native":"الفويلق","translations":{"br":"Al Fuwayliq","ko":"알 푸와일릭","pt-BR":"Al Fuwayliq","pt":"Al Fuwayliq","nl":"Al Fuwayliq","hr":"Al Fuwayliq","fa":"الفویلیق","de":"Al Fuwayliq","es":"Al Fuwayliq","fr":"Al Fuwayliq","ja":"アル・フワイリク","it":"Al Fuwayliq","zh-CN":"阿尔富韦利克","tr":"El Fuveylik","ru":"Аль-Фувайлик","uk":"Аль-Фувайлік","pl":"Al Fuwayliq","hi":"अल फ़ुवेलिक","ar":"الفويلق"}},{"name":"Al Mithnab","latitude":"25.86012000","longitude":"44.22228000","native":"المذنب","translations":{"br":"Al Mithnab","ko":"알 미스나브","pt-BR":"Al Mithnab","pt":"Al Mithnab","nl":"Al Mithnab","hr":"Al-Mitnab","fa":"المثناب","de":"Al Mithnab","es":"Al Mithnab","fr":"Al-Mithnab","ja":"アル・ミトナブ","it":"Al Mithnab","zh-CN":"阿尔·米特纳布","tr":"El-Misnab","ru":"Аль-Митнаб","uk":"Аль-Мітнаб","pl":"Al Mithnab","hi":"अल मिथनाब","ar":"المذنب"}},{"name":"Ar Rass","latitude":"25.86944000","longitude":"43.49730000","native":"الراس","translations":{"br":"Ar Rass","ko":"아르 라스","pt-BR":"Ar Rass","pt":"Ar Rass","nl":"Ar Rass","hr":"Ar Rass","fa":"آر راس","de":"Ar Rass","es":"Ar Rass","fr":"Ar Rass","ja":"アル・ラス","it":"Ar Rass","zh-CN":"阿尔·拉斯","tr":"Ar Rass","ru":"Ар Расс","uk":"Ар Расс","pl":"Ar Rass","hi":"अर रस","ar":"الراس"}},{"name":"Buraydah","latitude":"26.32599000","longitude":"43.97497000","native":"بريدة","translations":{"br":"Buraydah","ko":"부라이다","pt-BR":"Buraydah","pt":"Buraydah","nl":"Buraidah","hr":"Burajda","fa":"بریده","de":"Buraida","es":"Buraidá","fr":"Buraydah","ja":"ブライダ","it":"Buraydah","zh-CN":"布赖代","tr":"Buraydah","ru":"Бурайда","uk":"Бурайда","pl":"Burajda","hi":"बुरायदा","ar":"بريدة"}},{"name":"Tanūmah","latitude":"27.10000000","longitude":"44.13333000","native":"تنومة","translations":{"br":"Tanūmah","ko":"타누마","pt-BR":"Tanumah","pt":"Tanumah","nl":"Tanūmah","hr":"Tanuma","fa":"تنومه","de":"Tanūmah","es":"Tanumah","fr":"Tanūmah","ja":"タヌマ","it":"Tanumah","zh-CN":"塔努玛","tr":"Tanūmah","ru":"Танума","uk":"Танума","pl":"Tanūmah","hi":"तनुमाह","ar":"تنومة"}},{"name":"Wed Alnkil","latitude":"25.42670000","longitude":"42.83430000","native":"الأربعاء النكيل","translations":{"br":"Merc'her Alnkil","ko":"수요일 알린킬","pt-BR":"Qua Alnkil","pt":"Qua Alnkil","nl":"Wed Alnkil","hr":"Srijeda Alnkil","fa":"چهارشنبه آلنکیل","de":"Mi Alnkil","es":"Miércoles Alnkil","fr":"Mercredi Alnkil","ja":"水曜日アルンキル","it":"Mercoledì Alnkil","zh-CN":"星期三 Alnkil","tr":"Çarşamba Alnkil","ru":"Ср Алнкил","uk":"Сер Алнкіл","pl":"Śr Alnkil","hi":"बुध अलनकिल","ar":"الأربعاء النكيل"}}]},{"name":"Eastern Province","state_code":"04","latitude":null,"longitude":null,"cities":[{"name":"Abqaiq","latitude":"25.93402000","longitude":"49.66880000","native":"بقيق","translations":{"br":"Abqaiq","ko":"아브카이크","pt-BR":"Abqaiq","pt":"Abqaiq","nl":"Abqaiq","hr":"Abqaiq","fa":"بقیق","de":"Abqaiq","es":"Abqaiq","fr":"Abqaïq","ja":"アブカイク","it":"Abqaiq","zh-CN":"阿布盖格","tr":"Abkayık","ru":"Абкайк","uk":"Абкайк","pl":"Abqaiq","hi":"अबकैक","ar":"بقيق"}},{"name":"Al Awjām","latitude":"26.56324000","longitude":"49.94331000","native":"الأوجام","translations":{"br":"Al Awjām","ko":"알 아잠","pt-BR":"Al Awjām","pt":"Al Awjām","nl":"Al Awjām","hr":"Al Awjām","fa":"العجم","de":"Al Awjām","es":"Al Awjām","fr":"Al Awjam","ja":"アル・アウジャム","it":"Al Awjām","zh-CN":"阿尔奥贾姆","tr":"Al Awjām","ru":"Аль-Авджам","uk":"Аль-Авджам","pl":"Al Awjām","hi":"अल अवजाम","ar":"الأوجام"}},{"name":"Al Baţţālīyah","latitude":"25.43333000","longitude":"49.63333000","native":"البطلية","translations":{"br":"Al Baţţālīyah","ko":"알 바트탈리야","pt-BR":"Al Baţţālīyah","pt":"Al Baţţālīyah","nl":"Al Baţţālīyah","hr":"Al-Baţtālīyah","fa":"البطالیه","de":"Al Baţţālīyah","es":"Al Baţţālīyah","fr":"Al Baţţālīyah","ja":"アル・バツァリヤ","it":"Al Baţţālīyah","zh-CN":"巴塔利亚","tr":"Al Baţţālīyah","ru":"Аль-Бацалия","uk":"Аль-Бацталія","pl":"Al Baţţālīyah","hi":"अल बţţālīyah","ar":"البطلية"}},{"name":"Al Hufūf","latitude":"25.36467000","longitude":"49.58764000","native":"الهفوف","translations":{"br":"Al Hufūf","ko":"알 후푸프","pt-BR":"Al Hufuf","pt":"Al Hufuf","nl":"Al Hufūf","hr":"Al Hufuf","fa":"الهفوف","de":"Al Hufūf","es":"Al Hufūf","fr":"Al-Hufuf","ja":"アル・フフーフ","it":"Al Hufūf","zh-CN":"胡富夫","tr":"El Hufûf","ru":"Аль-Хуфуф","uk":"Аль-Хуфуф","pl":"Al Hufūf","hi":"अल हुफूफ़","ar":"الهفوف"}},{"name":"Al Jafr","latitude":"25.37736000","longitude":"49.72154000","native":"الجفر","translations":{"br":"Al Jafr","ko":"알 자프르","pt-BR":"Al Jafr","pt":"Al Jafr","nl":"Al Jafr","hr":"Al Džafr","fa":"آل جعفر","de":"Al Jafr","es":"Al Jafr","fr":"Al Jafr","ja":"アル・ジャフル","it":"Al Jafr","zh-CN":"贾夫尔","tr":"El Cafer","ru":"Аль-Джафр","uk":"Аль-Джафр","pl":"Al-Dżafr","hi":"अल जाफ़र","ar":"الجفر"}},{"name":"Al Jubayl","latitude":"27.01740000","longitude":"49.62251000","native":"الجبيل","translations":{"br":"Al Jubayl","ko":"알 주바일","pt-BR":"Al Jubayl","pt":"Al Jubayl","nl":"Al Jubayl","hr":"Al Jubayl","fa":"الجبیل","de":"Al Jubayl","es":"Al Jubayl","fr":"Al Jubayl","ja":"アル・ジュベイル","it":"Al Jubayl","zh-CN":"朱拜勒","tr":"El Cübeyl","ru":"Аль-Джубайл","uk":"Аль-Джубайл","pl":"Al-Dżubajl","hi":"अल जुबैल","ar":"الجبيل"}},{"name":"Al Khafjī","latitude":"28.43905000","longitude":"48.49132000","native":"الخفجي","translations":{"br":"Al Khafjī","ko":"알 카프지","pt-BR":"Al Khafji","pt":"Al Khafji","nl":"Al Khafjī","hr":"Al Khafjī","fa":"الخفجی","de":"Al Khafjī","es":"Al Khafjī","fr":"Al Khafji","ja":"アル・カフジ","it":"Al Khafjī","zh-CN":"阿尔海夫吉","tr":"El Hafci","ru":"Аль-Хафджи","uk":"Аль-Хафджі","pl":"Al Khafji","hi":"अल खफजी","ar":"الخفجي"}},{"name":"Al Markaz","latitude":"25.40000000","longitude":"49.73333000","native":"المركز","translations":{"br":"Al Markaz","ko":"알 마르카즈","pt-BR":"Al Markaz","pt":"Al Markaz","nl":"Al Markaz","hr":"Al Markaz","fa":"المرکز","de":"Al Markaz","es":"Al Markaz","fr":"Al Markaz","ja":"アル・マルカズ","it":"Al Markaz","zh-CN":"阿尔·马卡兹","tr":"El Markaz","ru":"Аль-Марказ","uk":"Аль-Марказ","pl":"Al Markaz","hi":"अल मरकज़","ar":"المركز"}},{"name":"Al Mubarraz","latitude":"25.40768000","longitude":"49.59028000","native":"المبرز","translations":{"br":"Al Mubarraz","ko":"알 무바라즈","pt-BR":"Al Mubarraz","pt":"Al Mubarraz","nl":"Al Mubarraz","hr":"Al Mubarraz","fa":"المبرز","de":"Al Mubarraz","es":"Al Mubarraz","fr":"Al Mubarraz","ja":"アル・ムバラス","it":"Al Mubarraz","zh-CN":"穆巴拉兹","tr":"El-Mübarez","ru":"Аль Мубарраз","uk":"Аль-Мубарраз","pl":"Al Mubarraz","hi":"अल मुबार्राज़","ar":"المبرز"}},{"name":"Al Munayzilah","latitude":"25.38333000","longitude":"49.66667000","native":"المنيزلة","translations":{"br":"Al Munayzilah","ko":"알 무나이질라","pt-BR":"Al Munayzilah","pt":"Al Munayzilah","nl":"Al Munayzilah","hr":"Al Munayzilah","fa":"المنیزله","de":"Al Munayzilah","es":"Al Munayzilah","fr":"Al Munayzilah","ja":"アル・ムナイジラ","it":"Al Munayzilah","zh-CN":"阿尔穆奈齐拉","tr":"El Munayzilah","ru":"Аль-Мунайзилах","uk":"Аль-Мунайзіла","pl":"Al Munayzilah","hi":"अल मुनयज़िला","ar":"المنيزلة"}},{"name":"Al Muţayrifī","latitude":"25.47878000","longitude":"49.55824000","native":"المطيريفي","translations":{"br":"Al Muţayrifī","ko":"알 무타이리피","pt-BR":"Al Muţayrifī","pt":"Al Muţayrifī","nl":"Al Muţayrifī","hr":"Al-Muţayrifī","fa":"المطیرفی","de":"Al Muţayrifī","es":"Al Muţayrifī","fr":"Al Mutayrifī","ja":"アル・ムタイリフィ","it":"Al Muţayrifī","zh-CN":"穆泰里菲","tr":"Al Muţayrifī","ru":"Аль-Муцайрифи","uk":"Аль-Мутайріфі","pl":"Al Muţayrifī","hi":"अल मुतायरीफ़ी","ar":"المطيريفي"}},{"name":"Al Qārah","latitude":"25.41667000","longitude":"49.66667000","native":"القارة","translations":{"br":"Al Qārah","ko":"알 카라","pt-BR":"Al Qārah","pt":"Al Qārah","nl":"Al Qārah","hr":"Al-Qārah","fa":"القاره","de":"Al Qārah","es":"Al Qārah","fr":"Al Qārah","ja":"アル・カラ","it":"Al Qārah","zh-CN":"卡拉","tr":"Al Qārah","ru":"Аль-Кара","uk":"Аль-Кара","pl":"Al Qārah","hi":"अल क़राह","ar":"القارة"}},{"name":"Al Qaţīf","latitude":"26.56542000","longitude":"50.00890000","native":"القطيف","translations":{"br":"Al Qaţīf","ko":"알 카티프","pt-BR":"Al Qaţīf","pt":"Al Qaţīf","nl":"Al Qaţīf","hr":"Al Qaṭīf","fa":"القطیف","de":"Al Qaţīf","es":"Al Qatif","fr":"Al Qaţīf","ja":"アル・カティーフ","it":"Al Qaţīf","zh-CN":"盖蒂夫","tr":"Al Qaţīf","ru":"Аль-Катиф","uk":"Аль-Катіф","pl":"Al Qaţīf","hi":"अल क़तीफ़","ar":"القطيف"}},{"name":"Al Qurayn","latitude":"25.48333000","longitude":"49.60000000","native":"القرين","translations":{"br":"Al Qurayn","ko":"알 쿠라인","pt-BR":"Al-Qurain","pt":"Al-Qurain","nl":"Al Qurayn","hr":"Al-Kurajn","fa":"القرین","de":"Al Qurayn","es":"Al Qurayn","fr":"Al Qurayn","ja":"アル・クライン","it":"Al Qurayn","zh-CN":"古莱因","tr":"El-Kureyn","ru":"Аль-Курейн","uk":"Аль-Курайн","pl":"Al-Kurajn","hi":"अल क़ुरैन","ar":"القرين"}},{"name":"As Saffānīyah","latitude":"27.97083000","longitude":"48.73000000","native":"الصفانية","translations":{"br":"Evel Saffānīyah","ko":"사파니야로서","pt-BR":"Como Saffānīyah","pt":"Como Saffānīyah","nl":"Als Saffānīyah","hr":"Kao Saffaniyah","fa":"صفانیه","de":"As Saffānīyah","es":"Como Saffānīyah","fr":"As Saffānīyah","ja":"アス・サッファニヤ","it":"Come Saffanīyah","zh-CN":"萨法尼亚","tr":"As Saffānīyah","ru":"Ас Саффания","uk":"Як Саффанія","pl":"Jako Saffānīyah","hi":"अस सफ़नियाह","ar":"الصفانية"}},{"name":"Aţ Ţaraf","latitude":"25.36232000","longitude":"49.72757000","native":"Aţ Ţaraf","translations":{"br":"Aţ Ţaraf","ko":"아트라프","pt-BR":"Aţ Ţaraf","pt":"Aţ Ţaraf","nl":"Aţ Ţaraf","hr":"Aţ Taraf","fa":"آط طراف","de":"Aţ Ţaraf","es":"Aţ Ţaraf","fr":"Aţ Ţaraf","ja":"アトゥ・タラフ","it":"Aţ Ţaraf","zh-CN":"阿塔拉夫","tr":"Aţ Ţaraf","ru":"Aţ Ţaraf","uk":"Ат Тараф","pl":"Aţ Ţaraf","hi":"अţ Ţaraf","ar":"Aţ Ţaraf"}},{"name":"At Tūbī","latitude":"26.55778000","longitude":"49.99167000","native":"في توبي","translations":{"br":"E Tubī","ko":"투비에서","pt-BR":"Em Tūbī","pt":"Em Tūbī","nl":"Bij Tūbī","hr":"U Tubiju","fa":"در طوبی","de":"In Tūbī","es":"En Tūbī","fr":"À Tūbī","ja":"トゥビにて","it":"A Tūbī","zh-CN":"在图比","tr":"Tūbī'de","ru":"В Туби","uk":"У Тубі","pl":"W Tūbī","hi":"टुबी में","ar":"في توبي"}},{"name":"Dammam","latitude":"26.43442000","longitude":"50.10326000","native":"الدمام","translations":{"br":"Dammam","ko":"담맘","pt-BR":"Dammam","pt":"Dammam","nl":"Dammam","hr":"Damam","fa":"دمام","de":"Dammam","es":"Dammam","fr":"Dammam","ja":"ダンマン","it":"Dammam","zh-CN":"达曼","tr":"Dammam","ru":"Даммам","uk":"Даммам","pl":"Dammam","hi":"DAMMAM","ar":"الدمام"}},{"name":"Dhahran","latitude":"26.28864000","longitude":"50.11396000","native":"الظهران","translations":{"br":"Dhahran","ko":"다란","pt-BR":"Dhahran","pt":"Dhahran","nl":"Dhahran","hr":"Dhahran","fa":"ظهران","de":"Dhahran","es":"Dhahran","fr":"Dhahran","ja":"ダーラン","it":"Dhahran","zh-CN":"宰赫兰","tr":"Zahran","ru":"Дахран","uk":"Дахран","pl":"Dhahran","hi":"धाहरान","ar":"الظهران"}},{"name":"Hafar Al-Batin","latitude":"28.43279000","longitude":"45.97077000","native":"حفر الباطن","translations":{"br":"Hafar Al-Batin","ko":"하프르 알바틴","pt-BR":"Hafar Al-Batin","pt":"Hafar Al-Batin","nl":"Hafar Al-Batin","hr":"Hafar Al-Batin","fa":"حَفَر الباطن","de":"Hafar Al-Batin","es":"Hafar Al-Batin","fr":"Hafar Al-Batin","ja":"ハファル・アル・バティン","it":"Hafar Al-Batin","zh-CN":"哈法尔·巴廷","tr":"Hafar El-Batin","ru":"Хафар аль-Батин","uk":"Хафар Аль-Батін","pl":"Hafar Al-Batin","hi":"हफ़र अल-बतिन","ar":"حفر الباطن"}},{"name":"Julayjilah","latitude":"25.50000000","longitude":"49.60000000","native":"جلاجلة","translations":{"br":"Julayjilah","ko":"줄라이질라","pt-BR":"Julayjilah","pt":"Julayjilah","nl":"Julayjilah","hr":"Džulajdžilah","fa":"جولایجیله","de":"Julayjilah","es":"Julayjilah","fr":"Julayjilah","ja":"ジュレイジラ","it":"Julayjilah","zh-CN":"朱莱吉拉","tr":"Julayjilah","ru":"Джулайджила","uk":"Джулайджила","pl":"Julayjilah","hi":"जुलायजिला","ar":"جلاجلة"}},{"name":"Khobar","latitude":"26.27944000","longitude":"50.20833000","native":"الخبر","translations":{"br":"Khobar","ko":"코바르","pt-BR":"Khobar","pt":"Khobar","nl":"Khobar","hr":"Khobar","fa":"خبار","de":"Khobar","es":"Khobar","fr":"Khobar","ja":"コバール","it":"Khobar","zh-CN":"胡拜尔","tr":"Khobar","ru":"Хобар","uk":"Хобар","pl":"Khobar","hi":"खोबर","ar":"الخبر"}},{"name":"Mulayjah","latitude":"27.27103000","longitude":"48.42419000","native":"مليجة","translations":{"br":"Mulayjah","ko":"물라이자","pt-BR":"Mulayjah","pt":"Mulayjah","nl":"Mulayjah","hr":"Mulajdža","fa":"ملاجه","de":"Mulayjah","es":"Mulayjah","fr":"Moulayjah","ja":"ムライジャ","it":"Mulayjah","zh-CN":"穆莱贾","tr":"Mulayjah","ru":"Мулайджа","uk":"Мулайджа","pl":"Mulayjah","hi":"मुलयजाह","ar":"مليجة"}},{"name":"Qaisumah","latitude":"28.31117000","longitude":"46.12729000","native":"القيصومة","translations":{"br":"Qaisumah","ko":"카이수마","pt-BR":"Qaisumah","pt":"Qaisumah","nl":"Qaisumah","hr":"Kaisumah","fa":"قیسومة","de":"Qaisumah","es":"Qaisumah","fr":"Qaisumah","ja":"カイスマ","it":"Qaisumah","zh-CN":"凯苏玛","tr":"Qaisumah","ru":"Кайсумах","uk":"Кайсумах","pl":"Qaisumah","hi":"कैसुमाह","ar":"القيصومة"}},{"name":"Raḩīmah","latitude":"26.70791000","longitude":"50.06194000","native":"رحيمة","translations":{"br":"Raḩīmah","ko":"라히마","pt-BR":"Raḩīmah","pt":"Raḩīmah","nl":"Raḩīmah","hr":"Rahima","fa":"رحیمه","de":"Raḩīmah","es":"Raḩīmah","fr":"Raḩīmah","ja":"ラヒマ","it":"Raḩīmah","zh-CN":"拉希玛","tr":"Rahīmah","ru":"Рахима","uk":"Рахіма","pl":"Raḩīmah","hi":"Rahimah","ar":"رحيمة"}},{"name":"Şafwá","latitude":"26.64970000","longitude":"49.95522000","native":"صفوة","translations":{"br":"Şafwá","ko":"샤프와","pt-BR":"Şafwá","pt":"Şafwá","nl":"Şafwá","hr":"Šafva","fa":"شَفوه","de":"Şafwá","es":"Şafwá","fr":"Şafwá","ja":"シャフワ","it":"Şafwá","zh-CN":"Şafwá","tr":"Şafwa","ru":"Шафва","uk":"Шафва","pl":"Şafwá","hi":"शाफवा","ar":"صفوة"}},{"name":"Sayhāt","latitude":"26.48345000","longitude":"50.04849000","native":"سيهات","translations":{"br":"Sayhāt","ko":"사하트","pt-BR":"Sayhat","pt":"Sayhat","nl":"Sayhāt","hr":"Sayhat","fa":"سیهات","de":"Sayhāt","es":"Sayhat","fr":"Sayhat","ja":"サイハット","it":"Sayhāt","zh-CN":"萨哈特","tr":"Seyhat","ru":"Сайхат","uk":"Сайхат","pl":"Sayhat","hi":"Sayhat","ar":"سيهات"}},{"name":"Tārūt","latitude":"26.57330000","longitude":"50.04028000","native":"تاروت","translations":{"br":"Tārūt","ko":"타루트","pt-BR":"Tarut","pt":"Tarut","nl":"Tarut","hr":"Tarut","fa":"تاروت","de":"Tārūt","es":"Tarot","fr":"Tarut","ja":"タルート","it":"Tartufo","zh-CN":"塔鲁特","tr":"Tārūt","ru":"Тарут","uk":"Тарут","pl":"Tarūt","hi":"तारूत","ar":"تاروت"}},{"name":"Umm as Sāhik","latitude":"26.65361000","longitude":"49.91639000","native":"أم الساهك","translations":{"br":"Umm evel Sāhik","ko":"음, 사히크처럼","pt-BR":"Umm como Sāhik","pt":"Umm como Sāhik","nl":"Umm as Sāhik","hr":"Umm as Sahik","fa":"ام ساحیک","de":"Umm as Sāhik","es":"Umm como Sāhik","fr":"Umm as Sāhik","ja":"ウム・アズ・サーヒク","it":"Umm as Sāhik","zh-CN":"乌姆阿斯萨希克","tr":"Umm as Sāhik","ru":"Умм ас Сахик","uk":"Умм ас Сахік","pl":"Umm as Sāhik","hi":"उम्म अस साहिक","ar":"أم الساهك"}}]},{"name":"Ha'il Region","state_code":"06","latitude":"27.70761430","longitude":"41.91964710","cities":[{"name":"Ha'il","latitude":"27.52188000","longitude":"41.69073000","native":"يشيد ","translations":{"br":"Grizilh","ko":"하일","pt-BR":"Saudação","pt":"Saudação","nl":"Hagel","hr":"Ha'il","fa":"حائل","de":"Hagel","es":"Granizo","fr":"Grêle","ja":"ハイル","it":"Salve","zh-CN":"哈伊勒","tr":"Dolu","ru":"Град","uk":"Хаїл","pl":"Grad","hi":"ओलों ","ar":"يشيد "}}]},{"name":"Jizan Region","state_code":"09","latitude":"17.17381760","longitude":"42.70761070","cities":[{"name":"Abū ‘Arīsh","latitude":"16.96887000","longitude":"42.83251000","native":"أبو عريش","translations":{"br":"Abū ‘Arīsh","ko":"아부 아리쉬","pt-BR":"Abu ‘Arīsh","pt":"Abu ‘Arīsh","nl":"Abū ‘Arīsh","hr":"Abu ‘Ariš","fa":"ابوعریش","de":"Abū ‘Arīsh","es":"Abu ‘Arish","fr":"Abū ‘Arīsh","ja":"アブー・アリシュ","it":"Abū ‘Arīsh","zh-CN":"阿布·阿里什","tr":"Ebu Ariş","ru":"Абу Ариш","uk":"Абу Аріш","pl":"Abū ‘Arīsh","hi":"अबू ‘अरीश","ar":"أبو عريش"}},{"name":"Ad Darb","latitude":"17.72285000","longitude":"42.25261000","native":"الدرب","translations":{"br":"Ad Darb","ko":"애드 다르브","pt-BR":"Ad Darb","pt":"Ad Darb","nl":"Advertentie Darb","hr":"Oglas Darb","fa":"آگهی درب","de":"Ad Darb","es":"Anuncio Darb","fr":"Ad Darb","ja":"アド・ダーブ","it":"Ad Darb","zh-CN":"阿德·达布","tr":"Ad Darb","ru":"Ад Дарб","uk":"Реклама Дарб","pl":"Reklama Darb","hi":"अद दरब","ar":"الدرب"}},{"name":"Al Jarādīyah","latitude":"16.57946000","longitude":"42.91240000","native":"الجرادية","translations":{"br":"Al Jarādīyah","ko":"알 자라디야","pt-BR":"Al Jarādīyah","pt":"Al Jarādīyah","nl":"Al Jarādīyah","hr":"Al Jaradīyah","fa":"الجرادیه","de":"Al Jarādīyah","es":"Al Jarādīyah","fr":"Al Jarādīyah","ja":"アル・ジャラディーヤ","it":"Al Jarādīyah","zh-CN":"贾拉迪亚","tr":"Al Jarādīyah","ru":"Аль-Джарадийя","uk":"Аль-Джарадія","pl":"Al Jaradiyah","hi":"अल जरादियाह","ar":"الجرادية"}},{"name":"Farasān","latitude":"16.70222000","longitude":"42.11833000","native":"فرسان","translations":{"br":"Farasān","ko":"파라산","pt-BR":"Farasan","pt":"Farasan","nl":"Farasān","hr":"Farasān","fa":"فراسان","de":"Farasān","es":"Farasán","fr":"Farasān","ja":"ファラサン","it":"Farasān","zh-CN":"法拉桑","tr":"Farasān","ru":"Фарасан","uk":"Фарасан","pl":"Farasān","hi":"फ़रासान","ar":"فرسان"}},{"name":"Jizan","latitude":"16.88917000","longitude":"42.55111000","native":"جيزان","translations":{"br":"Jizan","ko":"지잔","pt-BR":"Jizan","pt":"Jizan","nl":"Jizan","hr":"Džizan","fa":"جیزان","de":"Dschizan","es":"Jizan","fr":"Jizan","ja":"ジザン","it":"Jizan","zh-CN":"吉赞","tr":"Cizan","ru":"Джизан","uk":"Джизан","pl":"Dżizan","hi":"जिज़ान","ar":"جيزان"}},{"name":"Mislīyah","latitude":"17.45988000","longitude":"42.55720000","native":"المَسْلِيَّة","translations":{"br":"Mislyyah","ko":"미슬리야","pt-BR":"Mislīyah","pt":"Mislīyah","nl":"Mislīyah","hr":"Misliyah","fa":"مصلیه","de":"Mislīyah","es":"Mislīyah","fr":"Mislīyah","ja":"ミスリーヤ","it":"Mislīyah","zh-CN":"米斯利亚","tr":"Misliyah","ru":"Мислия","uk":"Міслія","pl":"Mislīyah","hi":"मिसलिया","ar":"المَسْلِيَّة"}},{"name":"Mizhirah","latitude":"16.82611000","longitude":"42.73333000","native":"مزيرة","translations":{"br":"Mizhirah","ko":"미지라","pt-BR":"Mizhirah","pt":"Mizhirah","nl":"Mizhirah","hr":"Mižirah","fa":"مژیرا","de":"Mischira","es":"Mizhirah","fr":"Mizhirah","ja":"ミジラ","it":"Mizhirah","zh-CN":"米日拉","tr":"Mizhirah","ru":"Мижира","uk":"Міжірах","pl":"Mizhirah","hi":"मिज़िराह","ar":"مزيرة"}},{"name":"Şabyā","latitude":"17.14950000","longitude":"42.62537000","native":"صبايا","translations":{"br":"Şabyā","ko":"샤비아","pt-BR":"Şabyā","pt":"Şabyā","nl":"Şabyā","hr":"Šabja","fa":"سابیا","de":"Şabyā","es":"Şabyā","fr":"Sabya","ja":"シャビャ","it":"Şabyā","zh-CN":"沙比亚","tr":"Şabyā","ru":"Шабья","uk":"Шаб'я","pl":"Şabyā","hi":"Sabya","ar":"صبايا"}},{"name":"Şāmitah","latitude":"16.59601000","longitude":"42.94435000","native":"ساميتا","translations":{"br":"Şāmitah","ko":"샤미타","pt-BR":"Şāmitah","pt":"Şāmitah","nl":"Şāmitah","hr":"Šamitah","fa":"شامیطه","de":"Şāmitah","es":"Samita","fr":"Şāmitah","ja":"シャミタ","it":"Şāmitah","zh-CN":"沙米塔","tr":"Şamitah","ru":"Шамита","uk":"Шамітах","pl":"Szamita","hi":"शामिता","ar":"ساميتا"}}]},{"name":"Makkah Region","state_code":"02","latitude":"21.52355840","longitude":"41.91964710","cities":[{"name":"Al Hadā","latitude":"21.36753000","longitude":"40.28694000","native":"الهدا","translations":{"br":"Al Hadā","ko":"알 하다","pt-BR":"Al Hadā","pt":"Al Hadā","nl":"Al Hadā","hr":"Al Hada","fa":"الهدا","de":"Al Hadā","es":"Al Hadā","fr":"Al Hadā","ja":"アル・ハダ","it":"Al Hadā","zh-CN":"阿尔哈达","tr":"Al Hadā","ru":"Аль-Хада","uk":"Аль-Хада","pl":"Al Hadā","hi":"अल हदा","ar":"الهدا"}},{"name":"Al Jumūm","latitude":"21.61694000","longitude":"39.69806000","native":"الجموم","translations":{"br":"Al Jumūm","ko":"알 주뭄","pt-BR":"Al Jumūm","pt":"Al Jumūm","nl":"Al Jumūm","hr":"Al Džumum","fa":"الجمع","de":"Al Jumūm","es":"Al Jumūm","fr":"Al Jumūm","ja":"アル・ジュムム","it":"Al Jumūm","zh-CN":"朱穆姆","tr":"Al Jumūm","ru":"Аль Джумум","uk":"Аль-Джумум","pl":"Al Jumūm","hi":"अल जुमूम","ar":"الجموم"}},{"name":"Al Muwayh","latitude":"22.43333000","longitude":"41.75829000","native":"المويه","translations":{"br":"Al Muwayh","ko":"알 무와이흐","pt-BR":"Al Muwayh","pt":"Al Muwayh","nl":"Al Muwayh","hr":"Al Muwayh","fa":"المویه","de":"Al Muwayh","es":"Al Muwayh","fr":"Al Muwayh","ja":"アル・ムワイ","it":"Al Muwayh","zh-CN":"穆瓦伊","tr":"El Muveyh","ru":"Аль Мувайх","uk":"Аль-Мувайх","pl":"Al Muwayh","hi":"अल मुवैह","ar":"المويه"}},{"name":"Ash Shafā","latitude":"21.07210000","longitude":"40.31185000","native":"آش شفا","translations":{"br":"Ash Shafā","ko":"아쉬 샤파","pt-BR":"Ash Shafa","pt":"Ash Shafa","nl":"Ash Shafā","hr":"Aš Šafa","fa":"آش شفا","de":"Ash Shafā","es":"Ash Shafa","fr":"Ash Shafā","ja":"アシュ・シャファ","it":"Ash Shafā","zh-CN":"阿什·沙法","tr":"Eş Şafa","ru":"Эш Шафа","uk":"Аш-Шафа","pl":"Ash Shafā","hi":"अश शफा","ar":"آش شفا"}},{"name":"Ghran","latitude":"21.98027000","longitude":"39.36521000","native":"غران","translations":{"br":"Ghran","ko":"그란","pt-BR":"Ghran","pt":"Ghran","nl":"Ghran","hr":"Ghran","fa":"غران","de":"Ghran","es":"Ghran","fr":"Ghran","ja":"グラン","it":"Ghran","zh-CN":"格兰","tr":"Ghran","ru":"Гран","uk":"Гран","pl":"Ghran","hi":"घ्रान","ar":"غران"}},{"name":"Jeddah","latitude":"21.54238000","longitude":"39.19797000","native":"جدة","translations":{"br":"Jeddah","ko":"제다","pt-BR":"Jidá","pt":"Jidá","nl":"Jeddah","hr":"Džeda","fa":"جده","de":"Dschidda","es":"Yedda","fr":"Djeddah","ja":"ジェッダ","it":"Gedda","zh-CN":"吉达","tr":"Cidde","ru":"Джидда","uk":"Джидда","pl":"Jeddach","hi":"जेद्दा","ar":"جدة"}},{"name":"Mecca","latitude":"21.42664000","longitude":"39.82563000","native":"مكة المكرمة","translations":{"br":"Mekka","ko":"메카","pt-BR":"Meca","pt":"Meca","nl":"Mekka","hr":"Meka","fa":"مکه","de":"Mekka","es":"la meca","fr":"Mecque","ja":"メッカ","it":"La Mecca","zh-CN":"麦加","tr":"Mekke","ru":"Мекка","uk":"Мекка","pl":"Mekka","hi":"मक्का","ar":"مكة المكرمة"}},{"name":"Rābigh","latitude":"22.79856000","longitude":"39.03493000","native":"رابغ","translations":{"br":"Rābigh","ko":"라빅","pt-BR":"Rabigh","pt":"Rabigh","nl":"Rabigh","hr":"Rabigh","fa":"رابیغ","de":"Rābigh","es":"Rabigh","fr":"Rābigh","ja":"ラービグ","it":"Rābigh","zh-CN":"拉比格","tr":"Rabigh","ru":"Рабиг","uk":"Рабіг","pl":"Rābigh","hi":"रबीघ","ar":"رابغ"}},{"name":"Ta’if","latitude":"21.27028000","longitude":"40.41583000"},{"name":"Turabah","latitude":"21.21406000","longitude":"41.63310000","native":"تربة","translations":{"br":"Turabah","ko":"투라바","pt-BR":"Turaba","pt":"Turaba","nl":"Turabah","hr":"Turabah","fa":"ترابه","de":"Turabah","es":"Turabah","fr":"Turabah","ja":"トゥラバ","it":"Turaba","zh-CN":"图拉巴","tr":"Turabah","ru":"Тураба","uk":"Турабах","pl":"Turabah","hi":"तुराबाह","ar":"تربة"}}]},{"name":"Najran Region","state_code":"10","latitude":"18.35146640","longitude":"45.60071080","cities":[{"name":"Najrān","latitude":"17.49326000","longitude":"44.12766000","native":"نجران","translations":{"br":"Najrān","ko":"나즈란","pt-BR":"Najrān","pt":"Najrān","nl":"Najran","hr":"Najrān","fa":"نجران","de":"Nadschran","es":"Najrān","fr":"Najran","ja":"ナジュラン","it":"Najrān","zh-CN":"纳季兰","tr":"Necran","ru":"Наджран","uk":"Наджран","pl":"Najran","hi":"नज़रान","ar":"نجران"}}]},{"name":"Northern Borders Region","state_code":"08","latitude":"30.07991620","longitude":"42.86378750","cities":[{"name":"Arar","latitude":"30.97531000","longitude":"41.03808000","native":"عرار","translations":{"br":"Arar","ko":"아라르","pt-BR":"Arar","pt":"Arar","nl":"Arar","hr":"Arar","fa":"عرعر","de":"Arar","es":"Arar","fr":"Arar","ja":"アラル","it":"Arar","zh-CN":"阿拉尔","tr":"Arar","ru":"Арар","uk":"Арар","pl":"Arar","hi":"अरार","ar":"عرار"}},{"name":"Turaif","latitude":"31.67252000","longitude":"38.66374000","native":"طريف","translations":{"br":"Turaif","ko":"투라이프","pt-BR":"Turaif","pt":"Turaif","nl":"Turaif","hr":"Turaif","fa":"طریف","de":"Turaif","es":"Turaif","fr":"Turaif","ja":"トゥライフ","it":"Turaif","zh-CN":"图拉伊夫","tr":"Turaif","ru":"Тураиф","uk":"Тураїф","pl":"Turaif","hi":"तुरैफ़","ar":"طريف"}}]},{"name":"Riyadh Region","state_code":"01","latitude":"22.75543850","longitude":"46.20915470","cities":[{"name":"Ad Dawādimī","latitude":"24.50772000","longitude":"44.39237000","native":"الدوادمي","translations":{"br":"Ad Dawādimī","ko":"아드 다와디미","pt-BR":"Ad Dawādimī","pt":"Ad Dawādimī","nl":"Ad Dawādimī","hr":"Ad Dawādimī","fa":"آد دوادیمی","de":"Ad Dawadimī","es":"Ad Dawādimī","fr":"Ad Dawādimī","ja":"アド・ダワディミ","it":"Ad Dawādimī","zh-CN":"达瓦迪米","tr":"Ad Dawādimī","ru":"Ad Dawādimī","uk":"Ад Давадімі","pl":"Ad Dawādimī","hi":"अद दावादिमी","ar":"الدوادمي"}},{"name":"Ad Dilam","latitude":"23.99104000","longitude":"47.16181000","native":"الديلم","translations":{"br":"Ad Dilam","ko":"애드 딜람","pt-BR":"Ad Dilam","pt":"Ad Dilam","nl":"Ad Dilam","hr":"Ad Dilam","fa":"اد دیلم","de":"Ad Dilam","es":"Ad Dilam","fr":"Ad Dilam","ja":"アド・ディラム","it":"Ad Dilam","zh-CN":"阿德·迪拉姆","tr":"Ad Dilam","ru":"Ад Дилам","uk":"Ад Ділам","pl":"Ad Dilam","hi":"अद दिलम","ar":"الديلم"}},{"name":"Afif","latitude":"23.90650000","longitude":"42.91724000","native":"عفيف","translations":{"br":"Afif","ko":"아피프","pt-BR":"Afif","pt":"Afif","nl":"Afif","hr":"Afif","fa":"عفیف","de":"Afif","es":"Afif","fr":"Afif","ja":"アフィフ","it":"Afif","zh-CN":"阿菲夫","tr":"Afif","ru":"Афиф","uk":"Афіф","pl":"Afif","hi":"अफ़ीफ़","ar":"عفيف"}},{"name":"Ain AlBaraha","latitude":"24.75806000","longitude":"43.77389000","native":"عين البراحة","translations":{"br":"Ain AlBaraha","ko":"아인 알바라하","pt-BR":"Ain AlBaraha","pt":"Ain AlBaraha","nl":"Ain Al-Baraha","hr":"Ain Al-Baraha","fa":"عین البراحه","de":"Ain AlBaraha","es":"Ain Al Baraha","fr":"Aïn Al-Baraha","ja":"アイン・アルバラハ","it":"Ain AlBaraha","zh-CN":"艾因巴拉哈","tr":"Ayn El Beraha","ru":"Айн аль-Бараха","uk":"Айн-аль-Бараха","pl":"Ain Al-Baraha","hi":"ऐन अलबरहा","ar":"عين البراحة"}},{"name":"Al Arţāwīyah","latitude":"26.50387000","longitude":"45.34813000","native":"الأرطاوية","translations":{"br":"Al Arţāwīyah","ko":"알 아르타위야","pt-BR":"Al Arţāwīyah","pt":"Al Arţāwīyah","nl":"Al Arţāwīyah","hr":"Al-Artavija","fa":"الارتاویه","de":"Al Arţāwīyah","es":"Al Arţāwīyah","fr":"Al Arţāwīyah","ja":"アル・アルツァウィヤ","it":"Al Arţāwīyah","zh-CN":"阿尔塔维亚","tr":"Al Arţāwīyah","ru":"Аль-Арцавия","uk":"Аль-Артавія","pl":"Al Arţāwīyah","hi":"अल अर्ताविया","ar":"الأرطاوية"}},{"name":"Al Kharj","latitude":"24.15541000","longitude":"47.33457000","native":"الخرج","translations":{"br":"Al Kharj","ko":"알 카르지","pt-BR":"Al Kharj","pt":"Al Kharj","nl":"Al Kharj","hr":"Al Kharj","fa":"الخرج","de":"Al-Kharj","es":"Al Kharj","fr":"Al Kharj","ja":"アル・ハルジ","it":"Al Kharj","zh-CN":"阿尔卡吉","tr":"Al Harj","ru":"Аль-Хардж","uk":"Аль-Хардж","pl":"Al-Kharj","hi":"अल ख़ार्ज","ar":"الخرج"}},{"name":"As Sulayyil","latitude":"20.46067000","longitude":"45.57792000","native":"السليل","translations":{"br":"Evel Sulayyil","ko":"술라일로서","pt-BR":"Como Sulayyil","pt":"Como Sulayyil","nl":"Als Sulayyil","hr":"Kao Sulajjil","fa":"به عنوان سُلَییل","de":"As Sulayyil","es":"Como Sulayyil","fr":"Comme Sulayyil","ja":"スレイイル","it":"Come Sulayyil","zh-CN":"苏拉伊尔","tr":"Süleyman As","ru":"Ас Сулайил","uk":"Як Сулейїл","pl":"Jako Sulayyil","hi":"अस सुलैयिल","ar":"السليل"}},{"name":"Az Zulfī","latitude":"26.29945000","longitude":"44.81542000","native":"الزلفي","translations":{"br":"Az Zulfī","ko":"아즈 줄피","pt-BR":"Az Zulfī","pt":"Az Zulfī","nl":"Az Zulfī","hr":"Az Zulfi","fa":"از زلفی","de":"Az Zulfī","es":"Az Zulfī","fr":"Az Zulfī","ja":"アズ・ズルフィ","it":"Az Zulfī","zh-CN":"阿兹祖尔菲","tr":"Az Zulfī","ru":"Аз Зульфи","uk":"Аз Зульфі","pl":"Az Zulfī","hi":"अज़ ज़ुल्फ़ी","ar":"الزلفي"}},{"name":"Marāt","latitude":"25.07064000","longitude":"45.45775000","native":"مارات","translations":{"br":"Marāt","ko":"마라트","pt-BR":"Marat","pt":"Marat","nl":"Marāt","hr":"Marat","fa":"مرات","de":"Marāt","es":"Marat","fr":"Marat","ja":"マラート","it":"Marāt","zh-CN":"马拉特","tr":"Marāt","ru":"Марат","uk":"Марат","pl":"Marat","hi":"Marat","ar":"مارات"}},{"name":"Riyadh","latitude":"24.68773000","longitude":"46.72185000","native":"الرياض","translations":{"br":"Riad","ko":"리야드","pt-BR":"Riad","pt":"Riad","nl":"Riyad","hr":"Rijad","fa":"ریاض","de":"Riad","es":"Riad","fr":"Riyad","ja":"リヤド","it":"Riyad","zh-CN":"利雅得","tr":"Riyad","ru":"Эр-Рияд","uk":"Ер-Ріяд","pl":"Rijad","hi":"रियाद","ar":"الرياض"}},{"name":"Sājir","latitude":"25.18251000","longitude":"44.59964000","native":"ساجير","translations":{"br":"Sājir","ko":"사지르","pt-BR":"Sajir","pt":"Sajir","nl":"Sājir","hr":"Sajir","fa":"ساجیر","de":"Sājir","es":"Sajir","fr":"Sajir","ja":"サジル","it":"Sājir","zh-CN":"萨吉尔","tr":"Sājir","ru":"Саджир","uk":"Саджир","pl":"Sājir","hi":"साजिर","ar":"ساجير"}},{"name":"shokhaibٍ","latitude":"24.49023000","longitude":"46.26871000","native":"شخيبٍ","translations":{"br":"shokhaibٍ","ko":"쇼카이브","pt-BR":"shokhaib","pt":"shokhaib","nl":"shokhaibٍ","hr":"Šokhaib","fa":"شخیب","de":"shokhaibٍ","es":"shokhaib","fr":"shokhaibٍ","ja":"ショハイブ","it":"shokhaib","zh-CN":"肖凯布","tr":"shokhaibٍ","ru":"шокайб","uk":"шохайб","pl":"shokhaibٍ","hi":"शोखैब","ar":"شخيبٍ"}},{"name":"Tumayr","latitude":"25.70347000","longitude":"45.86835000","native":"تمير","translations":{"br":"Tumayr","ko":"투마이르","pt-BR":"Tumayr","pt":"Tumayr","nl":"Tumayr","hr":"Tumayr","fa":"تومایر","de":"Tumayr","es":"Tumayr","fr":"Tumayr","ja":"トゥマイル","it":"Tumayr","zh-CN":"图迈尔","tr":"Tumayr","ru":"Тумайр","uk":"Тумайр","pl":"Tumayr","hi":"तुमायर","ar":"تمير"}}]},{"name":"Tabuk Region","state_code":"07","latitude":"28.24533350","longitude":"37.63866220","cities":[{"name":"Al Wajh","latitude":"26.24551000","longitude":"36.45249000","native":"الوجه","translations":{"br":"Al Wajh","ko":"알 와즈","pt-BR":"Al Wajh","pt":"Al Wajh","nl":"Al Wajh","hr":"Al-Wajh","fa":"الوج","de":"Al-Wadschh","es":"Al Wajh","fr":"Al Wajh","ja":"アル・ワジュ","it":"Al Wajh","zh-CN":"阿尔瓦吉","tr":"El Vecih","ru":"Аль-Ваджх","uk":"Аль-Вадж","pl":"Al Wajh","hi":"अल वजह","ar":"الوجه"}},{"name":"Duba","latitude":"27.35134000","longitude":"35.69014000","native":"دوبا","translations":{"br":"Duba","ko":"두바","pt-BR":"Duba","pt":"Duba","nl":"Duba","hr":"Duba","fa":"دوبا","de":"Duba","es":"Duba","fr":"Duba","ja":"ドゥバ","it":"Duba","zh-CN":"杜巴","tr":"Duba","ru":"Дуба","uk":"Дуба","pl":"Duba","hi":"डुबा","ar":"دوبا"}},{"name":"Tabuk","latitude":"28.39980000","longitude":"36.57151000","native":"تبوك","translations":{"br":"Tabuk","ko":"타부크","pt-BR":"Tabuk","pt":"Tabuk","nl":"Tabuk","hr":"Tabuk","fa":"تبوک","de":"Tabuk","es":"Tabuk","fr":"Tabuk","ja":"タブク","it":"Tabuk","zh-CN":"塔布克","tr":"Tebük","ru":"Табук","uk":"Табук","pl":"Tabuk","hi":"टाबुक","ar":"تبوك"}},{"name":"Umm Lajj","latitude":"25.02126000","longitude":"37.26850000","native":"أم لاج","translations":{"br":"Umm Lajj","ko":"음 라즈","pt-BR":"Umm Lajj","pt":"Umm Lajj","nl":"Umm Lajj","hr":"Umm Lajj","fa":"ام لج","de":"Umm Lajj","es":"Umm Lajj","fr":"Oum Lajj","ja":"ウム・ラジ","it":"Umm Lajj","zh-CN":"乌姆拉吉","tr":"Ümmü Lajj","ru":"Умм Ладж","uk":"Умм Ладж","pl":"Umm Lajj","hi":"उम्म लज्ज","ar":"أم لاج"}}]}]}