{"code":"SR","states":[{"name":"Brokopondo District","state_code":"BR","latitude":"4.77102470","longitude":"-55.04933750","cities":[{"name":"Brokopondo","latitude":"5.05594000","longitude":"-54.98043000","native":"Brocopondo","translations":{"br":"Brokopondo","ko":"브로코폰도","pt-BR":"Brokopondo","pt":"Brokopondo","nl":"Brokopondo","hr":"Brokopondo","fa":"برکوپوندو","de":"Brokopondo","es":"Brokopondo","fr":"Brokopondo","ja":"ブロコポンド","it":"Brokopondo","zh-CN":"布罗科蓬多","tr":"Brokopondo","ru":"Брокопондо","uk":"Брокопондо","pl":"Brokopondo","hi":"ब्रोकोपोंदो","ar":"بروكوبوندو"}},{"name":"Brownsweg","latitude":"5.00435000","longitude":"-55.15333000","native":"Bruinsweg","translations":{"br":"Brownsweg","ko":"브라운스웨그","pt-BR":"Brownsweg","pt":"Brownsweg","nl":"Brownsweg","hr":"Brownsweg","fa":"براونزوگ","de":"Brownsweg","es":"Brownsweg","fr":"Brownsweg","ja":"ブラウンズウェグ","it":"Brownsweg","zh-CN":"布朗斯韦格","tr":"Brownsweg","ru":"Браунсвег","uk":"Браунсвег","pl":"Brownsweg","hi":"ब्राउनस्वेग","ar":"براونزويج"}}]},{"name":"Commewijne District","state_code":"CM","latitude":"5.74021100","longitude":"-54.87312190","cities":[{"name":"Mariënburg","latitude":"5.87722000","longitude":"-55.04322000","native":"Mariënburg","translations":{"br":"Mariënburg","ko":"마리엔부르크","pt-BR":"Mariënburg","pt":"Mariënburg","nl":"Mariënburg","hr":"Mariënburg","fa":"مارینبورگ","de":"Marienburg","es":"Marienburgo","fr":"Mariënburg","ja":"マリエンブルク","it":"Mariënburg","zh-CN":"马林堡","tr":"Mariënburg","ru":"Мариенбург","uk":"Марієнбург","pl":"Mariënburg","hi":"मैरीएनबर्ग","ar":"مارينبورغ"}},{"name":"Nieuw Amsterdam","latitude":"5.88573000","longitude":"-55.08871000","native":"Nieuw Amsterdam","translations":{"br":"Nieuw Amsterdam","ko":"니우 암스테르담","pt-BR":"Nova Amsterdã","pt":"Nova Amsterdã","nl":"Nieuw Amsterdam","hr":"Novi Amsterdam","fa":"نیو آمستردام","de":"Nieuw Amsterdam","es":"Nueva Ámsterdam","fr":"Nieuw Amsterdam","ja":"ニューアムステルダム","it":"Nuova Amsterdam","zh-CN":"新阿姆斯特丹","tr":"Yeni Amsterdam","ru":"Новый Амстердам","uk":"Новий Амстердам","pl":"Nowy Amsterdam","hi":"न्यू एम्स्टर्डम","ar":"نيو أمستردام"}}]},{"name":"Coronie District","state_code":"CR","latitude":"5.69432710","longitude":"-56.29293810","cities":[{"name":"Totness","latitude":"5.87618000","longitude":"-56.32572000","native":"Totness","translations":{"br":"Totness","ko":"토트니스","pt-BR":"Totness","pt":"Totness","nl":"Totness","hr":"Totness","fa":"توتنس","de":"Totness","es":"Plenitud","fr":"Totness","ja":"トットネス","it":"Totness","zh-CN":"托特尼斯","tr":"Totness","ru":"Тотнесс","uk":"Тотнесс","pl":"Totness","hi":"टोटनेस","ar":"توتنس"}}]},{"name":"Marowijne District","state_code":"MA","latitude":"5.62681280","longitude":"-54.25931180","cities":[{"name":"Albina","latitude":"5.49788000","longitude":"-54.05522000","native":"Bij","translations":{"br":"Albina","ko":"알비나","pt-BR":"Albina","pt":"Albina","nl":"Albina","hr":"Albina","fa":"آلبینا","de":"Albina","es":"Albina","fr":"Albine","ja":"アルビナ","it":"Albina","zh-CN":"阿尔比娜","tr":"Albina","ru":"Альбина","uk":"Альбіна","pl":"Albina","hi":"अल्बिना","ar":"ألبينا"}},{"name":"Moengo","latitude":"5.61411000","longitude":"-54.40121000","native":"Moengo","translations":{"br":"Moengo","ko":"모엔고","pt-BR":"Moengo","pt":"Moengo","nl":"Moengo","hr":"Moengo","fa":"موئنگو","de":"Moengo","es":"Moengo","fr":"Moengo","ja":"モエンゴ","it":"Moengo","zh-CN":"莫恩戈","tr":"Moengo","ru":"Моенго","uk":"Моенго","pl":"Moengo","hi":"मोएंगो","ar":"موينغو"}}]},{"name":"Nickerie District","state_code":"NI","latitude":"5.58554690","longitude":"-56.83111170","cities":[{"name":"Nieuw Nickerie","latitude":"5.92606000","longitude":"-56.97297000","native":"Nieuw Nickerie","translations":{"br":"Nevez Nickerie","ko":"니우 니케리","pt-BR":"Nova Nickerie","pt":"Nova Nickerie","nl":"Nieuw Nickerie","hr":"Nieuw Nickerie","fa":"نیو نیکری","de":"Nieuw Nickerie","es":"Nueva Nickerie","fr":"Nouvelle Nickerie","ja":"ニュー・ニッケリー","it":"Nieuw Nickerie","zh-CN":"新尼克里","tr":"Nieuw Nickerie","ru":"Nieuw Nickerie","uk":"Нью-Нікері","pl":"Nowa Nickerie","hi":"न्यू निकेरी","ar":"نيو نيكيري"}},{"name":"Wageningen","latitude":"5.76010000","longitude":"-56.66523000","native":"Waggen","translations":{"br":"Wageningen","ko":"바게닝겐","pt-BR":"Wageningen","pt":"Wageningen","nl":"Wageningen","hr":"Wageningen","fa":"واخنینگن","de":"Wageningen","es":"Wageningen","fr":"Wageningen","ja":"ワーゲニンゲン","it":"Wageningen","zh-CN":"瓦赫宁根","tr":"Wageningen","ru":"Вагенинген","uk":"Вагенінген","pl":"Wageningen","hi":"वैगनिंगन","ar":"فاجينينجن"}}]},{"name":"Para District","state_code":"PR","latitude":"5.48173180","longitude":"-55.22592070","cities":[{"name":"Onverwacht","latitude":"5.58983000","longitude":"-55.19462000","native":"Onverwacht","translations":{"br":"Onverwacht","ko":"온버워치트","pt-BR":"Monitoramento","pt":"Monitoramento","nl":"Onverwacht","hr":"Onverwacht","fa":"اونورواخت","de":"Onverwacht","es":"Vigilancia","fr":"Surveillance","ja":"オンヴェルワハト","it":"Onverwacht","zh-CN":"奥弗卫队","tr":"Onverwacht","ru":"Онвервахт","uk":"Онвервачт","pl":"Onverwacht","hi":"ऑनवरवाच्ट","ar":"أونفيرواخت"}}]},{"name":"Paramaribo District","state_code":"PM","latitude":"5.85203550","longitude":"-55.20382780","cities":[{"name":"Paramaribo","latitude":"5.86638000","longitude":"-55.16682000","native":"Paramaribo","translations":{"br":"Paramaribo","ko":"파라마리보","pt-BR":"Paramaribo","pt":"Paramaribo","nl":"Paramaribo","hr":"Paramaribo","fa":"پاراماریبو","de":"Paramaribo","es":"Paramaribo","fr":"Paramaribo","ja":"パラマリボ","it":"Paramaribo","zh-CN":"帕拉马里博","tr":"Paramaribo","ru":"Парамарибо","uk":"Парамарибо","pl":"Paramaribo","hi":"पारामरिबो","ar":"باراماريبو"}}]},{"name":"Saramacca District","state_code":"SA","latitude":"5.72408130","longitude":"-55.66896360","cities":[{"name":"Groningen","latitude":"5.80000000","longitude":"-55.46667000","native":"Groningen","translations":{"br":"Groningen","ko":"그로닝겐","pt-BR":"Groningen","pt":"Groningen","nl":"Groningen","hr":"Groningen","fa":"گرونینگن","de":"Groningen","es":"Groningen","fr":"Groningue","ja":"フローニンゲン","it":"Groninga","zh-CN":"格罗宁根","tr":"Groningen","ru":"Гронинген","uk":"Гронінген","pl":"Groningen","hi":"ग्रोनिंगन","ar":"خرونينجن"}}]},{"name":"Sipaliwini District","state_code":"SI","latitude":"3.65673820","longitude":"-56.20353870","cities":[]},{"name":"Wanica District","state_code":"WA","latitude":"5.73237620","longitude":"-55.27012350","cities":[{"name":"Lelydorp","latitude":"5.70000000","longitude":"-55.23333000","native":"Lelie","translations":{"br":"Lelydorp","ko":"렐리도르프","pt-BR":"Lelydorp","pt":"Lelydorp","nl":"Lelydorp","hr":"Lelydorp","fa":"لیلیدورپ","de":"Lelydorp","es":"Lelydorp","fr":"Lelydorp","ja":"レリードルプ","it":"Lelydorp","zh-CN":"雷利多尔普","tr":"Lelydorp","ru":"Лелидорп","uk":"Лелідорп","pl":"Lelydorp","hi":"लेलिडॉर्प","ar":"ليليدورب"}}]}]}