{"code":"TL","states":[{"name":"Aileu municipality","state_code":"AL","latitude":"-8.70439940","longitude":"125.60954740","cities":[{"name":"Aileu","latitude":"-8.72806000","longitude":"125.56639000","native":"Aileu","translations":{"ar":"أيلو","br":"Aileu","de":"Aileu","es":"Aileu","fa":"آیلو","fr":"Aileu","hi":"ऍल्यू","hr":"Aileu","it":"Aileu","ja":"アイレウ","ko":"아일루","nl":"Aileu","pl":"Aileu","pt":"Aileu","pt-BR":"Aileu","ru":"Аилеу","tr":"Aileu","uk":"Айлеу","zh-CN":"阿伊莱乌","hy":"Այլե"}},{"name":"Lequidoe","latitude":"-8.69139000","longitude":"125.63611000","native":"Lequidoe","translations":{"ar":"ليكويدوي","br":"Lequidoe","de":"Lequidoe","es":"Lequidoe","fa":"لکیدو","fr":"Lequidoe","hi":"लेक्विडो","hr":"Lequidoe","it":"Lequidoe","ja":"レキドエ","ko":"레키도","nl":"Lequidoe","pl":"Lequidoe","pt":"Lequidoe","pt-BR":"Lequidoe","ru":"Лекидое","tr":"Lequidoe","uk":"Лекідо","zh-CN":"莱基多","hy":"Լեկիդո"}},{"name":"Remexio","latitude":"-8.61667000","longitude":"125.66667000","native":"Remexio","translations":{"ar":"ريميكسيو","br":"Remexio","de":"Remexio","es":"Remexio","fa":"رمکسیو","fr":"Remexio","hi":"रेमेक्सियो","hr":"Remexio","it":"Remexio","ja":"レメシオ","ko":"레멕시오","nl":"Remexio","pl":"Remexio","pt":"Remexio","pt-BR":"Remexio","ru":"Ремексио","tr":"Remexio","uk":"Ремексио","zh-CN":"雷梅西奥","hy":"Ռեմեքսիո"}}]},{"name":"Ainaro Municipality","state_code":"AN","latitude":"-9.01131710","longitude":"125.52200120","cities":[{"name":"Ainaro","latitude":"-8.99241000","longitude":"125.50816000","native":"Ainaro","translations":{"ar":"أينارو","br":"Ainaro","de":"Ainaro","es":"Ainaro","fa":"آینارو","fr":"Ainaro","hi":"ऍइनरो","hr":"Ainaro","it":"Ainaro","ja":"アイナロ","ko":"아이나로","nl":"Ainaro","pl":"Ainaro","pt":"Ainaro","pt-BR":"Ainaro","ru":"Айнаро","tr":"Ainaro","uk":"Айнаро","zh-CN":"艾纳罗","hy":"Այնարո"}},{"name":"Hato-Udo","latitude":"-9.12036000","longitude":"125.58935000","native":"H-in","translations":{"ar":"هاتو-أودو","br":"Hato-Udo","de":"Hato-Udo","es":"Hato-Udo","fa":"هاتو-اودو","fr":"Hato Udo","hi":"हातो-उडो","hr":"Hato-Udo","it":"Hato-Udo","ja":"鳩ウド","ko":"하토우도","nl":"Hato-Udo","pl":"Hato-Udo","pt":"Hato-Udo","pt-BR":"Hato-Udo","ru":"Хато-Удо","tr":"Hato-Udo","uk":"Хато-Удо","zh-CN":"哈托乌多","hy":"Հատո-Ուդո"}}]},{"name":"Baucau Municipality","state_code":"BA","latitude":"-8.47143080","longitude":"126.45759910","cities":[{"name":"Baguia","latitude":"-8.62787000","longitude":"126.65743000","native":"Baguia","translations":{"ar":"باجويا","br":"Baguia","de":"Baguia","es":"Baguia","fa":"باگویا","fr":"Baguia","hi":"बगुइया","hr":"Baguia","it":"Baguia","ja":"バグイア","ko":"바기아","nl":"Baguia","pl":"Baguia","pt":"Baguia","pt-BR":"Baguia","ru":"Багия","tr":"Baguia","uk":"Багія","zh-CN":"碧桂园","hy":"Բաղուիա"}},{"name":"Baucau","latitude":"-8.46667000","longitude":"126.45000000","native":"Bauau","translations":{"ar":"باوكاو","br":"Baucau","de":"Baucau","es":"Baucau","fa":"باکائو","fr":"Baucau","hi":"बाउको","hr":"Baucau","it":"Baucau","ja":"バウカウ","ko":"바우카우","nl":"Baucau","pl":"Baucau","pt":"Baucau","pt-BR":"Baucau","ru":"Баукау","tr":"Baucau","uk":"Баукау","zh-CN":"包考","hy":"Բաուկաու"}},{"name":"Baukau","latitude":"-8.47572000","longitude":"126.45633000","native":"Bano","translations":{"ar":"باوكاو","br":"Baukau","de":"Baukau","es":"Baukau","fa":"بائوکائو","fr":"Baukau","hi":"बाउकाऊ","hr":"Baukau","it":"Baukau","ja":"バウカウ","ko":"바우카우","nl":"Baukau","pl":"Baukau","pt":"Baukau","pt-BR":"Baukau","ru":"Баукау","tr":"Baukau","uk":"Баукау","zh-CN":"包考","hy":"Բաուկաու"}},{"name":"Laga","latitude":"-8.47411000","longitude":"126.59228000","native":"Consideração","translations":{"ar":"لاغا","br":"Laga","de":"Laga","es":"Laga","fa":"لاگا","fr":"Laga","hi":"लगा","hr":"Laga","it":"Laga","ja":"ラガ","ko":"라가","nl":"Laga","pl":"Laga","pt":"Laga","pt-BR":"Laga","ru":"Лага","tr":"Laga","uk":"Лага","zh-CN":"拉加","hy":"Լաղա"}},{"name":"Quelicai","latitude":"-8.60135000","longitude":"126.55904000","native":"Quelicai","translations":{"ar":"كويليكاي","br":"Quelicai","de":"Quelicai","es":"Quelicaí","fa":"Quelicai","fr":"Quelicai","hi":"क्वेलिकाई","hr":"Quelicai","it":"Quelicai","ja":"ケライカイ","ko":"켈리카이","nl":"Quelicai","pl":"Quelicai","pt":"Quelicaí","pt-BR":"Quelicaí","ru":"Келикай","tr":"Quelicai","uk":"Quelicai","zh-CN":"却利才","hy":"Կվելիկայ"}},{"name":"Vemasse","latitude":"-8.51036000","longitude":"126.20823000","native":"Para a cerca","translations":{"ar":"فيماسي","br":"Vemasse","de":"Vemasse","es":"Vemasse","fa":"وماس","fr":"Vemasse","hi":"वेमासे","hr":"Vemasse","it":"Vemasse","ja":"ベマッセ","ko":"베마스","nl":"Vemasse","pl":"Vemasse","pt":"Vémasse","pt-BR":"Vémasse","ru":"Вемассе","tr":"Vemasse","uk":"Вемассе","zh-CN":"维马斯","hy":"Վեմասե"}},{"name":"Venilale","latitude":"-8.64306000","longitude":"126.37833000","native":"Venila","translations":{"ar":"فينيلالي","br":"Venilale","de":"Venilale","es":"Venilale","fa":"ونیلاله","fr":"Venilale","hi":"वेनिले","hr":"Venilale","it":"Venilale","ja":"ヴェニラレ","ko":"베닐랄레","nl":"Venilale","pl":"Venilale","pt":"Venilale","pt-BR":"Venilale","ru":"Венилале","tr":"Venilale","uk":"Венілале","zh-CN":"维尼拉莱","hy":"Վենիլալե"}}]},{"name":"Bobonaro Municipality","state_code":"BO","latitude":"-8.96554060","longitude":"125.25879640","cities":[{"name":"Maliana","latitude":"-8.99167000","longitude":"125.21972000","native":"Maliana","translations":{"ar":"ماليانا","br":"Maliana","de":"Maliana","es":"Maliana","fa":"مالیانا","fr":"Maliana","hi":"मलियाना","hr":"Maliana","it":"Maliana","ja":"マリアナ","ko":"말리아나","nl":"Maliana","pl":"Maliana","pt":"Maliana","pt-BR":"Maliana","ru":"Малиана","tr":"Maliana","uk":"Маліана","zh-CN":"马利亚娜","hy":"Մալիանա"}}]},{"name":"Cova Lima Municipality","state_code":"CO","latitude":"-9.26503750","longitude":"125.25879640","cities":[{"name":"Fatumean","latitude":"-9.22917000","longitude":"125.03583000","native":"FATUMEAN","translations":{"ar":"فاطمية","br":"Fatumean","de":"Fatumean","es":"Fatumeo","fa":"فاتومیان","fr":"Fatuméen","hi":"फतूमीन","hr":"Fatumean","it":"Fatumeo","ja":"ファトゥメアン","ko":"파투메안","nl":"Fatumean","pl":"Fatumean","pt":"Fatumeano","pt-BR":"Fatumeano","ru":"Фатумский","tr":"Fatumean","uk":"Фатум'ян","zh-CN":"法图梅安","hy":"Ֆատումեան"}},{"name":"Fohorem","latitude":"-9.28361000","longitude":"125.08944000","native":"Fohorem","translations":{"ar":"فوهريم","br":"Fohorem","de":"Fohorem","es":"Fohorem","fa":"فوهورم","fr":"Fohorem","hi":"फ़ोहोरेम","hr":"Fohorem","it":"Fohorem","ja":"フォホレム","ko":"포호렘","nl":"Fohorem","pl":"Fohorem","pt":"Fohorem","pt-BR":"Fohorem","ru":"Фохорем","tr":"Fohorem","uk":"Фохорема","zh-CN":"福霍雷姆","hy":"Ֆոհորեմ"}},{"name":"Maucatar","latitude":"-9.21772000","longitude":"125.22981000","native":"Maucatar","translations":{"ar":"ماوكاتار","br":"Maucatar","de":"Maucatar","es":"Maucatar","fa":"ماوکاتار","fr":"Maucatar","hi":"मौकाटर","hr":"Maucatar","it":"Maucatar","ja":"モーカタル","ko":"마우카타","nl":"Maucatar","pl":"Maucatar","pt":"Maucatar","pt-BR":"Maucatar","ru":"Маукатар","tr":"Maucatar","uk":"Маукатар","zh-CN":"毛卡塔尔","hy":"Մաուկատար"}},{"name":"Suai","latitude":"-9.30000000","longitude":"125.25000000","native":"Repleto","translations":{"ar":"سواي","br":"Suai","de":"Suai","es":"Suai","fa":"سوای","fr":"Suai","hi":"सुई","hr":"Suai","it":"Suai","ja":"スアイ","ko":"수아이","nl":"Suai","pl":"Suai","pt":"Suai","pt-BR":"Suai","ru":"Суай","tr":"Suai","uk":"Суай","zh-CN":"苏艾","hy":"Սուայ"}},{"name":"Tilomar","latitude":"-9.34182000","longitude":"125.10887000","native":"Tilomar","translations":{"ar":"تيلومار","br":"Tilomar","de":"Tilomar","es":"Tilomar","fa":"تیلومار","fr":"Tilomar","hi":"तिलोमर","hr":"Tilomar","it":"Tilomar","ja":"ティロマール","ko":"틸로마르","nl":"Tilomar","pl":"Tilomar","pt":"Tilomar","pt-BR":"Tilomar","ru":"Тиломар","tr":"Tilomar","uk":"Тіломар","zh-CN":"蒂洛玛","hy":"Տիլոմար"}}]},{"name":"Dili municipality","state_code":"DI","latitude":"-8.24496130","longitude":"125.58766970","cities":[{"name":"Atauro Island","latitude":"-8.26785000","longitude":"125.59699000","native":"Ilha Atauro","translations":{"ar":"جزيرة أتورو","br":"Enez Atauro","de":"Atauro-Insel","es":"Isla de Atauro","fa":"جزیره آتاورو","fr":"Île d'Atauro","hi":"अताउरो द्वीप","hr":"Otok Atauro","it":"Isola di Atauro","ja":"アタウロ島","ko":"아타우로 섬","nl":"Atauro-eiland","pl":"Wyspa Atauro","pt":"Ilha de Ataúro","pt-BR":"Ilha de Ataúro","ru":"Остров Атауро","tr":"Atauro Adası","uk":"Острів Атауро","zh-CN":"阿陶罗岛","hy":"Ատաուրո կղզի"}},{"name":"Cristo Rei","latitude":"-8.52047000","longitude":"125.60837000","native":"Cristo Rei","translations":{"ar":"كريستو ري","br":"Cristo Rei","de":"Cristo Rei","es":"Cristo Rey","fa":"کریستو ری","fr":"Christ Roi","hi":"क्रिस्टो री","hr":"Cristo Rei","it":"Cristo Rei","ja":"クリスト・レイ","ko":"크리스토 레이","nl":"Christus Koning","pl":"Cristo Rei","pt":"Cristo Rei","pt-BR":"Cristo Rei","ru":"Кристо Рей","tr":"Cristo Rei","uk":"Крісто Рей","zh-CN":"克里斯托·雷","hy":"Կրիստո Ռեյ"}},{"name":"Dili","latitude":"-8.55861000","longitude":"125.57361000","native":"não","translations":{"ar":"ديلي","br":"Dili","de":"Dili","es":"Dili","fa":"دیلی","fr":"Dili","hi":"दिली","hr":"Dili","it":"Dili","ja":"ディリ","ko":"딜리","nl":"Dili","pl":"Dili","pt":"Díli","pt-BR":"Díli","ru":"Дили","tr":"Dili","uk":"Ділі","zh-CN":"帝力","hy":"Դիլի"}},{"name":"Metinaro","latitude":"-8.53007000","longitude":"125.74163000","native":"De um ano -Volto","translations":{"ar":"ميتينارو","br":"Metinaro","de":"Metinaro","es":"Metinaro","fa":"متینارو","fr":"Métinaro","hi":"मेटिनारो","hr":"Metinaro","it":"Metinaro","ja":"メティナロ","ko":"메티나로","nl":"Metinaro","pl":"Metinaro","pt":"Metinaro","pt-BR":"Metinaro","ru":"Метинаро","tr":"Metinaro","uk":"Метінаро","zh-CN":"梅蒂纳罗","hy":"Մետինարո"}}]},{"name":"Ermera District","state_code":"ER","latitude":"-8.75248020","longitude":"125.39872940","cities":[{"name":"Ermera Villa","latitude":"-8.75222000","longitude":"125.39694000","native":"Ermera Villa","translations":{"ar":"فيلا إرميرا","br":"Ermera Villa","de":"Ermera Villa","es":"Villa Ermera","fa":"ویلای ارمرا","fr":"Villa Ermera","hi":"एर्मेरा विला","hr":"Vila Ermera","it":"Villa Ermera","ja":"エルメラ ヴィラ","ko":"에르메라 빌라","nl":"Ermera Villa","pl":"Willa Ermera","pt":"Vila Ermera","pt-BR":"Vila Ermera","ru":"Вилла Эрмера","tr":"Ermera Villa","uk":"Вілла Ермера","zh-CN":"埃尔梅拉别墅","hy":"Էրմերա վիլա"}},{"name":"Gleno","latitude":"-8.72389000","longitude":"125.43611000","native":"Gleno","translations":{"ar":"جلينو","br":"Gleno","de":"Gleno","es":"Gleno","fa":"گلنو","fr":"Gléno","hi":"ग्लेनो","hr":"Gleno","it":"Gleno","ja":"グレノ","ko":"글레노","nl":"Gleno","pl":"Gleno","pt":"Gleno","pt-BR":"Gleno","ru":"Глено","tr":"Gleno","uk":"Глено","zh-CN":"格莱诺","hy":"Գլենո"}},{"name":"Hatulia","latitude":"-8.81667000","longitude":"125.31667000","native":"Não é","translations":{"ar":"هاتوليا","br":"Hatulia","de":"Hatulia","es":"Hatulia","fa":"هاتولیا","fr":"Hatulia","hi":"हतुलिया","hr":"Hatulia","it":"Hatulia","ja":"ハトゥリア","ko":"하툴리아","nl":"Hatulia","pl":"Hatulia","pt":"Hatulia","pt-BR":"Hatulia","ru":"Хатулия","tr":"Hatulia","uk":"Хатулія","zh-CN":"哈图利亚","hy":"Հատուլիա"}},{"name":"Letefoho","latitude":"-8.83444000","longitude":"125.42639000","native":"O sapo","translations":{"ar":"ليتفوهو","br":"Letefoho","de":"Letefoho","es":"Letefoho","fa":"لتفوهو","fr":"Letefoho","hi":"लेटेफोहो","hr":"Letefoho","it":"Letefoho","ja":"レテフォホ","ko":"레테포호","nl":"Letefoho","pl":"Letefoho","pt":"Letefoho","pt-BR":"Letefoho","ru":"Летефохо","tr":"Letefoho","uk":"Летефохо","zh-CN":"莱特福霍","hy":"Լետեֆոհո"}},{"name":"Railaco","latitude":"-8.67237000","longitude":"125.42546000","native":"Railaco","translations":{"ar":"رايلاكو","br":"Railaco","de":"Railaco","es":"Railaco","fa":"ریلاکو","fr":"Railaco","hi":"रेलैको","hr":"Railaco","it":"Railaco","ja":"ライラコ","ko":"라일라코","nl":"Railaco","pl":"Railaco","pt":"Railaco","pt-BR":"Railaco","ru":"Райлако","tr":"Railaco","uk":"Райлако","zh-CN":"拉伊拉科","hy":"Ռայլակո"}}]},{"name":"Lautém Municipality","state_code":"LA","latitude":"-8.36423070","longitude":"126.90438450","cities":[{"name":"Iliomar","latitude":"-8.70917000","longitude":"126.82833000","native":"Iliomar","translations":{"ar":"إيليومار","br":"Iliomar","de":"Iliomar","es":"Iliomar","fa":"ایلیومار","fr":"Iliomar","hi":"इलियोमार","hr":"Iliomar","it":"Iliomar","ja":"イリオマー","ko":"일리오마르","nl":"Iliomar","pl":"Iliomar","pt":"Iliomar","pt-BR":"Iliomar","ru":"Илиомар","tr":"Iliomar","uk":"Іліомар","zh-CN":"伊利奥马尔","hy":"Իլիոմար"}},{"name":"Lautem","latitude":"-8.36514000","longitude":"126.90389000","native":"Alto","translations":{"ar":"لاوتيم","br":"Lautem","de":"Lautem","es":"Lautem","fa":"لاوتم","fr":"Lautem","hi":"लौतेम","hr":"Lautem","it":"Lautem","ja":"ラウテム","ko":"라우템","nl":"Lautem","pl":"Lautem","pt":"Lautem","pt-BR":"Lautem","ru":"Лаутем","tr":"Lautem","uk":"Лаутем","zh-CN":"劳滕","hy":"Լաուտեմ"}},{"name":"Lospalos","latitude":"-8.52167000","longitude":"126.99833000","native":"Lospalos","translations":{"ar":"لوسبالوس","br":"Lospalos","de":"Lospalos","es":"Los palos","fa":"لوسپالوس","fr":"Lospalos","hi":"लोस्पालोस","hr":"Lospalos","it":"Lospalos","ja":"ロスパロス","ko":"로스팔로스","nl":"Lospalos","pl":"Lospalos","pt":"Lospalos","pt-BR":"Lospalos","ru":"Лоспалос","tr":"Lospalos","uk":"Лоспалос","zh-CN":"洛斯帕洛斯","hy":"Լոսպալոս"}},{"name":"Luro","latitude":"-8.54359000","longitude":"126.83003000","native":"Luro","translations":{"ar":"لورو","br":"Luro","de":"Luro","es":"Luro","fa":"لورو","fr":"Luro","hi":"लूरो","hr":"Luro","it":"Luro","ja":"ルロ","ko":"루로","nl":"Luro","pl":"Luro","pt":"Luro","pt-BR":"Luro","ru":"Луро","tr":"Luro","uk":"Луро","zh-CN":"卢罗","hy":"Լուրո"}},{"name":"Tutuala","latitude":"-8.39597000","longitude":"127.25923000","native":"Luvas","translations":{"ar":"توتوالا","br":"Tutuala","de":"Tutuala","es":"Tutuala","fa":"توتوآلا","fr":"Tutuala","hi":"टुटुआला","hr":"Tutuala","it":"Tutuala","ja":"トゥトゥアラ","ko":"투투알라","nl":"Tutuala","pl":"Tutuala","pt":"Tutuala","pt-BR":"Tutuala","ru":"Тутуала","tr":"Tutuala","uk":"Тутуала","zh-CN":"图图阿拉","hy":"Տուտուալա"}}]},{"name":"Liquiçá Municipality","state_code":"LI","latitude":"-8.66740950","longitude":"125.25879640","cities":[{"name":"Bazartete","latitude":"-8.62464000","longitude":"125.38168000","native":"Bazarte","translations":{"ar":"بازارتيت","br":"Bazartete","de":"Bazartete","es":"Bazartete","fa":"بازارتته","fr":"Bazartete","hi":"बाज़ारटेटे","hr":"Bazartete","it":"Bazartete","ja":"バザルテテ","ko":"바자르테테","nl":"Bazartete","pl":"Bazartete","pt":"Bazartete","pt-BR":"Bazartete","ru":"Базартете","tr":"Bazartet","uk":"Базартете","zh-CN":"巴扎尔特特","hy":"Բազարտետե"}},{"name":"Likisá","latitude":"-8.58750000","longitude":"125.34194000","native":"Vidente","translations":{"ar":"ليكيسا","br":"Likisá","de":"Likisá","es":"Likisá","fa":"لیکیس","fr":"Likisá","hi":"लिकिसा","hr":"Likisá","it":"Likisá","ja":"リキサ","ko":"리키사","nl":"Likisá","pl":"Likisá","pt":"Likisá","pt-BR":"Likisá","ru":"Ликиса","tr":"Likisá","uk":"Лікіса","zh-CN":"利基萨","hy":"Լիկիսա"}},{"name":"Maubara","latitude":"-8.61194000","longitude":"125.20611000","native":"Maubara","translations":{"ar":"موبارا","br":"Maubara","de":"Maubara","es":"Maubara","fa":"موبارا","fr":"Maubara","hi":"मौबारा","hr":"Maubara","it":"Maubara","ja":"マウバラ","ko":"마우바라","nl":"Maubara","pl":"Maubara","pt":"Maubara","pt-BR":"Maubara","ru":"Маубара","tr":"Maubara","uk":"Маубара","zh-CN":"毛巴拉","hy":"Մաուբարա"}}]},{"name":"Manatuto District","state_code":"MT","latitude":"-8.51556080","longitude":"126.01592550","cities":[{"name":"Barique","latitude":"-8.85472000","longitude":"126.06556000","native":"Barril","translations":{"ar":"باريك","br":"Barik","de":"Barique","es":"Barique","fa":"باریک","fr":"Barique","hi":"बारिक","hr":"Barik","it":"Barique","ja":"バリック","ko":"바리크","nl":"Bariek","pl":"Barique","pt":"Barique","pt-BR":"Barique","ru":"Барик","tr":"Barik","uk":"Барік","zh-CN":"巴里克","hy":"Բարիկե"}},{"name":"Laclo","latitude":"-8.55000000","longitude":"125.91667000","native":"Laclo","translations":{"ar":"لاكلو","br":"Laclo","de":"Laclo","es":"Laclo","fa":"لاکلو","fr":"Laclo","hi":"लैक्लो","hr":"Laclo","it":"Laclo","ja":"ラクロ","ko":"라클로","nl":"Laclo","pl":"Laclo","pt":"Laclo","pt-BR":"Laclo","ru":"Лакло","tr":"Laclo","uk":"Лакло","zh-CN":"拉克洛","hy":"Լակլո"}},{"name":"Laclubar","latitude":"-8.74975000","longitude":"125.91186000","native":"Laclubar","translations":{"ar":"لاكلوبار","br":"Laclubar","de":"Laclubar","es":"Laclubar","fa":"لاکوبار","fr":"Laclubar","hi":"लैक्लुबार","hr":"Laclubar","it":"Laclubar","ja":"ラクラパル","ko":"라클루르카","nl":"Laclubar","pl":"Laclubar","pt":"Laclubar","pt-BR":"Laclubar","ru":"Лаклубар","tr":"Laclubar","uk":"Лаклубар","zh-CN":"拉克拉巴尔","hy":"Լակլուբար"}},{"name":"Manatuto","latitude":"-8.52207000","longitude":"126.01516000","native":"Manatsuto","translations":{"ar":"ماناتوتو","br":"Manatuto","de":"Manatuto","es":"Manatuto","fa":"ماناتو","fr":"Manatuto","hi":"मेनाट्यूटो","hr":"Manatuto","it":"Manatuto","ja":"マナトゥート","ko":"마나투토","nl":"Manatuto","pl":"Manatuto","pt":"Manatuto","pt-BR":"Manatuto","ru":"Манатуто","tr":"Manatuto","uk":"Манатуто","zh-CN":"马纳图托","hy":"Մանատուտո"}},{"name":"Manatutu","latitude":"-8.51139000","longitude":"126.01306000","native":"PUIGHTER","translations":{"ar":"ماناتوتو","br":"Manatutu","de":"Manatutu","es":"Manatutu","fa":"ماناتوتو","fr":"Manatutu","hi":"मनातुतु","hr":"Manatutu","it":"Manatutu","ja":"マナトゥトゥ","ko":"마나투투","nl":"Manatutu","pl":"Manatutu","pt":"Manatutu","pt-BR":"Manatutu","ru":"Манатуту","tr":"Manatutu","uk":"Манатуту","zh-CN":"马纳图图","hy":"Մանատուտու"}},{"name":"Soibada","latitude":"-8.86000000","longitude":"125.94000000","native":"Sauda","translations":{"ar":"سويبادا","br":"Soibada","de":"Soibada","es":"Soibada","fa":"سویبادا","fr":"Soibada","hi":"सोइबाडा","hr":"Soibada","it":"Soibada","ja":"ソイバダ","ko":"소바다","nl":"Soibada","pl":"Soibada","pt":"Soibada","pt-BR":"Soibada","ru":"Сойбада","tr":"Soibada","uk":"Сойбада","zh-CN":"索伊巴达","hy":"Սոյբադա"}}]},{"name":"Manufahi Municipality","state_code":"MF","latitude":"-9.01454950","longitude":"125.82799590","cities":[{"name":"Alas","latitude":"-9.02730000","longitude":"125.78680000","native":"Infelizmente","translations":{"ar":"للأسف","br":"Siwazh","de":"Ach","es":"Ay","fa":"افسوس","fr":"Hélas","hi":"हाय","hr":"Nažalost","it":"Ahimè","ja":"ああ","ko":"아아","nl":"Helaas","pl":"Niestety","pt":"Ai de mim","pt-BR":"Ai de mim","ru":"Увы","tr":"Ne yazık ki","uk":"На жаль","zh-CN":"唉","hy":"Ալաս"}},{"name":"Fatuberliu","latitude":"-8.94790000","longitude":"125.86633000","native":"Fatuberliu","translations":{"ar":"فاتوبرليو","br":"Fatuberliu","de":"Fatuberliu","es":"Fatuberliu","fa":"فاتوبرلیو","fr":"Fatuberliu","hi":"फतुबर्लिउ","hr":"Fatuberliu","it":"Fatuberliu","ja":"ファトゥベルリウ","ko":"파투베리우","nl":"Fatuberliu","pl":"Fatuberliu","pt":"Fatuberliu","pt-BR":"Fatuberliu","ru":"Фатуберлиу","tr":"Fatuberliu","uk":"Фатуберліу","zh-CN":"法图贝柳","hy":"Ֆատուբերլիու"}},{"name":"Same","latitude":"-9.00000000","longitude":"125.65000000","native":"Mesmo","translations":{"ar":"نفس","br":"Heñvel","de":"Dasselbe","es":"Mismo","fa":"همان","fr":"Même","hi":"वही","hr":"Isti","it":"Stesso","ja":"同じ","ko":"같은","nl":"Dezelfde","pl":"To samo","pt":"Mesmo","pt-BR":"Mesmo","ru":"Такой же","tr":"Aynı","uk":"Те саме","zh-CN":"相同的","hy":"Սամե"}},{"name":"Turiscai","latitude":"-8.82371000","longitude":"125.70454000","native":"Turiscai","translations":{"ar":"توريسكاي","br":"Turiscai","de":"Turiscai","es":"Turiscai","fa":"توریسکای","fr":"Turcs","hi":"टुरिस्काई","hr":"Turiscai","it":"Turista","ja":"トゥリスカイ","ko":"투리스카이","nl":"Turiscai","pl":"Turiscai","pt":"Turiscai","pt-BR":"Turiscai","ru":"Турискай","tr":"Turiscai","uk":"Туріскай","zh-CN":"图里斯卡伊","hy":"Տուրիսկայ"}}]},{"name":"Viqueque Municipality","state_code":"VI","latitude":"-8.85979180","longitude":"126.36335160","cities":[{"name":"Lacluta","latitude":"-8.80000000","longitude":"126.13333000","native":"Lacluta","translations":{"ar":"لاكلوتا","br":"Lacluta","de":"Lacluta","es":"Lacluta","fa":"لاکلوتا","fr":"Lacluta","hi":"लैक्लुटा","hr":"Lakluta","it":"Lacluta","ja":"ラクルタ","ko":"라클루타","nl":"Lacluta","pl":"Lacluta","pt":"Lacluta","pt-BR":"Lacluta","ru":"Лаклута","tr":"Lacluta","uk":"Лаклута","zh-CN":"拉克鲁塔","hy":"Լակլուտա"}},{"name":"Ossu","latitude":"-8.73477000","longitude":"126.38324000","native":"Osso","translations":{"ar":"أوسو","br":"Ossu","de":"Ossu","es":"Ossu","fa":"اوسو","fr":"Ossu","hi":"ओसु","hr":"Ossu","it":"Ossu","ja":"オスス","ko":"오수","nl":"Ossu","pl":"Ossu","pt":"Ossu","pt-BR":"Ossu","ru":"Оссу","tr":"Ossu","uk":"Оссу","zh-CN":"奥苏","hy":"Օսսու"}},{"name":"Uatocarabau","latitude":"-8.75658000","longitude":"126.68060000","native":"Uatocarabau","translations":{"ar":"واتوكاراباو","br":"Uatocarabau","de":"Uatocarabau","es":"Uatocarabau","fa":"اواتوکارابائو","fr":"Uatocarabau","hi":"उआटोकाराबाऊ","hr":"Uatocarabau","it":"Uatocarabau","ja":"ウアトカラバウ","ko":"우아토카라바우","nl":"Uatocarabau","pl":"Uatocarabau","pt":"Uatocarabau","pt-BR":"Uatocarabau","ru":"Уатокарабау","tr":"Uatocarabau","uk":"Уатокарабау","zh-CN":"瓦托卡拉布","hy":"Ուատոկարաբաու"}},{"name":"Uatolari","latitude":"-8.76277000","longitude":"126.57353000","native":"Uatos","translations":{"ar":"واتولاري","br":"Uatolari","de":"Uatolari","es":"Uatolari","fa":"اوتولاری","fr":"Uatolari","hi":"उआटोलारी","hr":"Uatolariji","it":"Uatolari","ja":"ウアトラリ","ko":"우아톨라리","nl":"Uatolari","pl":"Uatolari","pt":"Uatolari","pt-BR":"Uatolari","ru":"Уатолари","tr":"Uatolari","uk":"Уатоларі","zh-CN":"瓦托拉里","hy":"Ուատոլարի"}},{"name":"Viqueque","latitude":"-8.85908000","longitude":"126.36972000","native":"Viqueque","translations":{"ar":"فيكيكي","br":"Viqueque","de":"Viqueque","es":"Viqueque","fa":"ویکوکه","fr":"Viqueque","hi":"विकेके","hr":"Viqueque","it":"Viqueque","ja":"ビケケ","ko":"비케케","nl":"Viqueque","pl":"Viqueque","pt":"Viqueque","pt-BR":"Viqueque","ru":"Викеке","tr":"Viqueque","uk":"Вікеке","zh-CN":"维克克","hy":"Վիկեկե"}}]}]}