{"code":"UG","states":[{"name":"Abim District","state_code":"314","latitude":"2.70669800","longitude":"33.65953370","cities":[]},{"name":"Adjumani District","state_code":"301","latitude":"3.25485270","longitude":"31.71954590","cities":[]},{"name":"Agago District","state_code":"322","latitude":"2.92508200","longitude":"33.34861470","cities":[]},{"name":"Alebtong District","state_code":"323","latitude":"2.25457730","longitude":"33.34861470","cities":[]},{"name":"Amolatar District","state_code":"315","latitude":"1.60544020","longitude":"32.80844960","cities":[]},{"name":"Amudat District","state_code":"324","latitude":"1.79162240","longitude":"34.90655100","cities":[]},{"name":"Amuria District","state_code":"216","latitude":"2.03017000","longitude":"33.64275330","cities":[]},{"name":"Amuru District","state_code":"316","latitude":"2.96678780","longitude":"32.08374450","cities":[]},{"name":"Apac District","state_code":"302","latitude":"1.87302630","longitude":"32.62774550","cities":[]},{"name":"Arua District","state_code":"303","latitude":"2.99598460","longitude":"31.17103890","cities":[]},{"name":"Budaka District","state_code":"217","latitude":"1.10162770","longitude":"33.93039910","cities":[]},{"name":"Bududa District","state_code":"218","latitude":"1.00296930","longitude":"34.33381230","cities":[]},{"name":"Bugiri District","state_code":"201","latitude":"0.53161270","longitude":"33.75177230","cities":[]},{"name":"Buhweju District","state_code":"420","latitude":"-0.29113590","longitude":"30.29741990","cities":[]},{"name":"Buikwe District","state_code":"117","latitude":"0.31440460","longitude":"32.98883190","cities":[]},{"name":"Bukedea District","state_code":"219","latitude":"1.35568980","longitude":"34.10867930","cities":[]},{"name":"Bukomansimbi District","state_code":"118","latitude":"-0.14327520","longitude":"31.60548930","cities":[]},{"name":"Bukwo District","state_code":"220","latitude":"1.28186510","longitude":"34.72987650","cities":[]},{"name":"Bulambuli District","state_code":"225","latitude":"1.47988460","longitude":"34.37544140","cities":[]},{"name":"Buliisa District","state_code":"416","latitude":"2.02996070","longitude":"31.53700030","cities":[]},{"name":"Bundibugyo District","state_code":"401","latitude":"0.68517630","longitude":"30.02029640","cities":[]},{"name":"Bunyangabu District","state_code":"430","latitude":"0.48709180","longitude":"30.20510960","cities":[]},{"name":"Bushenyi District","state_code":"402","latitude":"-0.48709180","longitude":"30.20510960","cities":[]},{"name":"Busia District","state_code":"202","latitude":"0.40447310","longitude":"34.01958270","cities":[]},{"name":"Butaleja District","state_code":"221","latitude":"0.84749220","longitude":"33.84112880","cities":[]},{"name":"Butambala District","state_code":"119","latitude":"0.17425000","longitude":"32.10646680","cities":[]},{"name":"Butebo District","state_code":"233","latitude":"1.21411240","longitude":"33.90808960","cities":[]},{"name":"Buvuma District","state_code":"120","latitude":"-0.37649120","longitude":"33.25879300","cities":[]},{"name":"Buyende District","state_code":"226","latitude":"1.24136820","longitude":"33.12390490","cities":[]},{"name":"Central Region","state_code":"C","latitude":"44.29687500","longitude":"-94.74017330","cities":[{"name":"Bukomansimbi District","latitude":"-0.12855000","longitude":"31.62527000"},{"name":"Buvuma District","latitude":"-0.36744000","longitude":"33.20071000"},{"name":"Bweyogerere","latitude":"0.35773000","longitude":"32.66332000","native":"Bweyogerere Bweyogerere","translations":{"br":"Bweyogerere","ko":"브웨요게레레","pt-BR":"Bweyogerere","pt":"Bweyogerere","nl":"Bweyogerere","hr":"Bweyogerere","fa":"بویوگر","de":"Bweyogerere","es":"Bweyogerere","fr":"Bweyogerere","ja":"ブウェヨゲレレ","it":"Bweyogerere","zh-CN":"布韦约杰雷雷","tr":"Bweyogerere","ru":"Бвейогерере","uk":"Бвейогерере","pl":"Bweyogerere","hi":"ब्वेयोगेरेरे","ar":"بويوغيريري"}},{"name":"Byakabanda","latitude":"-0.74250000","longitude":"31.40639000","native":"Byakabanda","translations":{"br":"Byakabanda","ko":"뱌카반다","pt-BR":"Byakabanda","pt":"Byakabanda","nl":"Byakabanda","hr":"Byakabanda","fa":"بیاکاکاندا","de":"Byakabanda","es":"Byakabanda","fr":"Byakabanda","ja":"ビャカバンダ","it":"Byakabanda","zh-CN":"拜亚卡班达","tr":"Byakabanda","ru":"Бьякабанда","uk":"Б'якабанда","pl":"Byakabanda","hi":"बायकाबांडा","ar":"بياكا باندا"}},{"name":"Entebbe","latitude":"0.05621000","longitude":"32.47949000","native":"Entity","translations":{"br":"Entebbe","ko":"엔테베","pt-BR":"Entebbe","pt":"Entebbe","nl":"Entebbe","hr":"Entebbe","fa":"انتبه","de":"Entebbe","es":"Entebbe","fr":"Entebbe","ja":"エンテベ","it":"Entebbe","zh-CN":"恩德培","tr":"Entebbe","ru":"Энтеббе","uk":"Ентеббе","pl":"Entebbe","hi":"एनटेबे","ar":"عنتيبي"}},{"name":"Gomba District","latitude":"0.20017000","longitude":"31.75023000"},{"name":"Kajansi","latitude":"0.21548000","longitude":"32.53453000","native":"Rate","translations":{"br":"Kajansi","ko":"카잔시","pt-BR":"Kajansi","pt":"Kajansi","nl":"Kajansi","hr":"Kajansi","fa":"کاجانسی","de":"Kajansi","es":"Kajansi","fr":"Kajansi","ja":"カジャンシ","it":"Kajansi","zh-CN":"卡詹西","tr":"Kajansi","ru":"Каджанси","uk":"Каджансі","pl":"Kajansi","hi":"कजानसी","ar":"كاجانسي"}},{"name":"Kampala","latitude":"0.31628000","longitude":"32.58219000","native":"Kampala","translations":{"br":"Kampala","ko":"캄팔라","pt-BR":"Kampala","pt":"Kampala","nl":"Kampala","hr":"Kampala","fa":"کامپالا","de":"Kampala","es":"Kampala","fr":"Kampala","ja":"カンパラ","it":"Kampala","zh-CN":"坎帕拉","tr":"Kampala","ru":"Кампала","uk":"Кампала","pl":"Kampala","hi":"कंपाला","ar":"كمبالا"}},{"name":"Kampala District","latitude":"0.33508000","longitude":"32.58313000","native":"Kampala District","translations":{"br":"Distrig Kampala","ko":"캄팔라 지구","pt-BR":"Distrito de Kampala","pt":"Distrito de Kampala","nl":"Kampala District","hr":"Okrug Kampala","fa":"ناحیه کامپالا","de":"Distrikt Kampala","es":"Distrito de Kampala","fr":"District de Kampala","ja":"カンパラ地区","it":"Distretto di Kampala","zh-CN":"坎帕拉区","tr":"Kampala Bölgesi","ru":"округ Кампала","uk":"Район Кампала","pl":"Dystrykt Kampala","hi":"कंपाला जिला","ar":"منطقة كامبالا"}},{"name":"Kanoni","latitude":"0.17722000","longitude":"31.88111000","native":"Capable","translations":{"br":"Kanoni","ko":"카노니","pt-BR":"Kanoni","pt":"Kanoni","nl":"Kanoni","hr":"Kanoni","fa":"کانونی","de":"Kanoni","es":"Kanoni","fr":"Kanoni","ja":"カノニ","it":"Kanoni","zh-CN":"卡诺尼","tr":"Kanoni","ru":"Канони","uk":"Каноні","pl":"Kanoni","hi":"कनोनी","ar":"كانوني"}},{"name":"Kayunga","latitude":"0.70250000","longitude":"32.88861000","native":"Kayunga","translations":{"br":"Kayunga","ko":"카융가","pt-BR":"Kayunga","pt":"Kayunga","nl":"Kayunga","hr":"Kayunga","fa":"کایونگا","de":"Kayunga","es":"Kayunga","fr":"Kayunga","ja":"カユンガ","it":"Kayunga","zh-CN":"卡永加","tr":"Kayunga","ru":"Каюнга","uk":"Каюнга","pl":"Kayunga","hi":"कयुंग","ar":"كايونجا"}},{"name":"Kiboga","latitude":"0.91611000","longitude":"31.77417000","native":"Kiboga","translations":{"br":"Kiboga","ko":"키보가","pt-BR":"Kiboga","pt":"Kiboga","nl":"Kiboga","hr":"Kiboga","fa":"کیبوگا","de":"Kiboga","es":"Kiboga","fr":"Kiboga","ja":"キボガ","it":"Kiboga","zh-CN":"基博加","tr":"Kiboga","ru":"Кибога","uk":"Кібога","pl":"Kiboga","hi":"किबोगा","ar":"كيبوجا"}},{"name":"Kireka","latitude":"0.34750000","longitude":"32.64917000","native":"Grace","translations":{"br":"Kireka","ko":"키레카","pt-BR":"Kireka","pt":"Kireka","nl":"Kireka","hr":"Kireka","fa":"کیرکا","de":"Kireka","es":"Kireka","fr":"Kireka","ja":"キレカ","it":"Kireka","zh-CN":"基雷卡","tr":"Kireka","ru":"Кирека","uk":"Кірека","pl":"Kireka","hi":"किरेका","ar":"كيريكا"}},{"name":"Kyotera","latitude":"-0.61556000","longitude":"31.51750000","native":"Correth","translations":{"br":"Kyotera","ko":"교테라","pt-BR":"Kyotora","pt":"Kyotora","nl":"Kyotera","hr":"Kyotera","fa":"کیوترا","de":"Kyotera","es":"Kyotera","fr":"Kyotera","ja":"京寺","it":"Kyotera","zh-CN":"京都","tr":"Kyotera","ru":"Киотера","uk":"Кіотера","pl":"Kiotera","hi":"क्योटेरा","ar":"كيوتيرا"}},{"name":"Lugazi","latitude":"0.36788000","longitude":"32.93760000","native":"Lugazi","translations":{"br":"Lugazi","ko":"루가지","pt-BR":"Lugazi","pt":"Lugazi","nl":"Lugazi","hr":"Lugazi","fa":"لوگازی","de":"Lugazi","es":"Lugazi","fr":"Lugazi","ja":"ルガジ","it":"Lugazi","zh-CN":"卢加齐","tr":"Lugazi","ru":"Лугази","uk":"Лугазі","pl":"Lugazi","hi":"लुगाज़ी","ar":"لوغازي"}},{"name":"Luwero","latitude":"0.84917000","longitude":"32.47306000","native":"Seaweed","translations":{"br":"Luwero","ko":"루웨로","pt-BR":"Luwero","pt":"Luwero","nl":"Luwero","hr":"Luwero","fa":"لوورو","de":"Luwero","es":"Luwero","fr":"Luwero","ja":"ルウェロ","it":"Luwero","zh-CN":"卢韦罗","tr":"Luwero","ru":"Луверо","uk":"Луверо","pl":"Luwero","hi":"लुवेरो","ar":"لويرو"}},{"name":"Lyantonde","latitude":"-0.40306000","longitude":"31.15722000","native":"Lyantonde","translations":{"br":"Lyantonde","ko":"리안톤드","pt-BR":"Lyantonde","pt":"Lyantonde","nl":"Lyantonde","hr":"Lyantonde","fa":"لیانتونده","de":"Lyantonde","es":"Lyantonde","fr":"Lyantonde","ja":"リアントンデ","it":"Lyantonde","zh-CN":"利安通德","tr":"Lyantonde","ru":"Лянтонде","uk":"Лянтонде","pl":"Lyantonde","hi":"ल्यंतोंडे","ar":"ليانتوندي"}},{"name":"Masaka","latitude":"-0.33379000","longitude":"31.73409000","native":"Ripe","translations":{"br":"Masaka","ko":"마사카","pt-BR":"Masaka","pt":"Masaka","nl":"Masaka","hr":"Masaka","fa":"ماساکا","de":"Masaka","es":"Masaka","fr":"Masaka","ja":"マサカ","it":"Masaka","zh-CN":"马萨卡","tr":"Masaka","ru":"Масака","uk":"Масака","pl":"Masaka","hi":"मसाका","ar":"ماساكا"}},{"name":"Mityana","latitude":"0.41750000","longitude":"32.02278000","native":"Mityana","translations":{"br":"Mityana","ko":"미티아나","pt-BR":"Mityana","pt":"Mityana","nl":"Mityana","hr":"Mityana","fa":"میتیانا","de":"Mityana","es":"Mityana","fr":"Mityana","ja":"ミティアナ","it":"Mityana","zh-CN":"米蒂亚娜","tr":"Mityana","ru":"Митяна","uk":"Мітяна","pl":"Mityana","hi":"मित्यना","ar":"ميتيانا"}},{"name":"Mpigi","latitude":"0.22500000","longitude":"32.31361000","native":"Mpigi","translations":{"br":"Mpigi","ko":"엠피기","pt-BR":"Mpigi","pt":"Mpigi","nl":"Mpigi","hr":"Mpigi","fa":"امپیگی","de":"Mpigi","es":"Mpigi","fr":"Mpigi","ja":"ムピギ","it":"Mpigi","zh-CN":"姆皮吉","tr":"Mpigi","ru":"Мпиги","uk":"Мпігі","pl":"Mpigi","hi":"म्पिगि","ar":"مبيجي"}},{"name":"Mubende","latitude":"0.55849000","longitude":"31.39489000","native":"The Valley","translations":{"br":"Mubende","ko":"무벤데","pt-BR":"Mubende","pt":"Mubende","nl":"Mubende","hr":"Mubende","fa":"موبنده","de":"Mubende","es":"Mubende","fr":"Mubende","ja":"ムベンデ","it":"Mubende","zh-CN":"穆本德","tr":"Mubende","ru":"Мубенде","uk":"Мубенде","pl":"Mubende","hi":"मुबेंदे","ar":"موبيندي"}},{"name":"Mubende District","latitude":"0.50000000","longitude":"31.50000000","native":"Mubende District","translations":{"br":"Distrig Mubende","ko":"무벤데 지구","pt-BR":"Distrito de Mubende","pt":"Distrito de Mubende","nl":"Mubende-district","hr":"Okrug Mubende","fa":"ناحیه موبنده","de":"Mubende District","es":"Distrito de Mubende","fr":"District de Mubende","ja":"ムベンデ地区","it":"Distretto di Mubende","zh-CN":"穆本德区","tr":"Mubende Bölgesi","ru":"Район Мубенде","uk":"Район Мубенде","pl":"Dzielnica Mubende","hi":"मुबेंडे जिला","ar":"منطقة موبيندي"}},{"name":"Mukono","latitude":"0.35333000","longitude":"32.75528000","native":"Mukono","translations":{"br":"Mukono","ko":"무코노","pt-BR":"Mukono","pt":"Mukono","nl":"Mukono","hr":"Mukono","fa":"موکونو","de":"Mukono","es":"Mukono","fr":"Mukono","ja":"ムコノ","it":"Mukono","zh-CN":"穆科诺","tr":"Mukono","ru":"Муконо","uk":"Муконо","pl":"Mukono","hi":"मुकोनो","ar":"موكونو"}},{"name":"Nakasongola","latitude":"1.30889000","longitude":"32.45639000","native":"Nakasongola","translations":{"br":"Nakasongola","ko":"나카송골라","pt-BR":"Nakasongola","pt":"Nakasongola","nl":"Nakasongola","hr":"Nakasongola","fa":"ناکاسونگولا","de":"Nakasongola","es":"Nakasongola","fr":"Nakasongola","ja":"ナカソンゴラ","it":"Nakasongola","zh-CN":"纳卡松戈拉","tr":"Nakasongola","ru":"Накасонгола","uk":"Накасонгола","pl":"Nakasongola","hi":"नकासोंगोला","ar":"ناكاسونغولا"}},{"name":"Namasuba","latitude":"0.68944000","longitude":"32.42139000","native":"Namasuba","translations":{"br":"Namasuba","ko":"나마수바","pt-BR":"Namasuba","pt":"Namasuba","nl":"Namasuba","hr":"Namasuba","fa":"ناماسوبا","de":"Namasuba","es":"Namasuba","fr":"Namasuba","ja":"なますば","it":"Namasuba","zh-CN":"纳玛苏巴","tr":"Namasuba","ru":"Намасуба","uk":"Намасуба","pl":"Namasuba","hi":"नामसुबा","ar":"ناماسوبا"}},{"name":"Njeru","latitude":"0.44166000","longitude":"33.17917000","native":"It's white","translations":{"br":"Njeru","ko":"네루","pt-BR":"Njeru","pt":"Njeru","nl":"Njeru","hr":"Njeru","fa":"نِجِرو","de":"Njeru","es":"Njeru","fr":"Njeru","ja":"ンジェル","it":"Njeru","zh-CN":"恩杰鲁","tr":"Njeru","ru":"Нджеру","uk":"Нджеру","pl":"Njeru","hi":"नजेरू","ar":"نجيرو"}},{"name":"Sembabule","latitude":"-0.07722000","longitude":"31.45667000","native":"Sembabule","translations":{"br":"Sembabule","ko":"셈바불레","pt-BR":"Sembabule","pt":"Sembabule","nl":"Sembabule","hr":"Sembabule","fa":"سمبابوله","de":"Sembabule","es":"Sembabule","fr":"Sembabule","ja":"センバブレ","it":"Sembabule","zh-CN":"森巴布勒","tr":"Sembabule","ru":"Сембабуле","uk":"Сембабуле","pl":"Sembabule","hi":"सेम्बबुले","ar":"سيمبابول"}},{"name":"Wakiso","latitude":"0.40444000","longitude":"32.45944000","native":"Wakiso","translations":{"br":"Wakiso","ko":"와키소","pt-BR":"Wakiso","pt":"Wakiso","nl":"Wakiso","hr":"Wakiso","fa":"واکیسو","de":"Wakiso","es":"Wakiso","fr":"Wakiso","ja":"ワキソ","it":"Wakiso","zh-CN":"瓦基索","tr":"Wakiso","ru":"Вакисо","uk":"Вакісо","pl":"Wakiso","hi":"वकिसो","ar":"واكيسو"}},{"name":"Wakiso District","latitude":"0.23763000","longitude":"32.47836000","native":"Wakis again District","translations":{"br":"Distrig Wakiso","ko":"와키소 지구","pt-BR":"Distrito de Wakiso","pt":"Distrito de Wakiso","nl":"Wakiso-district","hr":"Okrug Wakiso","fa":"ناحیه واکیسو","de":"Wakiso-Distrikt","es":"Distrito de Wakiso","fr":"District de Wakiso","ja":"和木曽地区","it":"Distretto di Wakiso","zh-CN":"瓦基索区","tr":"Wakiso Bölgesi","ru":"Район Вакисо","uk":"Район Вакісо","pl":"Dzielnica Wakiso","hi":"वाकिसो जिला","ar":"منطقة واكيسو"}},{"name":"Wobulenzi","latitude":"0.72833000","longitude":"32.51222000","native":"Livower","translations":{"br":"Wobulenzi","ko":"워불렌지","pt-BR":"Wobulenzi","pt":"Wobulenzi","nl":"Wobulenzi","hr":"Wobulenzi","fa":"ووبولنزی","de":"Wobulenzi","es":"Wobulenzi","fr":"Wobulenzi","ja":"ウォブレンツィ","it":"Wobulenzi","zh-CN":"沃布伦齐","tr":"Wobulenzi","ru":"Вобулензи","uk":"Вобулензі","pl":"Wobulenzi","hi":"वोबुलेंज़ी","ar":"ووبولينزي"}}]},{"name":"Dokolo District","state_code":"317","latitude":"1.96364210","longitude":"33.03387670","cities":[]},{"name":"Eastern Region","state_code":"E","latitude":"6.23740360","longitude":"-0.45023680","cities":[{"name":"Bugembe","latitude":"0.48213000","longitude":"33.24065000","native":"Knack","translations":{"br":"Bugembe","ko":"부겜베","pt-BR":"Bugembe","pt":"Bugembe","nl":"Bugembe","hr":"Bugembe","fa":"بوگمبه","de":"Bugembe","es":"Bugembe","fr":"Bugembe","ja":"ブゲンベ","it":"Bugembe","zh-CN":"布根贝","tr":"Böcek","ru":"Бугембе","uk":"Бугембе","pl":"Bugembe","hi":"बुगेम्बे","ar":"بوجيمبي"}},{"name":"Bugiri","latitude":"0.57139000","longitude":"33.74167000","native":"Bugiri","translations":{"br":"Bugiri","ko":"부기리","pt-BR":"Bugiri","pt":"Bugiri","nl":"Bugiri","hr":"Bugiri","fa":"بوگیری","de":"Bugiri","es":"Bugiri","fr":"Bugiri","ja":"ブギリ","it":"Bugiri","zh-CN":"布吉里","tr":"Bugiri","ru":"Бугири","uk":"Бугірі","pl":"Bugiri","hi":"बुगिरि","ar":"بوجيري"}},{"name":"Bukwa District","latitude":"1.27115000","longitude":"34.66778000"},{"name":"Bulambuli District","latitude":"1.32055000","longitude":"34.28062000"},{"name":"Busembatia","latitude":"0.77725000","longitude":"33.62364000","native":"Buch","translations":{"br":"Busembatia","ko":"부셈바티아","pt-BR":"Busembatia","pt":"Busembatia","nl":"Busembatia","hr":"Busembatia","fa":"بوسمباتیا","de":"Busembatia","es":"Busembatia","fr":"Busembatia","ja":"ブセンバティア","it":"Busembatia","zh-CN":"布森巴蒂亚","tr":"Busembatia","ru":"Бусембатия","uk":"Бусембатія","pl":"Busembatia","hi":"बुसेम्बतिया","ar":"بوسيمباتيا"}},{"name":"Busia","latitude":"0.46588000","longitude":"34.09221000","native":"Busia","translations":{"br":"Busia","ko":"부시아","pt-BR":"Busia","pt":"Busia","nl":"Busia","hr":"Busia","fa":"بوسیا","de":"Busia","es":"Busia","fr":"Busia","ja":"ブシア","it":"Busia","zh-CN":"布西亚","tr":"Busia","ru":"Бусия","uk":"Бусія","pl":"Busia","hi":"बुसिया","ar":"بوسيا"}},{"name":"Buwenge","latitude":"0.64996000","longitude":"33.17128000","native":"Buwenge","translations":{"br":"Buwenge","ko":"부웬지","pt-BR":"Buwenge","pt":"Buwenge","nl":"Buwenge","hr":"Buwenge","fa":"بوونژه","de":"Buwenge","es":"Buwenge","fr":"Buwenge","ja":"ブウェンゲ","it":"Buwenge","zh-CN":"布文格","tr":"Buwenge","ru":"Бувенге","uk":"Бувенге","pl":"Buwenge","hi":"बुवेंगे","ar":"بوينغ"}},{"name":"Iganga","latitude":"0.60917000","longitude":"33.46861000","native":"Park","translations":{"br":"Iganga","ko":"이강가","pt-BR":"Iganga","pt":"Iganga","nl":"Iganga","hr":"Iganga","fa":"ایگانگا","de":"Iganga","es":"Iganga","fr":"Iganga","ja":"イガンガ","it":"Iganga","zh-CN":"伊甘加","tr":"Iganga","ru":"Иганга","uk":"Іганга","pl":"Iganga","hi":"इगांगा","ar":"إيغانغا"}},{"name":"Jinja","latitude":"0.43902000","longitude":"33.20317000","native":"Jinja","translations":{"br":"Jinja","ko":"진자","pt-BR":"Jinja","pt":"Jinja","nl":"Jinja","hr":"Džinja","fa":"جینجا","de":"Jinja","es":"Jinja","fr":"Jinja","ja":"神社","it":"Jinja","zh-CN":"金贾","tr":"Jinja","ru":"Джинджа","uk":"Джинджа","pl":"Jinja","hi":"जिंजा","ar":"جينجا"}},{"name":"Kamuli","latitude":"0.94722000","longitude":"33.11972000","native":"Kamuli","translations":{"br":"Kamuli","ko":"카물리","pt-BR":"Kamuli","pt":"Kamuli","nl":"Kamuli","hr":"Kamuli","fa":"کامولی","de":"Kamuli","es":"Kamuli","fr":"Kamuli","ja":"カムリ","it":"Kamuli","zh-CN":"卡穆利","tr":"Kamuli","ru":"Камули","uk":"Камулі","pl":"Kamuli","hi":"कमुलि","ar":"كامولي"}},{"name":"Kapchorwa","latitude":"1.40096000","longitude":"34.45038000","native":"Kapchorwa","translations":{"br":"Kapchorwa","ko":"카프초르와","pt-BR":"Kapchorwa","pt":"Kapchorwa","nl":"Kapchorwa","hr":"Kapchorwa","fa":"کاپچوروا","de":"Kapchorwa","es":"Kapchorwa","fr":"Kapchorwa","ja":"カプチョルワ","it":"Kapchorwa","zh-CN":"卡普乔瓦","tr":"Kapçorva","ru":"Капчорва","uk":"Капчорва","pl":"Kapchorwa","hi":"कप्चोर्वा","ar":"كابشوروا"}},{"name":"Kibuku District","latitude":"1.05000000","longitude":"33.80879000"},{"name":"Kumi","latitude":"1.46083000","longitude":"33.93611000","native":"Kumi","translations":{"br":"Kumi","ko":"쿠미","pt-BR":"Kumi","pt":"Kumi","nl":"Kumi","hr":"Kumi","fa":"کومی","de":"Kumi","es":"Kumi","fr":"Kumi","ja":"久美","it":"Kumi","zh-CN":"久美","tr":"Kumi","ru":"Куми","uk":"Кумі","pl":"Kumi","hi":"कुमी","ar":"كومي"}},{"name":"Mayuge","latitude":"0.45972000","longitude":"33.48028000","native":"Mayuge","translations":{"br":"Mayuge","ko":"마유게","pt-BR":"Mayuge","pt":"Mayuge","nl":"Mayuge","hr":"Mayuge","fa":"مایوگه","de":"Mayuge","es":"mayuge","fr":"Mayuge","ja":"マユゲ","it":"Mayuge","zh-CN":"马玉格","tr":"Mayuge","ru":"Маюге","uk":"Маюге","pl":"Mayuge","hi":"मायुगे","ar":"مايوج"}},{"name":"Mbale","latitude":"1.08209000","longitude":"34.17503000","native":"Dish","translations":{"br":"Mbale","ko":"음발레","pt-BR":"Mbale","pt":"Mbale","nl":"Mbale","hr":"Mbale","fa":"مباله","de":"Mbale","es":"Mbale","fr":"Mbale","ja":"ムバレ","it":"Mbale","zh-CN":"姆巴莱","tr":"Mbale","ru":"Мбале","uk":"Мбале","pl":"Mbale","hi":"म्बले","ar":"مبالي"}},{"name":"Pallisa","latitude":"1.14500000","longitude":"33.70944000","native":"Pallisa","translations":{"br":"Pallisa","ko":"팔리사","pt-BR":"Pallisa","pt":"Pallisa","nl":"Pallisa","hr":"Pallisa","fa":"پالیسا","de":"Pallisa","es":"Pallisa","fr":"Pallisa","ja":"パリサ","it":"Pallisa","zh-CN":"帕利萨","tr":"Pallisa","ru":"Паллиса","uk":"Палліса","pl":"Pallisa","hi":"पलीसा","ar":"باليسا"}},{"name":"Sironko","latitude":"1.23132000","longitude":"34.24773000","native":"Sironko","translations":{"br":"Sironko","ko":"시론코","pt-BR":"Sironko","pt":"Sironko","nl":"Sironko","hr":"Sironko","fa":"سیرونکو","de":"Sironko","es":"Sironko","fr":"Sironko","ja":"シロンコ","it":"Sironko","zh-CN":"西龙科","tr":"Sironko","ru":"Сиронко","uk":"Сіронько","pl":"Sironko","hi":"सिरोंको","ar":"سيرونكو"}},{"name":"Soroti","latitude":"1.71464000","longitude":"33.61113000","native":"Soroti","translations":{"br":"Soroti","ko":"소로티","pt-BR":"Soroti","pt":"Soroti","nl":"Soroti","hr":"Soroti","fa":"سوروتی","de":"Soroti","es":"Soroti","fr":"Soroti","ja":"ソロティ","it":"Soroti","zh-CN":"索罗提","tr":"Soroti","ru":"Сороти","uk":"Сороті","pl":"Soroti","hi":"सोरोति","ar":"سوروتي"}},{"name":"Tororo","latitude":"0.69299000","longitude":"34.18085000","native":"Tororo","translations":{"br":"Tororo","ko":"토로로","pt-BR":"Tororo","pt":"Tororo","nl":"Tororo","hr":"Tororo","fa":"تورورو","de":"Tororo","es":"Tororo","fr":"Tororo","ja":"トロロ","it":"Tororo","zh-CN":"托罗罗","tr":"Tororo","ru":"Тороро","uk":"Тороро","pl":"Tororo","hi":"टोरोरो","ar":"تورورو"}}]},{"name":"Gomba District","state_code":"121","latitude":"0.22297910","longitude":"31.67393710","cities":[]},{"name":"Gulu District","state_code":"304","latitude":"2.81857760","longitude":"32.44672380","cities":[]},{"name":"Ibanda District","state_code":"417","latitude":"-0.09648900","longitude":"30.57395790","cities":[]},{"name":"Iganga District","state_code":"203","latitude":"0.66001370","longitude":"33.48319060","cities":[]},{"name":"Isingiro District","state_code":"418","latitude":"-0.84354300","longitude":"30.80394740","cities":[]},{"name":"Jinja District","state_code":"204","latitude":"0.53437430","longitude":"33.30371430","cities":[]},{"name":"Kaabong District","state_code":"318","latitude":"3.51262150","longitude":"33.97500180","cities":[]},{"name":"Kabale District","state_code":"404","latitude":"-1.24930840","longitude":"30.06652360","cities":[]},{"name":"Kabarole District","state_code":"405","latitude":"0.58507910","longitude":"30.25127280","cities":[]},{"name":"Kaberamaido District","state_code":"213","latitude":"1.69633220","longitude":"33.21385100","cities":[]},{"name":"Kagadi District","state_code":"427","latitude":"0.94007610","longitude":"30.81256380","cities":[]},{"name":"Kakumiro District","state_code":"428","latitude":"0.78080350","longitude":"31.32413890","cities":[]},{"name":"Kalangala District","state_code":"101","latitude":"-0.63505780","longitude":"32.53727410","cities":[]},{"name":"Kaliro District","state_code":"222","latitude":"1.04311070","longitude":"33.48319060","cities":[]},{"name":"Kalungu District","state_code":"122","latitude":"-0.09528310","longitude":"31.76513620","cities":[]},{"name":"Kampala District","state_code":"102","latitude":"0.34759640","longitude":"32.58251970","cities":[]},{"name":"Kamuli District","state_code":"205","latitude":"0.91871070","longitude":"33.12390490","cities":[]},{"name":"Kamwenge District","state_code":"413","latitude":"0.22579300","longitude":"30.48184460","cities":[]},{"name":"Kanungu District","state_code":"414","latitude":"-0.81952530","longitude":"29.74260400","cities":[]},{"name":"Kapchorwa District","state_code":"206","latitude":"1.33502050","longitude":"34.39763560","cities":[]},{"name":"Kasese District","state_code":"406","latitude":"0.06462850","longitude":"30.06652360","cities":[]},{"name":"Katakwi District","state_code":"207","latitude":"1.97310300","longitude":"34.06414190","cities":[]},{"name":"Kayunga District","state_code":"112","latitude":"0.98601820","longitude":"32.85357550","cities":[]},{"name":"Kibaale District","state_code":"407","latitude":"0.90668020","longitude":"31.07937050","cities":[]},{"name":"Kiboga District","state_code":"103","latitude":"0.96575900","longitude":"31.71954590","cities":[]},{"name":"Kibuku District","state_code":"227","latitude":"1.04528740","longitude":"33.79925360","cities":[]},{"name":"Kiruhura District","state_code":"419","latitude":"-0.19279980","longitude":"30.80394740","cities":[]},{"name":"Kiryandongo District","state_code":"421","latitude":"2.01799070","longitude":"32.08374450","cities":[]},{"name":"Kisoro District","state_code":"408","latitude":"-1.22094300","longitude":"29.64991620","cities":[]},{"name":"Kitgum District","state_code":"305","latitude":"3.33968290","longitude":"33.16888830","cities":[]},{"name":"Koboko District","state_code":"319","latitude":"3.52370580","longitude":"31.03351000","cities":[]},{"name":"Kole District","state_code":"325","latitude":"2.37010970","longitude":"32.76330360","cities":[]},{"name":"Kotido District","state_code":"306","latitude":"3.04156790","longitude":"33.88577470","cities":[]},{"name":"Kumi District","state_code":"208","latitude":"1.48769990","longitude":"33.93039910","cities":[]},{"name":"Kween District","state_code":"228","latitude":"1.44387900","longitude":"34.59713200","cities":[]},{"name":"Kyankwanzi District","state_code":"123","latitude":"1.09660370","longitude":"31.71954590","cities":[]},{"name":"Kyegegwa District","state_code":"422","latitude":"0.48181930","longitude":"31.05500930","cities":[]},{"name":"Kyenjojo District","state_code":"415","latitude":"0.60929230","longitude":"30.64012310","cities":[]},{"name":"Kyotera District","state_code":"125","latitude":"-0.63589880","longitude":"31.54556370","cities":[]},{"name":"Lamwo District","state_code":"326","latitude":"3.57075680","longitude":"32.53727410","cities":[]},{"name":"Lira District","state_code":"307","latitude":"2.23161690","longitude":"32.94376670","cities":[]},{"name":"Luuka District","state_code":"229","latitude":"0.72505990","longitude":"33.30371430","cities":[]},{"name":"Luwero District","state_code":"104","latitude":"0.82711180","longitude":"32.62774550","cities":[]},{"name":"Lwengo District","state_code":"124","latitude":"-0.41652880","longitude":"31.39989950","cities":[]},{"name":"Lyantonde District","state_code":"114","latitude":"-0.22406960","longitude":"31.21684660","cities":[]},{"name":"Manafwa District","state_code":"223","latitude":"0.90635990","longitude":"34.28660910","cities":[]},{"name":"Maracha District","state_code":"320","latitude":"3.28731270","longitude":"30.94030230","cities":[]},{"name":"Masaka District","state_code":"105","latitude":"-0.44636910","longitude":"31.90179540","cities":[]},{"name":"Masindi District","state_code":"409","latitude":"1.49203630","longitude":"31.71954590","cities":[]},{"name":"Mayuge District","state_code":"214","latitude":"-0.21829820","longitude":"33.57280270","cities":[]},{"name":"Mbale District","state_code":"209","latitude":"1.03442740","longitude":"34.19768820","cities":[]},{"name":"Mbarara District","state_code":"410","latitude":"-0.60715960","longitude":"30.65450220","cities":[]},{"name":"Mitooma District","state_code":"423","latitude":"-0.61932760","longitude":"30.02029640","cities":[]},{"name":"Mityana District","state_code":"115","latitude":"0.44548450","longitude":"32.08374450","cities":[]},{"name":"Moroto District","state_code":"308","latitude":"2.61685450","longitude":"34.59713200","cities":[]},{"name":"Moyo District","state_code":"309","latitude":"3.56964640","longitude":"31.67393710","cities":[]},{"name":"Mpigi District","state_code":"106","latitude":"0.22735280","longitude":"32.32492360","cities":[]},{"name":"Mubende District","state_code":"107","latitude":"0.57727580","longitude":"31.53700030","cities":[]},{"name":"Mukono District","state_code":"108","latitude":"0.28354760","longitude":"32.76330360","cities":[]},{"name":"Nakapiripirit District","state_code":"311","latitude":"1.96061730","longitude":"34.59713200","cities":[]},{"name":"Nakaseke District","state_code":"116","latitude":"1.22308480","longitude":"32.08374450","cities":[]},{"name":"Nakasongola District","state_code":"109","latitude":"1.34897210","longitude":"32.44672380","cities":[]},{"name":"Namayingo District","state_code":"230","latitude":"-0.28035750","longitude":"33.75177230","cities":[]},{"name":"Namisindwa District","state_code":"234","latitude":"0.90710100","longitude":"34.35740370","cities":[]},{"name":"Namutumba District","state_code":"224","latitude":"0.84926100","longitude":"33.66233010","cities":[]},{"name":"Napak District","state_code":"327","latitude":"2.36299450","longitude":"34.24215970","cities":[]},{"name":"Nebbi District","state_code":"310","latitude":"2.44093920","longitude":"31.35416310","cities":[]},{"name":"Ngora District","state_code":"231","latitude":"1.49081150","longitude":"33.75177230","cities":[]},{"name":"Northern Region","state_code":"N","latitude":"9.54392690","longitude":"-0.90566230","cities":[{"name":"Adjumani","latitude":"3.37786000","longitude":"31.79090000","native":"Adjumani","translations":{"br":"Adjumani","ko":"아주마니","pt-BR":"Adjumani","pt":"Adjumani","nl":"Adjumani","hr":"Adžumani","fa":"آجومانی","de":"Adjumani","es":"Adjumani","fr":"Adjumani","ja":"アジュマニ","it":"Adjumani","zh-CN":"阿朱马尼","tr":"Adjumani","ru":"Аджумани","uk":"Аджумані","pl":"Adjumani","hi":"ऍद्जुमनि","ar":"أدجوماني"}},{"name":"Amudat","latitude":"1.95000000","longitude":"34.95000000","native":"Amudat","translations":{"br":"Amudat","ko":"아무다트","pt-BR":"Amudat","pt":"Amudat","nl":"Amudat","hr":"Amudat","fa":"آمودات","de":"Amudat","es":"Amudat","fr":"Amudat","ja":"アムダット","it":"Amudat","zh-CN":"阿穆达特","tr":"Amudat","ru":"Амудат","uk":"Амудат","pl":"Amudat","hi":"अमुदत","ar":"عامودات"}},{"name":"Apac","latitude":"1.97556000","longitude":"32.53861000","native":"Apac","translations":{"br":"Apac","ko":"아팩","pt-BR":"Apac","pt":"Apac","nl":"APAC","hr":"Apački otoci","fa":"آپاک","de":"Asien-Pazifik","es":"Asia Pacífico","fr":"Asie-Pacifique","ja":"アパック","it":"Asia-Pacifico","zh-CN":"亚太地区","tr":"Apac","ru":"Азиатско-Тихоокеанский регион","uk":"Азіатський регіон","pl":"Apac","hi":"ऍपक","ar":"أباك"}},{"name":"Arua","latitude":"3.02013000","longitude":"30.91105000","native":"Arua","translations":{"br":"Arua","ko":"아루아","pt-BR":"Arua","pt":"Arua","nl":"Arua","hr":"Arua","fa":"آروا","de":"Arua","es":"Arua","fr":"Arua","ja":"アルア","it":"Arua","zh-CN":"阿鲁阿","tr":"Arua","ru":"Аруа","uk":"Аруа","pl":"Arua","hi":"ऍरुअ","ar":"أروا"}},{"name":"Gulu","latitude":"2.77457000","longitude":"32.29899000","native":"Cavalry","translations":{"br":"Gulu","ko":"굴루","pt-BR":"Gulu","pt":"Gulu","nl":"Gulu","hr":"Gulu","fa":"گولو","de":"Gulu","es":"Gulu","fr":"Gulu","ja":"グル","it":"Gulu","zh-CN":"咕噜","tr":"Gulu","ru":"Гулу","uk":"Гулу","pl":"Gulu","hi":"गुलु","ar":"جولو"}},{"name":"Kitgum","latitude":"3.27833000","longitude":"32.88667000","native":"Kitgum","translations":{"br":"Kitgum","ko":"키트검","pt-BR":"Kitgum","pt":"Kitgum","nl":"Kitgum","hr":"Kitgum","fa":"کیتگوم","de":"Kitgum","es":"Kitgum","fr":"Kitgum","ja":"キトゥグム","it":"Kitgum","zh-CN":"基特古姆","tr":"Kitgum","ru":"Китгум","uk":"Кітгум","pl":"Kitgum","hi":"कित्गुम","ar":"كيتغوم"}},{"name":"Kotido","latitude":"2.98056000","longitude":"34.13306000","native":"Cotido","translations":{"br":"Kotido","ko":"코티도","pt-BR":"Kotido","pt":"Kotido","nl":"Kotido","hr":"Kotido","fa":"کوتیدو","de":"Kotido","es":"Kotido","fr":"Kotido","ja":"コティド","it":"Kotido","zh-CN":"科蒂多","tr":"Kotido","ru":"Котидо","uk":"Котідо","pl":"Kotido","hi":"कोतिदो","ar":"كوتيدو"}},{"name":"Lira","latitude":"2.24990000","longitude":"32.89985000","native":"Lira","translations":{"br":"Lira","ko":"리라","pt-BR":"Lira","pt":"Lira","nl":"Lire","hr":"Lira","fa":"لیره","de":"Lira","es":"Lira","fr":"Lire","ja":"リラ","it":"Lira","zh-CN":"里拉","tr":"Lira","ru":"Лира","uk":"Ліра","pl":"Lira","hi":"लीरा","ar":"ليرة"}},{"name":"Moroto","latitude":"2.53453000","longitude":"34.66659000","native":"Moroto","translations":{"br":"Moroto","ko":"모로토","pt-BR":"Moroto","pt":"Moroto","nl":"Moroto","hr":"Moroto","fa":"موروتو","de":"Moroto","es":"Moroto","fr":"Moroto","ja":"モロト","it":"Moroto","zh-CN":"莫罗托","tr":"Moroto","ru":"Морото","uk":"Морото","pl":"Moroto","hi":"मॉरोटो","ar":"موروتو"}},{"name":"Moyo","latitude":"3.66088000","longitude":"31.72474000","native":"Moyo","translations":{"br":"Moyo","ko":"모요","pt-BR":"Moyo","pt":"Moyo","nl":"Moyo","hr":"Moyo","fa":"مویو","de":"Moyo","es":"Moyo","fr":"Moyo","ja":"モヨ","it":"Moyo","zh-CN":"莫约","tr":"Moyo","ru":"Мойо","uk":"Мойо","pl":"Moyo","hi":"मोयो","ar":"مويو"}},{"name":"Nebbi","latitude":"2.47826000","longitude":"31.08893000","native":"Nebbi","translations":{"br":"Nebbi","ko":"네비","pt-BR":"Nebbi","pt":"Nebbi","nl":"Nebbi","hr":"Nebbi","fa":"نبی","de":"Nebbi","es":"Nebbi","fr":"Nebbi","ja":"ネビ","it":"Nebbi","zh-CN":"内比","tr":"Nebbi","ru":"Небби","uk":"Неббі","pl":"Nebbi","hi":"नेब्बि","ar":"نيبي"}},{"name":"Otuke District","latitude":"2.48372000","longitude":"33.34201000"},{"name":"Oyam District","latitude":"2.38129000","longitude":"32.50071000"},{"name":"Pader","latitude":"3.05000000","longitude":"33.21667000","native":"Wall","translations":{"br":"Pader","ko":"파더","pt-BR":"Pader","pt":"Pader","nl":"Pader","hr":"Pader","fa":"پادر","de":"Pader","es":"Pader","fr":"Pader","ja":"パダー","it":"Pader","zh-CN":"帕德","tr":"Pader","ru":"Падер","uk":"Падер","pl":"Pader","hi":"पेडर","ar":"بادر"}},{"name":"Pader Palwo","latitude":"2.80056000","longitude":"33.13500000","native":"Palwo wall","translations":{"br":"Pader Palwo","ko":"파데르 팔워","pt-BR":"Pader Palwo","pt":"Pader Palwo","nl":"Pader Palwo","hr":"Pader Palwo","fa":"پادر پالوو","de":"Pader Palwo","es":"Pader Palwo","fr":"Pader Palwo","ja":"パダー・パルウォ","it":"Pader Palwo","zh-CN":"帕德·帕尔沃","tr":"Pader Palwo","ru":"Падер Палво","uk":"Падер Палво","pl":"Pader Palwo","hi":"पैडर पल्वो","ar":"بادير بالوو"}},{"name":"Paidha","latitude":"2.41669000","longitude":"30.98551000","native":"Paidha","translations":{"br":"Paidha","ko":"파이다","pt-BR":"Paidha","pt":"Paidha","nl":"Paidha","hr":"Paidha","fa":"پیدا","de":"Paidha","es":"Paidha","fr":"Paidha","ja":"パイダ","it":"Paidha","zh-CN":"帕伊达","tr":"Paidha","ru":"Пайдха","uk":"Пайдха","pl":"Paidha","hi":"पैधा","ar":"بايدها"}},{"name":"Yumbe","latitude":"3.46506000","longitude":"31.24689000","native":"Hello","translations":{"br":"Yumbe","ko":"윰베","pt-BR":"Yumbe","pt":"Yumbe","nl":"Yumbe","hr":"Yumbe","fa":"یامبه","de":"Yumbe","es":"Yumbe","fr":"Yumbe","ja":"ユンベ","it":"Yumbe","zh-CN":"尤姆贝","tr":"Yumbe","ru":"Юмбе","uk":"Юмбе","pl":"Yumbe","hi":"युम्बे","ar":"يومبي"}}]},{"name":"Ntoroko District","state_code":"424","latitude":"1.07881780","longitude":"30.38966510","cities":[]},{"name":"Ntungamo District","state_code":"411","latitude":"-0.98073410","longitude":"30.25127280","cities":[]},{"name":"Nwoya District","state_code":"328","latitude":"2.56244400","longitude":"31.90179540","cities":[]},{"name":"Omoro District","state_code":"331","latitude":"2.71522300","longitude":"32.49200880","cities":[]},{"name":"Otuke District","state_code":"329","latitude":"2.52140590","longitude":"33.34861470","cities":[]},{"name":"Oyam District","state_code":"321","latitude":"2.27762810","longitude":"32.44672380","cities":[]},{"name":"Pader District","state_code":"312","latitude":"2.94306820","longitude":"32.80844960","cities":[]},{"name":"Pakwach District","state_code":"332","latitude":"2.46071410","longitude":"31.49417380","cities":[]},{"name":"Pallisa District","state_code":"210","latitude":"1.23242060","longitude":"33.75177230","cities":[]},{"name":"Rakai District","state_code":"110","latitude":"-0.70691350","longitude":"31.53700030","cities":[]},{"name":"Rubanda District","state_code":"429","latitude":"-1.18611900","longitude":"29.84535760","cities":[]},{"name":"Rubirizi District","state_code":"425","latitude":"-0.26424100","longitude":"30.10840330","cities":[]},{"name":"Rukiga District","state_code":"431","latitude":"-1.13263370","longitude":"30.04341200","cities":[]},{"name":"Rukungiri District","state_code":"412","latitude":"-0.75184900","longitude":"29.92779470","cities":[]},{"name":"Sembabule District","state_code":"111","latitude":"0.06377150","longitude":"31.35416310","cities":[]},{"name":"Serere District","state_code":"232","latitude":"1.49940330","longitude":"33.54900780","cities":[]},{"name":"Sheema District","state_code":"426","latitude":"-0.55152980","longitude":"30.38966510","cities":[]},{"name":"Sironko District","state_code":"215","latitude":"1.23022740","longitude":"34.24910640","cities":[]},{"name":"Soroti District","state_code":"211","latitude":"1.72291170","longitude":"33.52800720","cities":[]},{"name":"Tororo District","state_code":"212","latitude":"0.68709940","longitude":"34.06414190","cities":[]},{"name":"Wakiso District","state_code":"113","latitude":"0.06301900","longitude":"32.44672380","cities":[]},{"name":"Western Region","state_code":"W","latitude":"40.76672150","longitude":"-111.88772030","cities":[{"name":"Bundibugyo","latitude":"0.71117000","longitude":"30.06469000","native":"Bundibugyo","translations":{"br":"Bundibugyo","ko":"분디부교","pt-BR":"Bundibugyo","pt":"Bundibugyo","nl":"Bundibugyo","hr":"Bundibugyo","fa":"بوندی بوگیو","de":"Bundibugyo","es":"Bundibugyo","fr":"Bundibugyo","ja":"ブンディ奉行","it":"Bundibugyo","zh-CN":"本迪布焦","tr":"Bundibugyo","ru":"Бундибугио","uk":"Bundibugyo","pl":"Bundibugyo","hi":"बुन्दिबुग्यो","ar":"بونديبوغيو"}},{"name":"Bwizibwera","latitude":"-0.59167000","longitude":"30.62861000","native":"Come","translations":{"br":"Bwizibwera","ko":"브위지브웨라","pt-BR":"Bwizibwera","pt":"Bwizibwera","nl":"Bwizibwera","hr":"Bwizibwera","fa":"بویزیبورا","de":"Bwizibwera","es":"Bwizibwera","fr":"Bwizibwera","ja":"ブウィジブウェラ","it":"Bwizibwera","zh-CN":"布维齐布韦拉","tr":"Bwizibwera","ru":"Бвизибвера","uk":"Бвізібвера","pl":"Bwizibwera","hi":"ब्विज़िब्वेरा","ar":"بويزيبويرا"}},{"name":"Fort Portal","latitude":"0.66174000","longitude":"30.27480000","native":"Fort Portal","translations":{"br":"Porzh ar c'hreñvlec'h","ko":"포트 포털","pt-BR":"Portal do Forte","pt":"Portal do Forte","nl":"Fort Portaal","hr":"Portal tvrđave","fa":"پورتال فورت","de":"Fort Portal","es":"Portal del Fuerte","fr":"Portail du Fort","ja":"フォートポータル","it":"Portale del Forte","zh-CN":"门户要塞","tr":"Kale Portalı","ru":"Форт Портал","uk":"Форт-Портал","pl":"Portal fortu","hi":"फोर्ट पोर्टल","ar":"بوابة الحصن"}},{"name":"Hoima","latitude":"1.43314000","longitude":"31.35241000","native":"Hoima","translations":{"br":"Hoima","ko":"호이마","pt-BR":"Hoima","pt":"Hoima","nl":"Hoima","hr":"Hoima","fa":"هویما","de":"Hoima","es":"Hoima","fr":"Hoima","ja":"ホイマ","it":"Hoima","zh-CN":"霍伊马","tr":"Hoima","ru":"Хоима","uk":"Хойма","pl":"Hoima","hi":"होइमा","ar":"هويما"}},{"name":"Ibanda","latitude":"-0.13398000","longitude":"30.49616000","native":"Cold","translations":{"br":"Ibanda","ko":"이반다","pt-BR":"Ibanda","pt":"Ibanda","nl":"Ibanda","hr":"Ibanda","fa":"ایباندا","de":"Ibanda","es":"Ibanda","fr":"Ibanda","ja":"イバンダ","it":"Ibanda","zh-CN":"伊班达","tr":"Ibanda","ru":"Ибанда","uk":"Ібанда","pl":"Ibanda","hi":"इबांडा","ar":"إيباندا"}},{"name":"Ibanda District","latitude":"-0.08100000","longitude":"30.55600000","native":"Ibanda District","translations":{"br":"Distrig Ibanda","ko":"이반다 지구","pt-BR":"Distrito de Ibanda","pt":"Distrito de Ibanda","nl":"Ibanda-district","hr":"Okrug Ibanda","fa":"ناحیه ایباندا","de":"Distrikt Ibanda","es":"Distrito de Ibanda","fr":"District d'Ibanda","ja":"イバンダ地区","it":"Distretto di Ibanda","zh-CN":"伊班达区","tr":"Ibanda Bölgesi","ru":"Район Ибанда","uk":"Ібанда Район","pl":"Dystrykt Ibanda","hi":"इबांडा जिला","ar":"منطقة إيباندا"}},{"name":"Kabale","latitude":"-1.24857000","longitude":"29.98993000","native":"Cabal","translations":{"br":"Kabale","ko":"카발레","pt-BR":"Kabale","pt":"Kabale","nl":"Kabale","hr":"Kabale","fa":"کاباله","de":"Kabale","es":"Kabale","fr":"Kabale","ja":"カバレ","it":"Kabale","zh-CN":"卡巴莱","tr":"Kabale","ru":"Кабале","uk":"Кабале","pl":"Kabale","hi":"कबले","ar":"كابالي"}},{"name":"Kagadi","latitude":"0.93778000","longitude":"30.80889000","native":"Kagadi","translations":{"br":"Kagadi","ko":"카가디","pt-BR":"Kagadi","pt":"Kagadi","nl":"Kagadi","hr":"Kagadi","fa":"کاگادی","de":"Kagadi","es":"Kagadi","fr":"Kagadi","ja":"カガディ","it":"Kagadi","zh-CN":"卡加迪","tr":"Kagadi","ru":"Кагади","uk":"Кагаді","pl":"Kagadi","hi":"कागदी","ar":"كاغادي"}},{"name":"Kamwenge","latitude":"0.18660000","longitude":"30.45393000","native":"Kamwenge","translations":{"br":"Kamwenge","ko":"캄웬게","pt-BR":"Kamwenge","pt":"Kamwenge","nl":"Kamwenge","hr":"Kamwenge","fa":"کامونگه","de":"Kamwenge","es":"Kamwenge","fr":"Kamwenge","ja":"カムウェンゲ","it":"Kamwenge","zh-CN":"卡姆文格","tr":"Kamwenge","ru":"Камвенге","uk":"Камвенге","pl":"Kamwenge","hi":"कम्वेंगे","ar":"كاموينجي"}},{"name":"Kanungu","latitude":"-0.95750000","longitude":"29.78972000","native":"Kanungu","translations":{"br":"Kanungu","ko":"카눙구","pt-BR":"Kanungu","pt":"Kanungu","nl":"Kanungu","hr":"Kanungu","fa":"کانونگو","de":"Kanungu","es":"Kanungu","fr":"Kanungu","ja":"カヌング","it":"Kanungu","zh-CN":"卡农古","tr":"Kanungu","ru":"Канунгу","uk":"Канунгу","pl":"Kanungu","hi":"कनुंगु","ar":"كانونجو"}},{"name":"Kasese","latitude":"0.18333000","longitude":"30.08333000","native":"Kasese","translations":{"br":"Kasese","ko":"카세세","pt-BR":"Kasese","pt":"Kasese","nl":"Kasese","hr":"Kasese","fa":"کاسسه","de":"Kasese","es":"Kasese","fr":"Kasese","ja":"カセセ","it":"Kasese","zh-CN":"卡塞塞","tr":"Kasese","ru":"Касесе","uk":"Касесе","pl":"Kasese","hi":"कसेसे","ar":"كاسيسي"}},{"name":"Kibale","latitude":"0.80000000","longitude":"31.06667000","native":"Kibale","translations":{"br":"Kibale","ko":"키발레","pt-BR":"Kibale","pt":"Kibale","nl":"Kibale","hr":"Kibale","fa":"کیباله","de":"Kibale","es":"Kibale","fr":"Kibale","ja":"キバレ","it":"Kibale","zh-CN":"基巴莱","tr":"Kibale","ru":"Кибале","uk":"Кібале","pl":"Kibale","hi":"किबाले","ar":"كيبالي"}},{"name":"Kigorobya","latitude":"1.61620000","longitude":"31.30890000","native":"Kigorobya","translations":{"br":"Kigorobya","ko":"키고로비아","pt-BR":"Kigorobya","pt":"Kigorobya","nl":"Kigorobya","hr":"Kigorobja","fa":"کیگوروبیا","de":"Kigorobya","es":"Kigorobya","fr":"Kigorobya","ja":"キゴロビヤ","it":"Kigorobya","zh-CN":"基戈罗比亚","tr":"Kigorobya","ru":"Кигоробья","uk":"Кігороб'я","pl":"Kigorobya","hi":"किगोरोब्या","ar":"كيجوروبيا"}},{"name":"Kilembe","latitude":"0.19835000","longitude":"30.01302000","native":"Kilembe","translations":{"br":"Kilembe","ko":"킬렘베","pt-BR":"Kilembe","pt":"Kilembe","nl":"Kilembe","hr":"Kilembe","fa":"کیلمبه","de":"Kilembe","es":"Kilembe","fr":"Kilembe","ja":"キレンベ","it":"Kilembe","zh-CN":"基伦贝","tr":"Kilembe","ru":"Килембе","uk":"Кілембе","pl":"Kilembe","hi":"किलेम्बे","ar":"كيليمبي"}},{"name":"Kiruhura","latitude":"-0.19664000","longitude":"30.84446000","native":"KirUhura","translations":{"br":"Kiruhura","ko":"키루후라","pt-BR":"Kiruhura","pt":"Kiruhura","nl":"Kiruhura","hr":"Kiruhura","fa":"کیروهورا","de":"Kiruhura","es":"Kiruhura","fr":"Kiruhura","ja":"キルフラ","it":"Kiruhura","zh-CN":"基鲁胡拉","tr":"Kiruhura","ru":"Кирухура","uk":"Кірухура","pl":"Kiruhura","hi":"किरुहुरा","ar":"كيروهورا"}},{"name":"Kisoro","latitude":"-1.28538000","longitude":"29.68497000","native":"Kisoro","translations":{"br":"Kisoro","ko":"키소로","pt-BR":"Kisoro","pt":"Kisoro","nl":"Kisoro","hr":"Kisoro","fa":"کیسورو","de":"Kisoro","es":"Kisoro","fr":"Kisoro","ja":"キソロ","it":"Kisoro","zh-CN":"基索罗","tr":"Kisoro","ru":"Кисоро","uk":"Кісоро","pl":"Kisoro","hi":"किसोरो","ar":"كيسورو"}},{"name":"Kyenjojo","latitude":"0.63278000","longitude":"30.62139000","native":"KYANJOJO","translations":{"br":"Kyenjojo","ko":"켄조조","pt-BR":"Kyenjojo","pt":"Kyenjojo","nl":"Kyenjojo","hr":"Kyenjojo","fa":"کینجوجو","de":"Kyenjojo","es":"Kyenjojo","fr":"Kyenjojo","ja":"キエンジョジョ","it":"Kyenjojo","zh-CN":"基延乔乔","tr":"Kyenjojo","ru":"Кьендзёдзё","uk":"Кьєнджоджо","pl":"Kyenjojo","hi":"क्येंजोजो","ar":"كينجوجو"}},{"name":"Margherita","latitude":"0.41861000","longitude":"29.89111000","native":"Margherita","translations":{"br":"Margherita","ko":"마르게리타","pt-BR":"Margarida","pt":"Margarida","nl":"Margherita","hr":"Margherita","fa":"مارگاریتا","de":"Margherita","es":"Margarita","fr":"Marguerite","ja":"マルゲリータ","it":"Margherita","zh-CN":"玛格丽特","tr":"Margarita","ru":"Маргарита","uk":"Маргарита","pl":"Margherita","hi":"मार्गेरिटा","ar":"مارغريتا"}},{"name":"Masindi","latitude":"1.67444000","longitude":"31.71500000","native":"Masindi","translations":{"br":"Masindi","ko":"마신디","pt-BR":"Masindi","pt":"Masindi","nl":"Masindi","hr":"Masindi","fa":"ماسیندی","de":"Masindi","es":"Masindi","fr":"Masindi","ja":"マシンディ","it":"Masindi","zh-CN":"马辛迪","tr":"Masindi","ru":"Масинди","uk":"Масінді","pl":"Masindi","hi":"मसिन्दि","ar":"ماسيندي"}},{"name":"Masindi Port","latitude":"1.69606000","longitude":"32.08608000","native":"Masindi port","translations":{"br":"Porzh Masindi","ko":"마신디 항구","pt-BR":"Porto de Masindi","pt":"Porto de Masindi","nl":"Masindi-haven","hr":"Luka Masindi","fa":"بندر ماسیندی","de":"Hafen von Masindi","es":"Puerto de Masindi","fr":"Port de Masindi","ja":"マシンディ港","it":"Porto di Masindi","zh-CN":"马辛迪港","tr":"Masindi Limanı","ru":"Порт Масинди","uk":"Порт Масінді","pl":"Port Masindi","hi":"मसिंदी बंदरगाह","ar":"ميناء ماسيندي"}},{"name":"Mbarara","latitude":"-0.60467000","longitude":"30.64851000","native":"Robbery","translations":{"br":"Mbarara","ko":"음바라라","pt-BR":"Mbarara","pt":"Mbarara","nl":"Mbarara","hr":"Mbarara","fa":"مبارا","de":"Mbarara","es":"Mbarara","fr":"Mbarara","ja":"ムバララ","it":"Mbarara","zh-CN":"姆巴拉拉","tr":"Mbarara","ru":"Мбарара","uk":"Мбарара","pl":"Mbarara","hi":"म्बरारा","ar":"مبارارا"}},{"name":"Muhororo","latitude":"0.93806000","longitude":"30.75944000","native":"Muhororo","translations":{"br":"Muhororo","ko":"무호로로","pt-BR":"Muhororo","pt":"Muhororo","nl":"Muhororo","hr":"Muhororo","fa":"موهورورو","de":"Muhororo","es":"Muhororo","fr":"Muhororo","ja":"ムホロロ","it":"Muhororo","zh-CN":"穆霍罗罗","tr":"Muhororo","ru":"Мухороро","uk":"Мухороро","pl":"Muhororo","hi":"मुहोरोरो","ar":"موهورورو"}},{"name":"Ntungamo","latitude":"-0.87944000","longitude":"30.26417000","native":"Ntungamo","translations":{"br":"Ntungamo","ko":"은퉁가모","pt-BR":"Ntungamo","pt":"Ntungamo","nl":"Ntungamo","hr":"Ntungamo","fa":"نتونگامو","de":"Ntungamo","es":"Ntungamo","fr":"Ntungamo","ja":"ントゥンガモ","it":"Ntungamo","zh-CN":"恩通加莫","tr":"Ntungamo","ru":"Нтунгамо","uk":"Нтунгамо","pl":"Ntungamo","hi":"न्तुंगमो","ar":"نتونغامو"}},{"name":"Nyachera","latitude":"-0.90000000","longitude":"30.41667000","native":"Push","translations":{"br":"Nyachera","ko":"니아체라","pt-BR":"Nyachera","pt":"Nyachera","nl":"Nyachera","hr":"Njačera","fa":"نیاچرا","de":"Nyachera","es":"Nyachera","fr":"Nyachera","ja":"ニャチェラ","it":"Nyachera","zh-CN":"尼亚切拉","tr":"Nyachera","ru":"Ньячера","uk":"Ньячера","pl":"Nyachera","hi":"न्याचेरा","ar":"نياتشيرا"}},{"name":"Rukungiri","latitude":"-0.84111000","longitude":"29.94194000","native":"Rukungiri","translations":{"br":"Rukungiri","ko":"루쿤기리","pt-BR":"Rukungiri","pt":"Rukungiri","nl":"Rukungiri","hr":"Rukungiri","fa":"روکونگیری","de":"Rukungiri","es":"Rukungiri","fr":"Rukungiri","ja":"ルクンギリ","it":"Rukungiri","zh-CN":"鲁孔吉里","tr":"Rukungiri","ru":"Рукунгири","uk":"Рукунгірі","pl":"Rukungiri","hi":"रुकनगिरि","ar":"روكونجيري"}}]},{"name":"Yumbe District","state_code":"313","latitude":"3.46980230","longitude":"31.24832910","cities":[]},{"name":"Zombo District","state_code":"330","latitude":"2.55442930","longitude":"30.94173680","cities":[]}]}